[
  {
    "name": "楽市楽座黒崎店",
    "operation_time": "10:00～24:00",
    "holiday": "無し",
    "latitude": "33.86569306",
    "longitude": "130.7560829",
    "tel": "093-621-4800",
    "address": "北九州市八幡西区桜ヶ丘町1-3フレスポ黒崎2F",
    "access": "JR黒崎駅近く国道3号線沿い",
    "games": [
      "おとぎの国のアニマ"
    ]
  },
  {
    "name": "サープラ山口あそびタウン",
    "operation_time": "9:00～24:00",
    "holiday": "無し",
    "latitude": "34.1647908",
    "longitude": "131.4517343",
    "tel": "083-933-0307",
    "address": "山口市湯田温泉6-8-3",
    "access": "JR山口線 湯田温泉駅下車 湯田自動車学校方面徒歩10分",
    "games": [
      "おとぎの国のアニマ"
    ]
  },
  {
    "name": "サープラ都城あそびタウン",
    "operation_time": "",
    "holiday": "",
    "latitude": "31.749022",
    "longitude": "131.079009",
    "tel": "0986-46-2422",
    "address": "都城市上川東4-5997-4",
    "access": "",
    "games": [
      "おとぎの国のアニマ"
    ]
  },
  {
    "name": "ゲームアイビス太子店",
    "operation_time": "10:00～24:00",
    "holiday": "無し",
    "latitude": "34.83203126",
    "longitude": "134.6001053",
    "tel": "0792-77-2320",
    "address": "揖保郡太子町太田2148-1",
    "access": "姫路バイパス太子ランプより相生方面へ車で5分",
    "games": [
      "おとぎの国のアニマ"
    ]
  },
  {
    "name": "アミューズメントパフェ パレパレ",
    "operation_time": "10:00～24:00",
    "holiday": "無し",
    "latitude": "34.08586633",
    "longitude": "134.5426759",
    "tel": "088-677-8991",
    "address": "徳島市南田宮2-2-46",
    "access": "国道11号線から田宮街道を西に車で5分",
    "games": [
      "おとぎの国のアニマ"
    ]
  },
  {
    "name": "サープラ富士あそびタウン",
    "operation_time": "10:00～24:00 土日祝9:00～24:00",
    "holiday": "無し",
    "latitude": "35.16272123",
    "longitude": "138.6694286",
    "tel": "0545-67-7733",
    "address": "富士市永田町2-94",
    "access": "東名高速富士I.C車で10分",
    "games": [
      "おとぎの国のアニマ"
    ]
  },
  {
    "name": "パレパレ稲毛長沼店",
    "operation_time": "9:00～24:00",
    "holiday": "無し",
    "latitude": "35.65753267",
    "longitude": "140.129187",
    "tel": "043-304-7878",
    "address": "千葉市稲毛区長沼原町731-25フレスポ稲毛A2棟-4",
    "access": "JR稲毛駅より京成バス山王町行き、ヴィルフォーレ下車2分",
    "games": [
      "おとぎの国のアニマ"
    ]
  }
]