[
  {
    "name": "アピナ姫路店",
    "operation_time": "",
    "holiday": "",
    "latitude": "34.82687",
    "longitude": "134.7151",
    "tel": "079-222-8811",
    "address": "姫路市東郷町1454-3姫路リオス2F",
    "access": "",
    "games": [
      "ビシバシチャンネル"
    ]
  },
  {
    "name": "パルケ上賀茂店",
    "operation_time": "平日12:00～24:00 土11:00～24:00 日12:00～24:00",
    "holiday": "",
    "latitude": "35.06680723",
    "longitude": "135.7462635",
    "tel": "075-711-4622",
    "address": "京都市北区上賀茂西河原町1-1",
    "access": "",
    "games": [
      "ビシバシチャンネル"
    ]
  },
  {
    "name": "サンボウル",
    "operation_time": "10:00～24:00",
    "holiday": "",
    "latitude": "34.77078775",
    "longitude": "136.1186566",
    "tel": "0595-24-0568",
    "address": "伊賀市小田町南出1528",
    "access": "名阪国道上野東IC15分",
    "games": [
      "ビシバシチャンネル"
    ]
  },
  {
    "name": "ファンタジープラザ名古屋店",
    "operation_time": "10:00～翌5:00",
    "holiday": "無し",
    "latitude": "35.22569311",
    "longitude": "136.908786",
    "tel": "052-938-3461",
    "address": "名古屋市北区玄馬町234-1クロスタウン2F",
    "access": "比良駅徒歩6分/大我麻交差点付近",
    "games": [
      "ビシバシチャンネル"
    ]
  },
  {
    "name": "ドラマ瑞穂店",
    "operation_time": "10:00～24:00",
    "holiday": "無し",
    "latitude": "35.76337213",
    "longitude": "139.3568934",
    "tel": "042-556-6605",
    "address": "西多摩郡瑞穂町武蔵382-1",
    "access": "JR八高線「箱根ヶ崎駅」から武蔵村山市方面に徒歩25分",
    "games": [
      "ビシバシチャンネル"
    ]
  },
  {
    "name": "ドラマ八王子高倉店",
    "operation_time": "10:00～24:00",
    "holiday": "無し",
    "latitude": "35.66506526",
    "longitude": "139.3664795",
    "tel": "0426-45-7050",
    "address": "八王子市高倉町55-4",
    "access": "国道20号、八王子市高倉町「高倉町西」交差点を日野バイパス豊田方面右手",
    "games": [
      "ビシバシチャンネル"
    ]
  },
  {
    "name": "ピンクパンサー 下妻店",
    "operation_time": "12:00～24:00",
    "holiday": "無し",
    "latitude": "36.17067062",
    "longitude": "139.9664734",
    "tel": "0296-43-6880",
    "address": "下妻市小島884-10",
    "access": "国道旧294号線沿い",
    "games": [
      "ビシバシチャンネル"
    ]
  },
  {
    "name": "大慶園",
    "operation_time": "一部24時間営業",
    "holiday": "無し",
    "latitude": "35.76304297",
    "longitude": "139.96933",
    "tel": "047-337-5001",
    "address": "市川市大町359",
    "access": "JR市川大野駅下車 市川植物園行きバス乗車 市川斎場前下車徒歩10分・北総線大町駅から車5分",
    "games": [
      "ビシバシチャンネル"
    ]
  }
]