[
  {
    "name": "アミュージアム高松店",
    "operation_time": "10:00～24:00",
    "holiday": "無し",
    "latitude": "34.30772106",
    "longitude": "134.0602944",
    "tel": "087-869-2128",
    "address": "高松市伏石町2144-9",
    "access": "JR高松駅から車で20分。高松中央ICから車で5分。レインボーロードとバイパスの交差点",
    "games": [
      "フォーチュントリニティ"
    ]
  },
  {
    "name": "アピナ富山南店",
    "operation_time": "10:00～24:00",
    "holiday": "無し",
    "latitude": "36.665007",
    "longitude": "137.217248",
    "tel": "076-461-6644",
    "address": "富山市堀川町355-3",
    "access": "富山マイプラザ店内",
    "games": [
      "フォーチュントリニティ"
    ]
  },
  {
    "name": "アピナ川中島店",
    "operation_time": "10:00～24:00",
    "holiday": "無し",
    "latitude": "36.597909",
    "longitude": "138.157802",
    "tel": "026-214-6699",
    "address": "長野市川中島町御厨967-1",
    "access": "77号線長野南郵便局隣",
    "games": [
      "フォーチュントリニティ"
    ]
  },
  {
    "name": "アピナ小山店",
    "operation_time": "10:00～24:00",
    "holiday": "無し",
    "latitude": "36.300419",
    "longitude": "139.809126",
    "tel": "0285-31-0050",
    "address": "小山市駅南町4-27-18",
    "access": "国道50号線沿い駅南町交差点",
    "games": [
      "フォーチュントリニティ"
    ]
  },
  {
    "name": "アピナ橋本店",
    "operation_time": "10:00～24:00",
    "holiday": "無し",
    "latitude": "35.597682",
    "longitude": "139.337035",
    "tel": "042-703-6033",
    "address": "相模原市緑区西橋本5-1-1ラ･フロール駐車場棟1F",
    "access": "橋本駅から徒歩10分 八王子バイパスから津久井街道へ繋がる側道に入ってすぐ",
    "games": [
      "フォーチュントリニティ"
    ]
  },
  {
    "name": "Amusement&Game MAGHREB",
    "operation_time": "10:00～24:00",
    "holiday": "無し",
    "latitude": "35.624024",
    "longitude": "139.423196",
    "tel": "042-371-5556",
    "address": "多摩市落合1-39-2マグレブビル1F",
    "access": "京王線・小田急線 多摩センター駅 徒歩3分/多摩モノレール多摩センター駅 徒歩1分",
    "games": [
      "フォーチュントリニティ"
    ]
  }
]