[
  {
    "name": "楽市楽座イオンモール福岡伊都店",
    "operation_time": "10:00～22:00",
    "holiday": "施設の営業日に準じる",
    "latitude": "33.577027",
    "longitude": "130.256399",
    "tel": "092-805-8900",
    "address": "福岡市西区北原1-3-1イオン伊都ショッピンクセンター別館",
    "access": "JR筑肥線 九大学研都市駅 南口すぐ",
    "games": [
      "GITADORA DrumMania -ARENA MODEL-"
    ]
  },
  {
    "name": "GiGO福岡天神",
    "operation_time": "",
    "holiday": "",
    "latitude": "33.589905",
    "longitude": "130.396633",
    "tel": "092-771-8121",
    "address": "福岡市中央区天神2-7-6天神DADAビル",
    "access": "",
    "games": [
      "GITADORA DrumMania -ARENA MODEL-"
    ]
  },
  {
    "name": "ラウンドワン福岡天神店",
    "operation_time": "",
    "holiday": "",
    "latitude": "33.58960223",
    "longitude": "130.3968402",
    "tel": "092-720-8101",
    "address": "福岡市中央区天神2-6-12",
    "access": "",
    "games": [
      "GITADORA DrumMania -ARENA MODEL-"
    ]
  },
  {
    "name": "楽市街道箱崎店2F",
    "operation_time": "10:00～27:00",
    "holiday": "無し",
    "latitude": "33.62410817",
    "longitude": "130.4195897",
    "tel": "092-642-0760",
    "address": "福岡市東区箱崎5-1-8楽市街道箱崎店内2F",
    "access": "",
    "games": [
      "GITADORA DrumMania -ARENA MODEL-"
    ]
  },
  {
    "name": "namco博多バスターミナル店",
    "operation_time": "",
    "holiday": "",
    "latitude": "33.591529",
    "longitude": "130.419887",
    "tel": "092-434-3721",
    "address": "福岡市博多区博多駅中央街2-1博多バスターミナル7F",
    "access": "",
    "games": [
      "GITADORA DrumMania -ARENA MODEL-"
    ]
  },
  {
    "name": "最後の5$",
    "operation_time": "一部24時間営業",
    "holiday": "無し",
    "latitude": "33.60926671",
    "longitude": "130.4453319",
    "tel": "092-612-8080",
    "address": "糟屋郡粕屋町大字仲原2706",
    "access": "国道3号線博多バイパスを空港口交差点から北へ5分ほど。",
    "games": [
      "GITADORA DrumMania -ARENA MODEL-"
    ]
  },
  {
    "name": "ラウンドワン博多半道橋店",
    "operation_time": "",
    "holiday": "",
    "latitude": "33.58394157",
    "longitude": "130.4382666",
    "tel": "092-475-6611",
    "address": "福岡市博多区半道橋2-2-8",
    "access": "",
    "games": [
      "GITADORA DrumMania -ARENA MODEL-"
    ]
  },
  {
    "name": "ラウンドワン佐賀店",
    "operation_time": "",
    "holiday": "",
    "latitude": "33.27533631",
    "longitude": "130.3015536",
    "tel": "0952-36-7070",
    "address": "佐賀市兵庫北4-2-1",
    "access": "",
    "games": [
      "GITADORA DrumMania -ARENA MODEL-"
    ]
  },
  {
    "name": "ラウンドワン大野城店",
    "operation_time": "",
    "holiday": "",
    "latitude": "33.54646948",
    "longitude": "130.4822214",
    "tel": "092-504-7411",
    "address": "大野城市御笠川1-18-16",
    "access": "",
    "games": [
      "GITADORA DrumMania -ARENA MODEL-"
    ]
  },
  {
    "name": "楽市楽座黒崎店",
    "operation_time": "10:00～24:00",
    "holiday": "無し",
    "latitude": "33.86569306",
    "longitude": "130.7560829",
    "tel": "093-621-4800",
    "address": "北九州市八幡西区桜ヶ丘町1-3フレスポ黒崎2F",
    "access": "JR黒崎駅近く国道3号線沿い",
    "games": [
      "GITADORA DrumMania -ARENA MODEL-"
    ]
  },
  {
    "name": "ラウンドワン小倉店",
    "operation_time": "",
    "holiday": "",
    "latitude": "33.89742877",
    "longitude": "130.8598475",
    "tel": "093-562-8805",
    "address": "北九州市小倉北区西港町15-65",
    "access": "",
    "games": [
      "GITADORA DrumMania -ARENA MODEL-"
    ]
  },
  {
    "name": "G-STAGE小倉店",
    "operation_time": "10:00～20:00",
    "holiday": "無し",
    "latitude": "33.88758128",
    "longitude": "130.8847829",
    "tel": "093-551-3133",
    "address": "北九州市小倉北区浅野2-14-5",
    "access": "小倉駅前あるあるシティ2F",
    "games": [
      "GITADORA DrumMania -ARENA MODEL-"
    ]
  },
  {
    "name": "アミパラ下関長府店",
    "operation_time": "10:00～24:00",
    "holiday": "無し",
    "latitude": "34.02547781",
    "longitude": "131.0073811",
    "tel": "083-248-5008",
    "address": "下関市長府才川1-42-48",
    "access": "JR長府駅徒歩12分",
    "games": [
      "GITADORA DrumMania -ARENA MODEL-"
    ]
  },
  {
    "name": "パスカワールドグリーンランド",
    "operation_time": "10:00～翌3:00",
    "holiday": "無し",
    "latitude": "32.98790587",
    "longitude": "130.4711246",
    "tel": "0968-69-3001",
    "address": "荒尾市本井手1574-54",
    "access": "三井グリーンランドウルトラマンランド横",
    "games": [
      "GITADORA DrumMania -ARENA MODEL-"
    ]
  },
  {
    "name": "ラウンドワン熊本店",
    "operation_time": "",
    "holiday": "",
    "latitude": "32.78499883",
    "longitude": "130.6775647",
    "tel": "096-325-7200",
    "address": "熊本市西区春日7-25-15",
    "access": "",
    "games": [
      "GITADORA DrumMania -ARENA MODEL-"
    ]
  },
  {
    "name": "トライセン中津店",
    "operation_time": "10:00～24:00",
    "holiday": "無し",
    "latitude": "33.58950451",
    "longitude": "131.2110968",
    "tel": "0979-85-0688",
    "address": "中津市下池永67-3",
    "access": "",
    "games": [
      "GITADORA DrumMania -ARENA MODEL-"
    ]
  },
  {
    "name": "パスカワールド宇土店",
    "operation_time": "日曜～木曜 10:00～23:00  金曜・土曜 10:00～24:00",
    "holiday": "無し",
    "latitude": "32.68271108",
    "longitude": "130.6679513",
    "tel": "0964-22-5311",
    "address": "宇土市善道寺町綾織95",
    "access": "松橋ICより車で10分、宇土シティーショッピングセンター内",
    "games": [
      "GITADORA DrumMania -ARENA MODEL-"
    ]
  },
  {
    "name": "ゲームスポットSPEED",
    "operation_time": "9:00～24:00",
    "holiday": "無し",
    "latitude": "34.03418509",
    "longitude": "131.8347616",
    "tel": "0834-36-2828",
    "address": "周南市久米3219",
    "access": "",
    "games": [
      "GITADORA DrumMania -ARENA MODEL-"
    ]
  },
  {
    "name": "ラウンドワン沖縄･宜野湾店",
    "operation_time": "",
    "holiday": "",
    "latitude": "26.27580261",
    "longitude": "127.7310389",
    "tel": "098-870-2110",
    "address": "宜野湾市真志喜3-28-8",
    "access": "",
    "games": [
      "GITADORA DrumMania -ARENA MODEL-"
    ]
  },
  {
    "name": "ラウンドワン沖縄･南風原店",
    "operation_time": "",
    "holiday": "",
    "latitude": "26.19509176",
    "longitude": "127.7210653",
    "tel": "098-940-6670",
    "address": "島尻郡南風原町字兼城下茂原552",
    "access": "",
    "games": [
      "GITADORA DrumMania -ARENA MODEL-"
    ]
  },
  {
    "name": "ラウンドワン鹿児島宇宿店",
    "operation_time": "",
    "holiday": "",
    "latitude": "31.54388304",
    "longitude": "130.5427759",
    "tel": "099-284-0655",
    "address": "鹿児島市宇宿2-2-2",
    "access": "",
    "games": [
      "GITADORA DrumMania -ARENA MODEL-"
    ]
  },
  {
    "name": "ラウンドワン大分店",
    "operation_time": "",
    "holiday": "",
    "latitude": "33.24885259",
    "longitude": "131.6402543",
    "tel": "097-573-2800",
    "address": "大分市萩原2-13-17",
    "access": "",
    "games": [
      "GITADORA DrumMania -ARENA MODEL-"
    ]
  },
  {
    "name": "トライセン萩原店",
    "operation_time": "ボウリングコーナー:10:00～24:00 ゲームコーナー:7:00～翌3:00",
    "holiday": "無し",
    "latitude": "33.249338",
    "longitude": "131.643415",
    "tel": "097-556-2188",
    "address": "大分市萩原4-227-1ACS内3F",
    "access": "臨界産業道路沿い 大洲総合運動公園近く",
    "games": [
      "GITADORA DrumMania -ARENA MODEL-"
    ]
  },
  {
    "name": "アミパラ広島店",
    "operation_time": "10:00～24:00",
    "holiday": "無し",
    "latitude": "34.39350431",
    "longitude": "132.4360428",
    "tel": "082-297-7135",
    "address": "広島市西区西観音町3-17",
    "access": "平和大通り沿い、西区区役所から東へすぐ",
    "games": [
      "GITADORA DrumMania -ARENA MODEL-"
    ]
  },
  {
    "name": "タイトーステーション広島紙屋町店",
    "operation_time": "平日10:00～24:00 土日祝9:00～24:00",
    "holiday": "無し",
    "latitude": "34.394034",
    "longitude": "132.456154",
    "tel": "082-544-3961",
    "address": "広島市中区紙屋町2-2-21",
    "access": "広島電鉄 紙屋町西電停より徒歩2分",
    "games": [
      "GITADORA DrumMania -ARENA MODEL-"
    ]
  },
  {
    "name": "ラウンドワン広島店",
    "operation_time": "",
    "holiday": "",
    "latitude": "34.39365895",
    "longitude": "132.4600423",
    "tel": "082-545-8910",
    "address": "広島市中区立町3-11",
    "access": "",
    "games": [
      "GITADORA DrumMania -ARENA MODEL-"
    ]
  },
  {
    "name": "タイトーステーション広島本通店",
    "operation_time": "10:00～24:00",
    "holiday": "無し",
    "latitude": "34.3929912",
    "longitude": "132.4599026",
    "tel": "082-541-6345",
    "address": "広島市中区本通3-5せらかぐ本通ビル",
    "access": "広島電鉄・立町駅より徒歩5分",
    "games": [
      "GITADORA DrumMania -ARENA MODEL-"
    ]
  },
  {
    "name": "アミパラがいな店",
    "operation_time": "10:00 ～ 24:00",
    "holiday": "無し",
    "latitude": "35.43797411",
    "longitude": "133.3392651",
    "tel": "0859-39-1800",
    "address": "米子市日ノ出町1-8-13",
    "access": "米子しんまち天満屋から南西へ300m",
    "games": [
      "GITADORA DrumMania -ARENA MODEL-"
    ]
  },
  {
    "name": "アミパラここじゃ店",
    "operation_time": "10:00～24:00",
    "holiday": "無し",
    "latitude": "34.40752689",
    "longitude": "132.7155261",
    "tel": "082-424-4747",
    "address": "東広島市西条町下見6-10-19山手電気内",
    "access": "広島大学前の交差点より西へすぐ。山手電気内",
    "games": [
      "GITADORA DrumMania -ARENA MODEL-"
    ]
  },
  {
    "name": "ラウンドワン宮崎店",
    "operation_time": "",
    "holiday": "",
    "latitude": "31.89458335",
    "longitude": "131.4170876",
    "tel": "0985-63-1210",
    "address": "宮崎市中村東3-4-60",
    "access": "",
    "games": [
      "GITADORA DrumMania -ARENA MODEL-"
    ]
  },
  {
    "name": "ラウンドワン松山店",
    "operation_time": "",
    "holiday": "",
    "latitude": "33.8664873",
    "longitude": "132.751593",
    "tel": "089-911-5511",
    "address": "松山市東長戸1-3-10",
    "access": "",
    "games": [
      "GITADORA DrumMania -ARENA MODEL-"
    ]
  },
  {
    "name": "アミューズメントパークMGキスケ店",
    "operation_time": "",
    "holiday": "無し",
    "latitude": "33.84135404",
    "longitude": "132.753158",
    "tel": "089-933-2737",
    "address": "松山市宮田町4キスケボール1F内ゲームコーナー",
    "access": "JR松山駅より徒歩3分",
    "games": [
      "GITADORA DrumMania -ARENA MODEL-"
    ]
  },
  {
    "name": "ラウンドワン福山店",
    "operation_time": "",
    "holiday": "",
    "latitude": "34.489155",
    "longitude": "133.3925782",
    "tel": "084-973-9891",
    "address": "福山市明神町1-9-28",
    "access": "",
    "games": [
      "GITADORA DrumMania -ARENA MODEL-"
    ]
  },
  {
    "name": "ユーズランド倉敷店",
    "operation_time": "10:00～21:00",
    "holiday": "無し",
    "latitude": "34.60290341",
    "longitude": "133.7454258",
    "tel": "086-430-5234",
    "address": "倉敷市水江1イオン倉敷ショッピングセンター2F",
    "access": "イオン倉敷SC2F倉敷駅北口1番乗場よりバスで10分山陽自動車道倉敷ICより約7分",
    "games": [
      "GITADORA DrumMania -ARENA MODEL-"
    ]
  },
  {
    "name": "アミパラ倉敷店",
    "operation_time": "10:00～24:00",
    "holiday": "無し",
    "latitude": "34.58364137",
    "longitude": "133.7712207",
    "tel": "086-430-2111",
    "address": "倉敷市西中新田624-1アミパラボウル1F",
    "access": "倉敷市役所前、アミパラボウル1F",
    "games": [
      "GITADORA DrumMania -ARENA MODEL-"
    ]
  },
  {
    "name": "ラウンドワン岡山妹尾店",
    "operation_time": "",
    "holiday": "",
    "latitude": "34.62318926",
    "longitude": "133.8694608",
    "tel": "086-282-8851",
    "address": "岡山市南区妹尾3413-1",
    "access": "",
    "games": [
      "GITADORA DrumMania -ARENA MODEL-"
    ]
  },
  {
    "name": "アミパラ岡山店",
    "operation_time": "10:00～24:00",
    "holiday": "無し",
    "latitude": "34.63615978",
    "longitude": "133.919988",
    "tel": "086-235-3332",
    "address": "岡山市北区青江1-13-8",
    "access": "2号線バイパス・青江交差点から北へすぐ",
    "games": [
      "GITADORA DrumMania -ARENA MODEL-"
    ]
  },
  {
    "name": "キャッツアイ新川店",
    "operation_time": "10:00～24:00",
    "holiday": "無し",
    "latitude": "43.10077961",
    "longitude": "141.3102954",
    "tel": "011-766-2828",
    "address": "札幌市北区新川2条7-1-7",
    "access": "札樽自動車道新川IC前",
    "games": [
      "GITADORA DrumMania -ARENA MODEL-"
    ]
  },
  {
    "name": "アドアーズ札幌北42条店",
    "operation_time": "10:00～23:00",
    "holiday": "無し",
    "latitude": "43.11197882",
    "longitude": "141.3551118",
    "tel": "011-748-7530",
    "address": "札幌市東区北42条東7-1-1嶋ビル2F",
    "access": "丘珠空港通 ドン・キホーテ2F",
    "games": [
      "GITADORA DrumMania -ARENA MODEL-"
    ]
  },
  {
    "name": "ラウンドワン札幌北21条店",
    "operation_time": "",
    "holiday": "",
    "latitude": "43.08681907",
    "longitude": "141.3495671",
    "tel": "011-733-8801",
    "address": "札幌市東区北21条東1-1-21",
    "access": "",
    "games": [
      "GITADORA DrumMania -ARENA MODEL-"
    ]
  },
  {
    "name": "GiGO札幌駅西口",
    "operation_time": "",
    "holiday": "",
    "latitude": "43.06749301",
    "longitude": "141.3465097",
    "tel": "080-7173-6552",
    "address": "札幌市北区北6条西6-1-1WEST6",
    "access": "",
    "games": [
      "GITADORA DrumMania -ARENA MODEL-"
    ]
  },
  {
    "name": "ラウンドワン札幌すすきの店",
    "operation_time": "",
    "holiday": "",
    "latitude": "43.05431311",
    "longitude": "141.3540587",
    "tel": "011-520-1022",
    "address": "札幌市中央区南五条西3-6-1札幌東宝公楽ビル",
    "access": "",
    "games": [
      "GITADORA DrumMania -ARENA MODEL-"
    ]
  },
  {
    "name": "えの木高松店",
    "operation_time": "平日14:00～24:00 土日祝10:00～24:00",
    "holiday": "火曜日/水曜日",
    "latitude": "34.33588169",
    "longitude": "134.0537351",
    "tel": "",
    "address": "高松市藤塚町3-3-3",
    "access": "",
    "games": [
      "GITADORA DrumMania -ARENA MODEL-"
    ]
  },
  {
    "name": "ラウンドワン高松店",
    "operation_time": "",
    "holiday": "",
    "latitude": "34.33898638",
    "longitude": "134.0669994",
    "tel": "087-812-6115",
    "address": "高松市松島町2-7-43",
    "access": "",
    "games": [
      "GITADORA DrumMania -ARENA MODEL-"
    ]
  },
  {
    "name": "ラウンドワン高知店",
    "operation_time": "",
    "holiday": "",
    "latitude": "33.55793713",
    "longitude": "133.554676",
    "tel": "088-804-3070",
    "address": "高知市南宝永町4-12",
    "access": "",
    "games": [
      "GITADORA DrumMania -ARENA MODEL-"
    ]
  },
  {
    "name": "ラウンドワン札幌白石本通店",
    "operation_time": "",
    "holiday": "",
    "latitude": "43.03673108",
    "longitude": "141.4328227",
    "tel": "011-865-8051",
    "address": "札幌市白石区本通-16-北1-50",
    "access": "",
    "games": [
      "GITADORA DrumMania -ARENA MODEL-"
    ]
  },
  {
    "name": "キャッツアイ新札幌店",
    "operation_time": "10:00～24:00",
    "holiday": "無し",
    "latitude": "43.04493545",
    "longitude": "141.4754191",
    "tel": "011-899-1500",
    "address": "札幌市厚別区厚別東5条1-2-10",
    "access": "JR、札幌市営地下鉄新札幌駅下車徒歩20分",
    "games": [
      "GITADORA DrumMania -ARENA MODEL-"
    ]
  },
  {
    "name": "ラウンドワン旭川店",
    "operation_time": "",
    "holiday": "",
    "latitude": "43.78651521",
    "longitude": "142.397308",
    "tel": "0166-49-5071",
    "address": "旭川市永山3条1-4-7",
    "access": "",
    "games": [
      "GITADORA DrumMania -ARENA MODEL-"
    ]
  },
  {
    "name": "MEGAGET室蘭",
    "operation_time": "10:00～24:00",
    "holiday": "無し",
    "latitude": "42.35370861",
    "longitude": "141.014187",
    "tel": "0143-44-5222",
    "address": "室蘭市中島本町2-8-1",
    "access": "ショッピングセンターモルエ(MORUE)中島 側",
    "games": [
      "GITADORA DrumMania -ARENA MODEL-"
    ]
  },
  {
    "name": "キャッツアイ恵庭店",
    "operation_time": "10:00～24:00",
    "holiday": "無し",
    "latitude": "42.87586684",
    "longitude": "141.5834741",
    "tel": "0123-32-1500",
    "address": "恵庭市住吉町2-9-1",
    "access": "JR恵庭駅下車徒歩20分",
    "games": [
      "GITADORA DrumMania -ARENA MODEL-"
    ]
  },
  {
    "name": "ラウンドワン姫路飾磨店",
    "operation_time": "",
    "holiday": "",
    "latitude": "34.79228629",
    "longitude": "134.6871127",
    "tel": "079-243-1830",
    "address": "姫路市飾磨区中島1-254",
    "access": "",
    "games": [
      "GITADORA DrumMania -ARENA MODEL-"
    ]
  },
  {
    "name": "ラウンドワン函館店",
    "operation_time": "",
    "holiday": "",
    "latitude": "41.82459206",
    "longitude": "140.7173548",
    "tel": "0138-49-8401",
    "address": "函館市西桔梗町848-11",
    "access": "",
    "games": [
      "GITADORA DrumMania -ARENA MODEL-"
    ]
  },
  {
    "name": "ラウンドワン加古川店",
    "operation_time": "",
    "holiday": "",
    "latitude": "34.74708002",
    "longitude": "134.836935",
    "tel": "0794-29-2513",
    "address": "加古川市尾上町安田字小河原325番6号",
    "access": "",
    "games": [
      "GITADORA DrumMania -ARENA MODEL-"
    ]
  },
  {
    "name": "ラウンドワン徳島･万代店",
    "operation_time": "",
    "holiday": "",
    "latitude": "34.064828",
    "longitude": "134.564699",
    "tel": "088-612-0025",
    "address": "徳島市万代町4-19-1",
    "access": "",
    "games": [
      "GITADORA DrumMania -ARENA MODEL-"
    ]
  },
  {
    "name": "アミューズメント ミール",
    "operation_time": "10:00～24:00",
    "holiday": "無し",
    "latitude": "34.88047252",
    "longitude": "135.2295927",
    "tel": "0795-64-5678",
    "address": "三田市対中町5-21",
    "access": "神戸電鉄三田本町駅下車国道176号線側へ徒歩5分。車の場合はガリバー三田店より176号を三田方面へ、ブックプラザ三田店の向かい。",
    "games": [
      "GITADORA DrumMania -ARENA MODEL-"
    ]
  },
  {
    "name": "アルゴ",
    "operation_time": "11:15～23:30",
    "holiday": "無し",
    "latitude": "34.69392181",
    "longitude": "135.1914556",
    "tel": "078-334-3031",
    "address": "神戸市中央区下山手通1-1-8",
    "access": "JR三ノ宮駅下車徒歩5分生田神社前",
    "games": [
      "GITADORA DrumMania -ARENA MODEL-"
    ]
  },
  {
    "name": "遊･スペース マジカル",
    "operation_time": "9:00～24:00",
    "holiday": "無し",
    "latitude": "34.69551577",
    "longitude": "135.1950261",
    "tel": "078-414-8844",
    "address": "神戸市中央区琴ノ緒町5-2-3協律三宮センタービル3F",
    "access": "JR三ノ宮駅下車徒歩5分",
    "games": [
      "GITADORA DrumMania -ARENA MODEL-"
    ]
  },
  {
    "name": "ラウンドワン三宮駅前店",
    "operation_time": "",
    "holiday": "",
    "latitude": "34.69403073",
    "longitude": "135.1973402",
    "tel": "078-252-7200",
    "address": "神戸市中央区小野柄通り6-1-17",
    "access": "",
    "games": [
      "GITADORA DrumMania -ARENA MODEL-"
    ]
  },
  {
    "name": "バイパスレジャーランド藤江新館",
    "operation_time": "",
    "holiday": "",
    "latitude": "36.58375651",
    "longitude": "136.6206642",
    "tel": "076-268-7518",
    "address": "金沢市藤江南2-105",
    "access": "",
    "games": [
      "GITADORA DrumMania -ARENA MODEL-"
    ]
  },
  {
    "name": "福井レジャーランド板垣店",
    "operation_time": "",
    "holiday": "",
    "latitude": "36.042283",
    "longitude": "136.233748",
    "tel": "0776-33-5510",
    "address": "福井市下馬3-112",
    "access": "",
    "games": [
      "GITADORA DrumMania -ARENA MODEL-"
    ]
  },
  {
    "name": "ラウンドワン金沢店",
    "operation_time": "",
    "holiday": "",
    "latitude": "36.54211559",
    "longitude": "136.626054",
    "tel": "076-245-1850",
    "address": "金沢市横川6-120-1",
    "access": "",
    "games": [
      "GITADORA DrumMania -ARENA MODEL-"
    ]
  },
  {
    "name": "ラウンドワン伊丹店",
    "operation_time": "",
    "holiday": "",
    "latitude": "34.77891327",
    "longitude": "135.3932572",
    "tel": "0727-75-4150",
    "address": "伊丹市昆陽7-29",
    "access": "",
    "games": [
      "GITADORA DrumMania -ARENA MODEL-"
    ]
  },
  {
    "name": "ラウンドワン豊中店",
    "operation_time": "",
    "holiday": "",
    "latitude": "34.75733488",
    "longitude": "135.465555",
    "tel": "06-6865-2200",
    "address": "豊中市名神口1-1-1",
    "access": "",
    "games": [
      "GITADORA DrumMania -ARENA MODEL-"
    ]
  },
  {
    "name": "ラウンドワン東淀川店",
    "operation_time": "",
    "holiday": "",
    "latitude": "34.74289355",
    "longitude": "135.5255278",
    "tel": "06-6160-2221",
    "address": "大阪市東淀川区菅原7-14-29",
    "access": "",
    "games": [
      "GITADORA DrumMania -ARENA MODEL-"
    ]
  },
  {
    "name": "namco梅田店",
    "operation_time": "",
    "holiday": "",
    "latitude": "34.70278573",
    "longitude": "135.5003716",
    "tel": "06-6313-0778",
    "address": "大阪市北区小松原町3-3OSビル2F",
    "access": "",
    "games": [
      "GITADORA DrumMania -ARENA MODEL-"
    ]
  },
  {
    "name": "ラウンドワン梅田店",
    "operation_time": "",
    "holiday": "",
    "latitude": "34.70337769",
    "longitude": "135.5009178",
    "tel": "06-6312-6800",
    "address": "大阪市北区小松原町4-16",
    "access": "",
    "games": [
      "GITADORA DrumMania -ARENA MODEL-"
    ]
  },
  {
    "name": "アミューズメントCUE京都円町店",
    "operation_time": "",
    "holiday": "",
    "latitude": "35.01880055",
    "longitude": "135.7309726",
    "tel": "075-462-9316",
    "address": "京都市中京区西ノ京西円町40",
    "access": "",
    "games": [
      "GITADORA DrumMania -ARENA MODEL-"
    ]
  },
  {
    "name": "ゲームパニック堺",
    "operation_time": "10:00～23:45",
    "holiday": "無し",
    "latitude": "34.597817",
    "longitude": "135.447433",
    "tel": "072-224-8295",
    "address": "堺市堺区築港八幡町1-1堺浜シーサイド内堺浜えんため館",
    "access": "南海バス20系統「堺市内北回り」 堺駅西口→堺浜シーサイドステージ約17分 堺東駅→堺浜シーサイドステージ約25分",
    "games": [
      "GITADORA DrumMania -ARENA MODEL-"
    ]
  },
  {
    "name": "GiGO大阪道頓堀本店",
    "operation_time": "",
    "holiday": "",
    "latitude": "34.66848732",
    "longitude": "135.5017054",
    "tel": "070-1458-4741",
    "address": "大阪市中央区道頓堀1-8-22頓座ビル1F-3F",
    "access": "",
    "games": [
      "GITADORA DrumMania -ARENA MODEL-"
    ]
  },
  {
    "name": "ラウンドワン千日前店",
    "operation_time": "",
    "holiday": "",
    "latitude": "34.667424",
    "longitude": "135.5026714",
    "tel": "06-4708-2600",
    "address": "大阪市中央区難波1-3-1",
    "access": "",
    "games": [
      "GITADORA DrumMania -ARENA MODEL-"
    ]
  },
  {
    "name": "GiGO難波アビオン",
    "operation_time": "",
    "holiday": "",
    "latitude": "34.66278737",
    "longitude": "135.5032116",
    "tel": "070-1458-1437",
    "address": "大阪市浪速区難波中2-3-15MMOビル1-2F",
    "access": "",
    "games": [
      "GITADORA DrumMania -ARENA MODEL-"
    ]
  },
  {
    "name": "タイトーステーション大阪日本橋店",
    "operation_time": "10:00～24:00",
    "holiday": "無し",
    "latitude": "34.660362",
    "longitude": "135.506113",
    "tel": "06-6630-7270",
    "address": "大阪市浪速区日本橋4-9-14",
    "access": "地下鉄なんば駅・日本橋駅・恵美須町駅から約7分ほど。",
    "games": [
      "GITADORA DrumMania -ARENA MODEL-"
    ]
  },
  {
    "name": "ラウンドワン高槻店",
    "operation_time": "",
    "holiday": "",
    "latitude": "34.83266921",
    "longitude": "135.6301782",
    "tel": "072-672-9933",
    "address": "高槻市辻子3-6-4",
    "access": "",
    "games": [
      "GITADORA DrumMania -ARENA MODEL-"
    ]
  },
  {
    "name": "ラウンドワン和歌山店",
    "operation_time": "",
    "holiday": "",
    "latitude": "34.19849168",
    "longitude": "135.1859428",
    "tel": "073-421-8210",
    "address": "和歌山市小雑賀739-3",
    "access": "",
    "games": [
      "GITADORA DrumMania -ARENA MODEL-"
    ]
  },
  {
    "name": "ラウンドワン京都河原町店",
    "operation_time": "",
    "holiday": "",
    "latitude": "35.00699573",
    "longitude": "135.7685149",
    "tel": "075-213-8400",
    "address": "京都市中京区河原町通り三条下ル山崎町250",
    "access": "",
    "games": [
      "GITADORA DrumMania -ARENA MODEL-"
    ]
  },
  {
    "name": "ラウンドワン守口店",
    "operation_time": "",
    "holiday": "",
    "latitude": "34.7562488",
    "longitude": "135.5886793",
    "tel": "06-6907-9270",
    "address": "守口市佐太東町2-6-14ジャガーグリーン2F",
    "access": "",
    "games": [
      "GITADORA DrumMania -ARENA MODEL-"
    ]
  },
  {
    "name": "GiGOあべのアポロ",
    "operation_time": "10:00～24:00",
    "holiday": "",
    "latitude": "34.646623",
    "longitude": "135.511677",
    "tel": "06-6647-0716",
    "address": "大阪市阿倍野区阿倍野筋1-5-31アポロビル3F･4F",
    "access": "JR 天王寺駅・近鉄あべの橋駅より徒歩3分 アポロビル 3F",
    "games": [
      "GITADORA DrumMania -ARENA MODEL-"
    ]
  },
  {
    "name": "ラウンドワン堺駅前店",
    "operation_time": "",
    "holiday": "",
    "latitude": "34.58340412",
    "longitude": "135.468425",
    "tel": "072-222-0120",
    "address": "堺市堺区戎島町4-44-3",
    "access": "",
    "games": [
      "GITADORA DrumMania -ARENA MODEL-"
    ]
  },
  {
    "name": "ラウンドワン岸和田店",
    "operation_time": "",
    "holiday": "",
    "latitude": "34.45649962",
    "longitude": "135.3885278",
    "tel": "072-429-1100",
    "address": "岸和田市八阪町2-11-1",
    "access": "",
    "games": [
      "GITADORA DrumMania -ARENA MODEL-"
    ]
  },
  {
    "name": "ラウンドワン城東放出店",
    "operation_time": "",
    "holiday": "",
    "latitude": "34.69651235",
    "longitude": "135.559648",
    "tel": "06-6936-0100",
    "address": "大阪市城東区今福南3-4-38",
    "access": "",
    "games": [
      "GITADORA DrumMania -ARENA MODEL-"
    ]
  },
  {
    "name": "モンキートリック",
    "operation_time": "10:00～24:00",
    "holiday": "無し",
    "latitude": "34.78316526",
    "longitude": "135.628799",
    "tel": "072-835-6361",
    "address": "寝屋川市香里南之町32-5",
    "access": "京阪本線香里園駅下車徒歩2分",
    "games": [
      "GITADORA DrumMania -ARENA MODEL-"
    ]
  },
  {
    "name": "ラウンドワン京都伏見店",
    "operation_time": "",
    "holiday": "",
    "latitude": "34.93599659",
    "longitude": "135.746198",
    "tel": "075-622-9911",
    "address": "京都市伏見区下鳥羽平塚町131",
    "access": "",
    "games": [
      "GITADORA DrumMania -ARENA MODEL-"
    ]
  },
  {
    "name": "ラウンドワン堺中央環状店",
    "operation_time": "",
    "holiday": "",
    "latitude": "34.55707895",
    "longitude": "135.5362412",
    "tel": "072-253-9559",
    "address": "堺市東区石原町2-241",
    "access": "",
    "games": [
      "GITADORA DrumMania -ARENA MODEL-"
    ]
  },
  {
    "name": "ラウンドワン東大阪店",
    "operation_time": "",
    "holiday": "",
    "latitude": "34.6531932",
    "longitude": "135.60637",
    "tel": "06-6224-1700",
    "address": "東大阪市若江南町1-2-12",
    "access": "",
    "games": [
      "GITADORA DrumMania -ARENA MODEL-"
    ]
  },
  {
    "name": "ラウンドワン浜大津アーカス店",
    "operation_time": "",
    "holiday": "",
    "latitude": "35.010557",
    "longitude": "135.866804",
    "tel": "077-526-8722",
    "address": "大津市浜町2-1浜大津アーカス4F",
    "access": "",
    "games": [
      "GITADORA DrumMania -ARENA MODEL-"
    ]
  },
  {
    "name": "トヤマレジャーランド呉羽店",
    "operation_time": "一部24時間営業",
    "holiday": "無し",
    "latitude": "36.71545083",
    "longitude": "137.1579046",
    "tel": "076-434-5336",
    "address": "富山市高木字貝塚2054",
    "access": "県道44号線沿い呉羽本町交差点を富山方面方向に車で3分",
    "games": [
      "GITADORA DrumMania -ARENA MODEL-"
    ]
  },
  {
    "name": "ラウンドワン青森店",
    "operation_time": "",
    "holiday": "",
    "latitude": "40.79867718",
    "longitude": "140.7483213",
    "tel": "017-762-3591",
    "address": "青森市浜田3-1-1",
    "access": "",
    "games": [
      "GITADORA DrumMania -ARENA MODEL-"
    ]
  },
  {
    "name": "アピナ富山豊田店",
    "operation_time": "10:00～24:00",
    "holiday": "無し",
    "latitude": "36.7211336",
    "longitude": "137.2352552",
    "tel": "076-433-3355",
    "address": "富山市豊田町2-12-66",
    "access": "国道8号線豊田東交差点近く",
    "games": [
      "GITADORA DrumMania -ARENA MODEL-"
    ]
  },
  {
    "name": "エースレーン草津",
    "operation_time": "10:00～24:00",
    "holiday": "無し",
    "latitude": "34.99965692",
    "longitude": "135.9463199",
    "tel": "077-569-0472",
    "address": "草津市野路3-1-11",
    "access": "JR東海道線南草津駅より徒歩10分。国道1号線南田山交差点そば",
    "games": [
      "GITADORA DrumMania -ARENA MODEL-"
    ]
  },
  {
    "name": "エースレーン近江八幡",
    "operation_time": "月～木・日・祝09:00～24:00 金・土・祝前日09:00～翌2:00",
    "holiday": "無し",
    "latitude": "35.13185244",
    "longitude": "136.1023481",
    "tel": "0748-31-2468",
    "address": "近江八幡市出町736",
    "access": "",
    "games": [
      "GITADORA DrumMania -ARENA MODEL-"
    ]
  },
  {
    "name": "ラウンドワン奈良ミナーラ店",
    "operation_time": "",
    "holiday": "",
    "latitude": "34.685231",
    "longitude": "135.802224",
    "tel": "0742-32-3900",
    "address": "奈良市二条大路南1-3-1ミ･ナーラ5F",
    "access": "",
    "games": [
      "GITADORA DrumMania -ARENA MODEL-"
    ]
  },
  {
    "name": "アミューズメントCUE奈良三条店",
    "operation_time": "10:00～24:00",
    "holiday": "無し",
    "latitude": "34.68177805",
    "longitude": "135.8221257",
    "tel": "0742-25-5115",
    "address": "奈良市三条町478-1",
    "access": "JR奈良駅から三条通りを東へすぐ",
    "games": [
      "GITADORA DrumMania -ARENA MODEL-"
    ]
  },
  {
    "name": "アミューズメントCUE大和高田",
    "operation_time": "10:00～24:00",
    "holiday": "無し",
    "latitude": "34.49978101",
    "longitude": "135.7354379",
    "tel": "0745-25-3335",
    "address": "大和高田市東中2-11-16",
    "access": "国道166号線東宝交差点そば",
    "games": [
      "GITADORA DrumMania -ARENA MODEL-"
    ]
  },
  {
    "name": "アミパラ橿原店",
    "operation_time": "",
    "holiday": "",
    "latitude": "34.52935645",
    "longitude": "135.7966131",
    "tel": "0744-25-0550",
    "address": "橿原市十市町1222-1ツインゲート橿原1F",
    "access": "",
    "games": [
      "GITADORA DrumMania -ARENA MODEL-"
    ]
  },
  {
    "name": "ラウンドワン秋田店",
    "operation_time": "",
    "holiday": "",
    "latitude": "39.70235247",
    "longitude": "140.1092394",
    "tel": "018-896-6711",
    "address": "秋田市卸町1-1-2",
    "access": "",
    "games": [
      "GITADORA DrumMania -ARENA MODEL-"
    ]
  },
  {
    "name": "アミューズメントスペースコミ丸アリババ大垣店",
    "operation_time": "10:00～24:00",
    "holiday": "無し",
    "latitude": "35.38404596",
    "longitude": "136.5956139",
    "tel": "050-3575-0530",
    "address": "大垣市池尻町940-1",
    "access": "関が原バイパス沿い",
    "games": [
      "GITADORA DrumMania -ARENA MODEL-"
    ]
  },
  {
    "name": "ラウンドワンモレラ岐阜店",
    "operation_time": "",
    "holiday": "",
    "latitude": "35.455121",
    "longitude": "136.672955",
    "tel": "058-323-6600",
    "address": "本巣市三橋1100",
    "access": "",
    "games": [
      "GITADORA DrumMania -ARENA MODEL-"
    ]
  },
  {
    "name": "岐阜レジャーランド穂積店",
    "operation_time": "7:00～24:00",
    "holiday": "無し",
    "latitude": "35.38432479",
    "longitude": "136.6846653",
    "tel": "058-326-1133",
    "address": "瑞穂市稲里630",
    "access": "国道21号線沿い瑞穂市野田新田交差点近く",
    "games": [
      "GITADORA DrumMania -ARENA MODEL-"
    ]
  },
  {
    "name": "ゲームファンタジアン柳津店",
    "operation_time": "一部24時間営業",
    "holiday": "無し",
    "latitude": "35.37596826",
    "longitude": "136.7145391",
    "tel": "058-279-0085",
    "address": "岐阜市柳津町上佐波西3-68",
    "access": "岐阜県ふれあい会館から南に4分",
    "games": [
      "GITADORA DrumMania -ARENA MODEL-"
    ]
  },
  {
    "name": "A.Cグランド",
    "operation_time": "9:00～24:00",
    "holiday": "無し",
    "latitude": "35.38308553",
    "longitude": "136.7461998",
    "tel": "058-275-0351",
    "address": "岐阜市茜部大川1-77",
    "access": "名鉄新岐阜駅15分",
    "games": [
      "GITADORA DrumMania -ARENA MODEL-"
    ]
  },
  {
    "name": "ユーズランド下田店",
    "operation_time": "10:00～21:00",
    "holiday": "無し",
    "latitude": "40.60188383",
    "longitude": "141.4176032",
    "tel": "0178-50-3237",
    "address": "上北郡おいらせ町中野平40-1イオンモール下田1F",
    "access": "イオン下田SC1・2FJR下田駅よりバスで10分八戸市より車で約15km、三沢市より車で約15km",
    "games": [
      "GITADORA DrumMania -ARENA MODEL-"
    ]
  },
  {
    "name": "アミューズメントスペースコミ丸四日市店",
    "operation_time": "",
    "holiday": "",
    "latitude": "34.96631",
    "longitude": "136.61633",
    "tel": "059-325-7685",
    "address": "四日市市鵜の森1-3-19",
    "access": "",
    "games": [
      "GITADORA DrumMania -ARENA MODEL-"
    ]
  },
  {
    "name": "アピナ四日市店",
    "operation_time": "",
    "holiday": "",
    "latitude": "34.94000426",
    "longitude": "136.6070666",
    "tel": "059-349-5011",
    "address": "四日市市泊小柳町4-34",
    "access": "",
    "games": [
      "GITADORA DrumMania -ARENA MODEL-"
    ]
  },
  {
    "name": "ラウンドワン名古屋西春店",
    "operation_time": "",
    "holiday": "",
    "latitude": "35.25506282",
    "longitude": "136.8439405",
    "tel": "0568-26-4001",
    "address": "北名古屋市宇福寺神明15",
    "access": "",
    "games": [
      "GITADORA DrumMania -ARENA MODEL-"
    ]
  },
  {
    "name": "ラウンドワンみえ川越IC店",
    "operation_time": "",
    "holiday": "",
    "latitude": "35.02319916",
    "longitude": "136.6836502",
    "tel": "059-361-2130",
    "address": "三重郡川越町大字南福崎851-1",
    "access": "",
    "games": [
      "GITADORA DrumMania -ARENA MODEL-"
    ]
  },
  {
    "name": "楽市街道022名古屋店1F",
    "operation_time": "10:00～24:00",
    "holiday": "無し",
    "latitude": "35.23957843",
    "longitude": "136.848742",
    "tel": "0568-27-2622",
    "address": "北名古屋市中之郷字神明45-1-1F",
    "access": "22号線バイパス沿い",
    "games": [
      "GITADORA DrumMania -ARENA MODEL-"
    ]
  },
  {
    "name": "ラウンドワン新潟店",
    "operation_time": "",
    "holiday": "",
    "latitude": "37.88807436",
    "longitude": "139.0177537",
    "tel": "025-280-1322",
    "address": "新潟市中央区美咲町2-1-38",
    "access": "",
    "games": [
      "GITADORA DrumMania -ARENA MODEL-"
    ]
  },
  {
    "name": "ファンタジープラザ名古屋店",
    "operation_time": "10:00～翌5:00",
    "holiday": "無し",
    "latitude": "35.22569311",
    "longitude": "136.908786",
    "tel": "052-938-3461",
    "address": "名古屋市北区玄馬町234-1クロスタウン2F",
    "access": "比良駅徒歩6分/大我麻交差点付近",
    "games": [
      "GITADORA DrumMania -ARENA MODEL-"
    ]
  },
  {
    "name": "コムテックタワー",
    "operation_time": "平日10:00～24:00、土日祝9:00～24:00",
    "holiday": "",
    "latitude": "35.16941986",
    "longitude": "136.885993",
    "tel": "052-565-6471",
    "address": "名古屋市中村区名駅4-10-20",
    "access": "JR名古屋駅徒歩5分",
    "games": [
      "GITADORA DrumMania -ARENA MODEL-"
    ]
  },
  {
    "name": "ラウンドワン津･高茶屋店",
    "operation_time": "",
    "holiday": "",
    "latitude": "34.6726828",
    "longitude": "136.5194663",
    "tel": "059-238-0011",
    "address": "津市高茶屋小森町277-8",
    "access": "",
    "games": [
      "GITADORA DrumMania -ARENA MODEL-"
    ]
  },
  {
    "name": "GiGOマーケットスクエアささしま",
    "operation_time": "",
    "holiday": "",
    "latitude": "35.162736",
    "longitude": "136.884929",
    "tel": "070-1458-1766",
    "address": "名古屋市中村区平池町4-60-14",
    "access": "",
    "games": [
      "GITADORA DrumMania -ARENA MODEL-"
    ]
  },
  {
    "name": "ラウンドワン中川一号線店",
    "operation_time": "",
    "holiday": "",
    "latitude": "35.12338322",
    "longitude": "136.8636484",
    "tel": "052-665-5353",
    "address": "名古屋市中川区法蔵町2-23",
    "access": "",
    "games": [
      "GITADORA DrumMania -ARENA MODEL-"
    ]
  },
  {
    "name": "キングジョイ",
    "operation_time": "9:00～24:00",
    "holiday": "無し",
    "latitude": "35.16797694",
    "longitude": "136.9050444",
    "tel": "052-241-9515",
    "address": "名古屋市中区栄3-3-32",
    "access": "地下鉄栄駅徒歩3分",
    "games": [
      "GITADORA DrumMania -ARENA MODEL-"
    ]
  },
  {
    "name": "ゲームパニック大須",
    "operation_time": "",
    "holiday": "",
    "latitude": "35.16021164",
    "longitude": "136.9053459",
    "tel": "052-228-2407",
    "address": "名古屋市中区大須3-30-93メガタウンB1F",
    "access": "",
    "games": [
      "GITADORA DrumMania -ARENA MODEL-"
    ]
  },
  {
    "name": "タイトーステーションフェドラ大須店",
    "operation_time": "10:00～24:00",
    "holiday": "無し",
    "latitude": "35.15945319",
    "longitude": "136.9054236",
    "tel": "052-242-2011",
    "address": "名古屋市中区大須3-30-31萬松寺駐車場ビル1F･2F",
    "access": "地下鉄名城線上前津駅より徒歩1分",
    "games": [
      "GITADORA DrumMania -ARENA MODEL-"
    ]
  },
  {
    "name": "ラウンドワンイーアス春日井店",
    "operation_time": "",
    "holiday": "",
    "latitude": "35.25898",
    "longitude": "136.98241",
    "tel": "0568-86-1600",
    "address": "春日井市六軒屋町東丘22区画番号3010",
    "access": "",
    "games": [
      "GITADORA DrumMania -ARENA MODEL-"
    ]
  },
  {
    "name": "コムテックスクウェア金山",
    "operation_time": "9:00～24:00",
    "holiday": "",
    "latitude": "35.14401179",
    "longitude": "136.8999767",
    "tel": "052-321-5601",
    "address": "名古屋市中区金山1-16-8",
    "access": "名鉄金山駅徒歩3分",
    "games": [
      "GITADORA DrumMania -ARENA MODEL-"
    ]
  },
  {
    "name": "ラウンドワン千種店",
    "operation_time": "",
    "holiday": "",
    "latitude": "35.16799971",
    "longitude": "136.9279985",
    "tel": "052-238-1615",
    "address": "名古屋市千種区新栄3-20-17タイホウ千種駅前南ビル8F",
    "access": "",
    "games": [
      "GITADORA DrumMania -ARENA MODEL-"
    ]
  },
  {
    "name": "名古屋レジャーランド内田橋店",
    "operation_time": "一部24時間営業",
    "holiday": "無し",
    "latitude": "35.1137072",
    "longitude": "136.9098069",
    "tel": "052-694-6051",
    "address": "名古屋市南区内田橋2-26-22",
    "access": "名鉄常滑線豊田本町駅近く",
    "games": [
      "GITADORA DrumMania -ARENA MODEL-"
    ]
  },
  {
    "name": "アピナ長岡店",
    "operation_time": "10:00～24:00",
    "holiday": "無し",
    "latitude": "37.45794202",
    "longitude": "138.8125194",
    "tel": "0258-22-5510",
    "address": "長岡市堺東町22",
    "access": "国道8号線長岡バイパス堺交差点近く",
    "games": [
      "GITADORA DrumMania -ARENA MODEL-"
    ]
  },
  {
    "name": "ラウンドワン鳴海店",
    "operation_time": "",
    "holiday": "",
    "latitude": "35.09913151",
    "longitude": "136.9528735",
    "tel": "052-899-0700",
    "address": "名古屋市緑区鳴海町字杜若28",
    "access": "",
    "games": [
      "GITADORA DrumMania -ARENA MODEL-"
    ]
  },
  {
    "name": "ゲームパニック大高",
    "operation_time": "9:00～23:45",
    "holiday": "無し",
    "latitude": "35.04850561",
    "longitude": "136.9496236",
    "tel": "052-625-5360",
    "address": "名古屋市緑区忠治山201グランドボウルB2F",
    "access": "国道23号線大高町共和IC側道グランドボウルB2階",
    "games": [
      "GITADORA DrumMania -ARENA MODEL-"
    ]
  },
  {
    "name": "GiGO長久手",
    "operation_time": "9:00～24:00",
    "holiday": "無し",
    "latitude": "35.17139252",
    "longitude": "137.045573",
    "tel": "0561-64-5205",
    "address": "長久手市武蔵塚705",
    "access": "",
    "games": [
      "GITADORA DrumMania -ARENA MODEL-"
    ]
  },
  {
    "name": "ラウンドワン長野店",
    "operation_time": "",
    "holiday": "",
    "latitude": "36.65105714",
    "longitude": "138.225192",
    "tel": "026-254-5801",
    "address": "長野市大字東和田827-6",
    "access": "",
    "games": [
      "GITADORA DrumMania -ARENA MODEL-"
    ]
  },
  {
    "name": "半田メトロポリス",
    "operation_time": "平日10:00～23:50 土日祝日前 9:00～23:50",
    "holiday": "無し",
    "latitude": "34.87469206",
    "longitude": "136.9217723",
    "tel": "0569-24-5226",
    "address": "半田市旭町3-11-1半田コロナワールド内2F",
    "access": "JR武豊線東成岩駅より徒歩1分",
    "games": [
      "GITADORA DrumMania -ARENA MODEL-"
    ]
  },
  {
    "name": "ラウンドワン半田店",
    "operation_time": "",
    "holiday": "",
    "latitude": "34.88609688",
    "longitude": "136.9412056",
    "tel": "0569-25-7351",
    "address": "半田市瑞穂町6-7-8",
    "access": "",
    "games": [
      "GITADORA DrumMania -ARENA MODEL-"
    ]
  },
  {
    "name": "アピナ松本",
    "operation_time": "10:00～24:00",
    "holiday": "無し",
    "latitude": "36.21052692",
    "longitude": "137.9610526",
    "tel": "0263-24-1133",
    "address": "松本市双葉19-10",
    "access": "国道19号線沿い、イトーヨーカドーそば",
    "games": [
      "GITADORA DrumMania -ARENA MODEL-"
    ]
  },
  {
    "name": "安城メトロポリス",
    "operation_time": "平日10:00～24:00、土日祝日9:00～24:00",
    "holiday": "無し",
    "latitude": "34.95485697",
    "longitude": "137.0975854",
    "tel": "0566-74-8238",
    "address": "安城市浜富町6-8",
    "access": "JR東海道本線安城駅より車で3分・徒歩10分",
    "games": [
      "GITADORA DrumMania -ARENA MODEL-"
    ]
  },
  {
    "name": "ラウンドワン盛岡店",
    "operation_time": "",
    "holiday": "",
    "latitude": "39.70035197",
    "longitude": "141.133077",
    "tel": "019-654-9011",
    "address": "盛岡市盛岡駅西通2-10-35",
    "access": "",
    "games": [
      "GITADORA DrumMania -ARENA MODEL-"
    ]
  },
  {
    "name": "GiGO北岡崎",
    "operation_time": "9:00～24:00",
    "holiday": "無し",
    "latitude": "34.97365547",
    "longitude": "137.1600268",
    "tel": "070-1393-5583",
    "address": "岡崎市錦町2-4",
    "access": "国道248号線沿い、愛知環状線北岡崎駅から徒歩3分",
    "games": [
      "GITADORA DrumMania -ARENA MODEL-"
    ]
  },
  {
    "name": "ラウンドワン豊橋店",
    "operation_time": "",
    "holiday": "",
    "latitude": "34.7239242",
    "longitude": "137.4323261",
    "tel": "0532-65-2212",
    "address": "豊橋市大岩町字岩田27-2",
    "access": "",
    "games": [
      "GITADORA DrumMania -ARENA MODEL-"
    ]
  },
  {
    "name": "群馬レジャーランド渋川店",
    "operation_time": "",
    "holiday": "",
    "latitude": "36.4742053",
    "longitude": "139.0154654",
    "tel": "0279-25-0718",
    "address": "渋川市八木原1364",
    "access": "",
    "games": [
      "GITADORA DrumMania -ARENA MODEL-"
    ]
  },
  {
    "name": "ポート24浜松店",
    "operation_time": "10:00～24:00",
    "holiday": "無休",
    "latitude": "34.68017431",
    "longitude": "137.6443768",
    "tel": "053-440-5588",
    "address": "浜松市中央区坪井町4183",
    "access": "東名高速浜松西ICから車で15分",
    "games": [
      "GITADORA DrumMania -ARENA MODEL-"
    ]
  },
  {
    "name": "ユーズランド高崎店",
    "operation_time": "10:00～21:00",
    "holiday": "",
    "latitude": "36.39047889",
    "longitude": "139.0067302",
    "tel": "027-310-9113",
    "address": "高崎市棟高町1400イオン高崎SC2F",
    "access": "",
    "games": [
      "GITADORA DrumMania -ARENA MODEL-"
    ]
  },
  {
    "name": "楽市楽座サンストリート浜北店",
    "operation_time": "10:00～22:00",
    "holiday": "無し",
    "latitude": "34.79467266",
    "longitude": "137.7607979",
    "tel": "0535-84-6136",
    "address": "浜松市浜名区平口2861サンストリート浜北内 M-207",
    "access": "",
    "games": [
      "GITADORA DrumMania -ARENA MODEL-"
    ]
  },
  {
    "name": "群馬レジャーランド高崎駅東口店",
    "operation_time": "一部24時間営業",
    "holiday": "無し",
    "latitude": "36.32992086",
    "longitude": "139.0128661",
    "tel": "027-330-3002",
    "address": "高崎市江木町333-1高崎EXビル2F",
    "access": "JR高崎駅東口徒歩10分",
    "games": [
      "GITADORA DrumMania -ARENA MODEL-"
    ]
  },
  {
    "name": "群馬レジャーランド前橋店",
    "operation_time": "",
    "holiday": "",
    "latitude": "36.40497647",
    "longitude": "139.0794189",
    "tel": "050-1726-4972",
    "address": "前橋市日吉町4-37-1",
    "access": "",
    "games": [
      "GITADORA DrumMania -ARENA MODEL-"
    ]
  },
  {
    "name": "ラウンドワン浜松店",
    "operation_time": "",
    "holiday": "",
    "latitude": "34.73795995",
    "longitude": "137.7638799",
    "tel": "053-461-1101",
    "address": "浜松市中央区天王町諏訪1981-17",
    "access": "",
    "games": [
      "GITADORA DrumMania -ARENA MODEL-"
    ]
  },
  {
    "name": "マトリクス前橋店",
    "operation_time": "10:00～24:00",
    "holiday": "無し",
    "latitude": "36.37294244",
    "longitude": "139.059637",
    "tel": "027-212-3133",
    "address": "前橋市小相木町563-3",
    "access": "県道13号線小相木交差点を高崎方面へ150m",
    "games": [
      "GITADORA DrumMania -ARENA MODEL-"
    ]
  },
  {
    "name": "ラウンドワン前橋店",
    "operation_time": "",
    "holiday": "",
    "latitude": "36.36888377",
    "longitude": "139.1051864",
    "tel": "027-287-1501",
    "address": "前橋市天川大島町1101-1",
    "access": "",
    "games": [
      "GITADORA DrumMania -ARENA MODEL-"
    ]
  },
  {
    "name": "ゲームパニック甲府",
    "operation_time": "",
    "holiday": "",
    "latitude": "35.64182781",
    "longitude": "138.547239",
    "tel": "080-3350-2893",
    "address": "甲府市国母5-20-24",
    "access": "",
    "games": [
      "GITADORA DrumMania -ARENA MODEL-"
    ]
  },
  {
    "name": "群馬レジャーランド藤岡店",
    "operation_time": "一部24時間営業",
    "holiday": "",
    "latitude": "36.27426745",
    "longitude": "139.0718857",
    "tel": "0274-40-2371",
    "address": "藤岡市中2002-1",
    "access": "県道13号沿い、上信越道藤岡IC北 カーオプション店『ピット100』2階",
    "games": [
      "GITADORA DrumMania -ARENA MODEL-"
    ]
  },
  {
    "name": "GAME BANK",
    "operation_time": "9:00～24:00",
    "holiday": "無し",
    "latitude": "38.352801",
    "longitude": "140.877385",
    "tel": "022-776-5677",
    "address": "仙台市泉区大沢2-5-4",
    "access": "東北自動車道 泉インター直ぐ",
    "games": [
      "GITADORA DrumMania -ARENA MODEL-"
    ]
  },
  {
    "name": "ラウンドワンスタジアム仙台泉店",
    "operation_time": "",
    "holiday": "",
    "latitude": "38.35192551",
    "longitude": "140.8797545",
    "tel": "022-347-4471",
    "address": "仙台市泉区大沢2-12-4仙台泉インターシティ1F",
    "access": "",
    "games": [
      "GITADORA DrumMania -ARENA MODEL-"
    ]
  },
  {
    "name": "インターワールド伊勢崎店",
    "operation_time": "10:00～24:00",
    "holiday": "無し",
    "latitude": "36.3315169",
    "longitude": "139.1624928",
    "tel": "0270-25-4338",
    "address": "伊勢崎市宮子町3425-4",
    "access": "関東自動車道駒形ICから5分。伊勢崎オートレース近く",
    "games": [
      "GITADORA DrumMania -ARENA MODEL-"
    ]
  },
  {
    "name": "群馬レジャーランド伊勢崎店",
    "operation_time": "一部24時間営業",
    "holiday": "無し",
    "latitude": "36.31824274",
    "longitude": "139.1723592",
    "tel": "0270-40-5330",
    "address": "伊勢崎市連取町3066-1",
    "access": "伊勢崎市内県道2号線沿い伊勢崎オート近く",
    "games": [
      "GITADORA DrumMania -ARENA MODEL-"
    ]
  },
  {
    "name": "GiGO仙台一番町",
    "operation_time": "",
    "holiday": "",
    "latitude": "38.26424",
    "longitude": "140.87121",
    "tel": "022-393-6746",
    "address": "仙台市青葉区一番町4-5-13サンシャインビル1F",
    "access": "",
    "games": [
      "GITADORA DrumMania -ARENA MODEL-"
    ]
  },
  {
    "name": "ラウンドワンさいたま･上里店",
    "operation_time": "",
    "holiday": "",
    "latitude": "36.259925",
    "longitude": "139.137383",
    "tel": "0495-35-2201",
    "address": "児玉郡上里町大字金久保字周川394-1",
    "access": "",
    "games": [
      "GITADORA DrumMania -ARENA MODEL-"
    ]
  },
  {
    "name": "タイトーステーション仙台クリスロード店",
    "operation_time": "9:00～24:00",
    "holiday": "無し",
    "latitude": "38.261006",
    "longitude": "140.875705",
    "tel": "022-262-2541",
    "address": "仙台市青葉区中央2-3-25",
    "access": "JR仙台駅・地下鉄仙台駅より徒歩8分(ハピナ名掛丁アーケード内)",
    "games": [
      "GITADORA DrumMania -ARENA MODEL-"
    ]
  },
  {
    "name": "タイトーステーション仙台名掛丁店",
    "operation_time": "9:00～24:00",
    "holiday": "無し",
    "latitude": "38.262028",
    "longitude": "140.879112",
    "tel": "022-215-1664",
    "address": "仙台市青葉区中央1-7-13",
    "access": "JR仙台駅・地下鉄仙台駅より徒歩5分(ハピナ名掛丁アケード内)",
    "games": [
      "GITADORA DrumMania -ARENA MODEL-"
    ]
  },
  {
    "name": "ラウンドワン仙台苦竹店",
    "operation_time": "",
    "holiday": "",
    "latitude": "38.26828399",
    "longitude": "140.9172614",
    "tel": "022-788-2581",
    "address": "仙台市宮城野区苦竹1-7-10",
    "access": "",
    "games": [
      "GITADORA DrumMania -ARENA MODEL-"
    ]
  },
  {
    "name": "ラウンドワン福島店",
    "operation_time": "",
    "holiday": "",
    "latitude": "37.75259469",
    "longitude": "140.4562354",
    "tel": "024-525-4731",
    "address": "福島市太田町14-18",
    "access": "",
    "games": [
      "GITADORA DrumMania -ARENA MODEL-"
    ]
  },
  {
    "name": "ゲームコーナー東部",
    "operation_time": "9:00～24:00",
    "holiday": "無し",
    "latitude": "38.25101621",
    "longitude": "140.9438974",
    "tel": "022-287-5880",
    "address": "仙台市若林区六丁の目中町26-60",
    "access": "六丁目の交差点より多賀城方面へ向かい車で5分。産業通り沿い。",
    "games": [
      "GITADORA DrumMania -ARENA MODEL-"
    ]
  },
  {
    "name": "アップル島田店",
    "operation_time": "",
    "holiday": "",
    "latitude": "34.82659503",
    "longitude": "138.187415",
    "tel": "0547-54-4351",
    "address": "島田市宝来町8-5",
    "access": "",
    "games": [
      "GITADORA DrumMania -ARENA MODEL-"
    ]
  },
  {
    "name": "群馬レジャーランド太田店",
    "operation_time": "一部24時間営業",
    "holiday": "無し",
    "latitude": "36.26802219",
    "longitude": "139.3761382",
    "tel": "0276-47-8030",
    "address": "太田市西矢島町162-2",
    "access": "",
    "games": [
      "GITADORA DrumMania -ARENA MODEL-"
    ]
  },
  {
    "name": "ドラマ足利店",
    "operation_time": "10:00～24:00",
    "holiday": "無し",
    "latitude": "36.32220259",
    "longitude": "139.4503607",
    "tel": "0284-73-9559",
    "address": "足利市朝倉町244-1",
    "access": "東武伊勢崎線足利市駅より徒歩10分",
    "games": [
      "GITADORA DrumMania -ARENA MODEL-"
    ]
  },
  {
    "name": "ラウンドワン静岡･駿河店",
    "operation_time": "",
    "holiday": "",
    "latitude": "34.950991",
    "longitude": "138.360524",
    "tel": "054-201-1601",
    "address": "静岡市駿河区向手越1-10-1",
    "access": "",
    "games": [
      "GITADORA DrumMania -ARENA MODEL-"
    ]
  },
  {
    "name": "タイトーFステーション静岡店",
    "operation_time": "直接店舗にお問い合わせください",
    "holiday": "直接店舗にお問い合わせください",
    "latitude": "34.97439418",
    "longitude": "138.3832297",
    "tel": "054-251-3200",
    "address": "静岡市葵区呉服町2-5-4ふしみや第2ビル 5F",
    "access": "静岡駅より徒歩8分、新静岡駅より徒歩5分",
    "games": [
      "GITADORA DrumMania -ARENA MODEL-"
    ]
  },
  {
    "name": "ラウンドワン郡山店",
    "operation_time": "",
    "holiday": "",
    "latitude": "37.40229903",
    "longitude": "140.3957065",
    "tel": "024-941-3191",
    "address": "郡山市向河原町4-55",
    "access": "",
    "games": [
      "GITADORA DrumMania -ARENA MODEL-"
    ]
  },
  {
    "name": "アップル新北街道店",
    "operation_time": "10:00～24:00",
    "holiday": "無休",
    "latitude": "34.99831803",
    "longitude": "138.4134069",
    "tel": "054-261-9109",
    "address": "静岡市葵区沓谷5-13-4",
    "access": "東名高速静岡ICから車で20分",
    "games": [
      "GITADORA DrumMania -ARENA MODEL-"
    ]
  },
  {
    "name": "アップルグランリバー 大井川店",
    "operation_time": "10:00～24:00",
    "holiday": "無し",
    "latitude": "34.80971624",
    "longitude": "138.2732243",
    "tel": "054-270-3244",
    "address": "焼津市下江留1327",
    "access": "東名高速道路、吉田ICより車で10分",
    "games": [
      "GITADORA DrumMania -ARENA MODEL-"
    ]
  },
  {
    "name": "namcoフェドラP&D佐野店",
    "operation_time": "10:00～23:00 土日祝9:00～23:00",
    "holiday": "無し",
    "latitude": "36.29729",
    "longitude": "139.605644",
    "tel": "0283-85-9518",
    "address": "佐野市高萩町1340",
    "access": "",
    "games": [
      "GITADORA DrumMania -ARENA MODEL-"
    ]
  },
  {
    "name": "ラウンドワン富士店",
    "operation_time": "",
    "holiday": "",
    "latitude": "35.15310644",
    "longitude": "138.6938016",
    "tel": "0545-51-3636",
    "address": "富士市八代町4-15",
    "access": "",
    "games": [
      "GITADORA DrumMania -ARENA MODEL-"
    ]
  },
  {
    "name": "ラウンドワンさいたま･鴻巣店",
    "operation_time": "",
    "holiday": "",
    "latitude": "36.08064011",
    "longitude": "139.4902201",
    "tel": "048-595-2001",
    "address": "鴻巣市箕田3163-7",
    "access": "",
    "games": [
      "GITADORA DrumMania -ARENA MODEL-"
    ]
  },
  {
    "name": "ラウンドワン宇都宮店",
    "operation_time": "",
    "holiday": "",
    "latitude": "36.54080987",
    "longitude": "139.8868656",
    "tel": "028-614-8171",
    "address": "宇都宮市江曽島町2072-1",
    "access": "",
    "games": [
      "GITADORA DrumMania -ARENA MODEL-"
    ]
  },
  {
    "name": "GiGO宇都宮",
    "operation_time": "",
    "holiday": "",
    "latitude": "36.558326",
    "longitude": "139.90882",
    "tel": "028-633-6082",
    "address": "宇都宮市東宿郷5-1-7",
    "access": "",
    "games": [
      "GITADORA DrumMania -ARENA MODEL-"
    ]
  },
  {
    "name": "インターパークプラスワン 宇都宮店",
    "operation_time": "9:00～24:00",
    "holiday": "無し",
    "latitude": "36.48822111",
    "longitude": "139.9053211",
    "tel": "028-657-6789",
    "address": "宇都宮市インターパーク6-5-1",
    "access": "国道4号線、北関東自動車道、宇都宮上三川インターインター降りてすぐ",
    "games": [
      "GITADORA DrumMania -ARENA MODEL-"
    ]
  },
  {
    "name": "ラウンドワン入間店",
    "operation_time": "",
    "holiday": "",
    "latitude": "35.82812299",
    "longitude": "139.3755366",
    "tel": "042-960-1521",
    "address": "入間市小谷田3-7-25",
    "access": "",
    "games": [
      "GITADORA DrumMania -ARENA MODEL-"
    ]
  },
  {
    "name": "タイトーFステーションクレアモール川越店",
    "operation_time": "",
    "holiday": "",
    "latitude": "35.91384483",
    "longitude": "139.482921",
    "tel": "049-298-8963",
    "address": "川越市新富町2-1-13本川越SSビル1-4F",
    "access": "",
    "games": [
      "GITADORA DrumMania -ARENA MODEL-"
    ]
  },
  {
    "name": "ゲームパドック プラスワン",
    "operation_time": "9:00～24:00",
    "holiday": "無し",
    "latitude": "36.2067047",
    "longitude": "139.7580433",
    "tel": "0280-98-5161",
    "address": "古河市小堤1916-1",
    "access": "国道125号、古河方面から下妻方面に走行、新幹線のガードをくくって500m左手",
    "games": [
      "GITADORA DrumMania -ARENA MODEL-"
    ]
  },
  {
    "name": "ラウンドワン武蔵村山店",
    "operation_time": "",
    "holiday": "",
    "latitude": "35.73563714",
    "longitude": "139.3826993",
    "tel": "042-520-3211",
    "address": "武蔵村山市伊奈平3-1-1",
    "access": "",
    "games": [
      "GITADORA DrumMania -ARENA MODEL-"
    ]
  },
  {
    "name": "ラウンドワンさいたま･栗橋店",
    "operation_time": "",
    "holiday": "",
    "latitude": "36.12348469",
    "longitude": "139.7152159",
    "tel": "0480-55-0831",
    "address": "久喜市小右衛門192-1",
    "access": "",
    "games": [
      "GITADORA DrumMania -ARENA MODEL-"
    ]
  },
  {
    "name": "ラウンドワン上尾店",
    "operation_time": "",
    "holiday": "",
    "latitude": "35.98574121",
    "longitude": "139.6078308",
    "tel": "048-778-3411",
    "address": "上尾市大字平塚917-1",
    "access": "",
    "games": [
      "GITADORA DrumMania -ARENA MODEL-"
    ]
  },
  {
    "name": "シルクハット八王子",
    "operation_time": "10:00～24:45",
    "holiday": "",
    "latitude": "35.65636374",
    "longitude": "139.3384725",
    "tel": "",
    "address": "八王子市旭町2-5八王子ツインタワービル3F",
    "access": "JR八王子駅前",
    "games": [
      "GITADORA DrumMania -ARENA MODEL-"
    ]
  },
  {
    "name": "アミューズメントフィールドバイヨン",
    "operation_time": "10:00～24:00",
    "holiday": "無し",
    "latitude": "35.85617882",
    "longitude": "139.522425",
    "tel": "0492-65-1400",
    "address": "ふじみ野市うれし野2-16-1LCモールうれし野2F",
    "access": "東武東上線「ふじみ野」駅徒歩6分ショッピングモールリズム横",
    "games": [
      "GITADORA DrumMania -ARENA MODEL-"
    ]
  },
  {
    "name": "ラウンドワン所沢店",
    "operation_time": "",
    "holiday": "",
    "latitude": "35.78935214",
    "longitude": "139.4700049",
    "tel": "04-2940-8631",
    "address": "所沢市東町5-22TOCOTOCO SQUARE6F",
    "access": "",
    "games": [
      "GITADORA DrumMania -ARENA MODEL-"
    ]
  },
  {
    "name": "タイトーステーション立川北口店",
    "operation_time": "",
    "holiday": "",
    "latitude": "35.699058",
    "longitude": "139.412162",
    "tel": "042-512-9651",
    "address": "立川市曙町2-4-5OSJ TACHIKAWA2･3F",
    "access": "",
    "games": [
      "GITADORA DrumMania -ARENA MODEL-"
    ]
  },
  {
    "name": "WORLD GAME CIRCUS",
    "operation_time": "",
    "holiday": "",
    "latitude": "35.69651",
    "longitude": "139.42878",
    "tel": "042-512-5610",
    "address": "立川市羽衣町2-4-13羽衣長田ビル101",
    "access": "",
    "games": [
      "GITADORA DrumMania -ARENA MODEL-"
    ]
  },
  {
    "name": "アドアーズ橋本店",
    "operation_time": "10:00～23:30",
    "holiday": "無し",
    "latitude": "35.59444342",
    "longitude": "139.3489184",
    "tel": "042-700-2310",
    "address": "相模原市緑区橋本3-3-1SING橋本2F",
    "access": "橋本MOVIX(映画館)の2F",
    "games": [
      "GITADORA DrumMania -ARENA MODEL-"
    ]
  },
  {
    "name": "ラウンドワン大宮店",
    "operation_time": "",
    "holiday": "",
    "latitude": "35.91078012",
    "longitude": "139.6254963",
    "tel": "048-658-5666",
    "address": "さいたま市大宮区宮町4-90-7",
    "access": "",
    "games": [
      "GITADORA DrumMania -ARENA MODEL-"
    ]
  },
  {
    "name": "埼玉レジャーランド大宮駅東口店",
    "operation_time": "",
    "holiday": "",
    "latitude": "35.90800635",
    "longitude": "139.6245445",
    "tel": "048-788-4340",
    "address": "さいたま市大宮区宮町1-8大宮セントラルビルB1F-2F",
    "access": "",
    "games": [
      "GITADORA DrumMania -ARENA MODEL-"
    ]
  },
  {
    "name": "埼玉レジャーランド大宮ラクーン店",
    "operation_time": "",
    "holiday": "",
    "latitude": "35.90775385",
    "longitude": "139.6256741",
    "tel": "048-871-5539",
    "address": "さいたま市大宮区宮町1-60大宮ラクーン5F",
    "access": "",
    "games": [
      "GITADORA DrumMania -ARENA MODEL-"
    ]
  },
  {
    "name": "タイトーステーション大宮店",
    "operation_time": "9:00～翌1:00",
    "holiday": "無し",
    "latitude": "35.907441",
    "longitude": "139.625505",
    "tel": "048-782-5461",
    "address": "さいたま市大宮区大門町1-1",
    "access": "大宮駅東口徒歩1分",
    "games": [
      "GITADORA DrumMania -ARENA MODEL-"
    ]
  },
  {
    "name": "Amusement&Game MAGHREB",
    "operation_time": "10:00～24:00",
    "holiday": "無し",
    "latitude": "35.624024",
    "longitude": "139.423196",
    "tel": "042-371-5556",
    "address": "多摩市落合1-39-2マグレブビル1F",
    "access": "京王線・小田急線 多摩センター駅 徒歩3分/多摩モノレール多摩センター駅 徒歩1分",
    "games": [
      "GITADORA DrumMania -ARENA MODEL-"
    ]
  },
  {
    "name": "ラウンドワン府中本町駅前店",
    "operation_time": "",
    "holiday": "",
    "latitude": "35.667312",
    "longitude": "139.477387",
    "tel": "042-340-4901",
    "address": "府中市本町1-13-3カネタビル",
    "access": "",
    "games": [
      "GITADORA DrumMania -ARENA MODEL-"
    ]
  },
  {
    "name": "ラウンドワン朝霞店",
    "operation_time": "",
    "holiday": "",
    "latitude": "35.79026242",
    "longitude": "139.5796756",
    "tel": "048-450-1822",
    "address": "朝霞市膝折町2-16-10",
    "access": "",
    "games": [
      "GITADORA DrumMania -ARENA MODEL-"
    ]
  },
  {
    "name": "埼玉レジャーランド春日部店",
    "operation_time": "一部24時間",
    "holiday": "無し",
    "latitude": "35.95940469",
    "longitude": "139.7289621",
    "tel": "048-763-4061",
    "address": "春日部市大字増富字谷際163-1",
    "access": "国道16号線沿い春日部市増富地内",
    "games": [
      "GITADORA DrumMania -ARENA MODEL-"
    ]
  },
  {
    "name": "神奈川レジャーランド厚木店",
    "operation_time": "一部24時間営業",
    "holiday": "無し",
    "latitude": "35.44802433",
    "longitude": "139.3431365",
    "tel": "050-1722-4336",
    "address": "厚木市戸室5-31-1",
    "access": "小田急本厚木駅よりバスにてアンリツ前バス停下車徒歩1分",
    "games": [
      "GITADORA DrumMania -ARENA MODEL-"
    ]
  },
  {
    "name": "ラウンドワンわらび店",
    "operation_time": "",
    "holiday": "",
    "latitude": "35.83078787",
    "longitude": "139.6742521",
    "tel": "048-447-8080",
    "address": "蕨市北町5-1-6",
    "access": "",
    "games": [
      "GITADORA DrumMania -ARENA MODEL-"
    ]
  },
  {
    "name": "ラウンドワン町田店",
    "operation_time": "",
    "holiday": "",
    "latitude": "35.54409488",
    "longitude": "139.4432407",
    "tel": "042-710-0091",
    "address": "町田市森野1-13-14",
    "access": "",
    "games": [
      "GITADORA DrumMania -ARENA MODEL-"
    ]
  },
  {
    "name": "GiGO相模大野",
    "operation_time": "",
    "holiday": "",
    "latitude": "35.532177",
    "longitude": "139.436075",
    "tel": "042-741-8195",
    "address": "相模原市南区相模大野3-13-2フレスコビル3F",
    "access": "",
    "games": [
      "GITADORA DrumMania -ARENA MODEL-"
    ]
  },
  {
    "name": "東京レジャーランド吉祥寺店",
    "operation_time": "",
    "holiday": "",
    "latitude": "35.7036243",
    "longitude": "139.5786419",
    "tel": "0422-27-2200",
    "address": "武蔵野市吉祥寺本町1-3-7YSビル",
    "access": "",
    "games": [
      "GITADORA DrumMania -ARENA MODEL-"
    ]
  },
  {
    "name": "ラウンドワン吉祥寺店",
    "operation_time": "",
    "holiday": "",
    "latitude": "35.706276",
    "longitude": "139.580884",
    "tel": "0422-29-1051",
    "address": "武蔵野市吉祥寺本町1-11-22",
    "access": "",
    "games": [
      "GITADORA DrumMania -ARENA MODEL-"
    ]
  },
  {
    "name": "タイトーステーション町田店",
    "operation_time": "10:00～24:00",
    "holiday": "無し",
    "latitude": "35.542593",
    "longitude": "139.448333",
    "tel": "042-739-6196",
    "address": "町田市原町田6-21-23松山ビル1F",
    "access": "JR横浜線町田駅より徒歩3分・小田急線町田駅より徒歩5分",
    "games": [
      "GITADORA DrumMania -ARENA MODEL-"
    ]
  },
  {
    "name": "タイトーステーション海老名ビナウォーク店",
    "operation_time": "10:00～24:00",
    "holiday": "無し",
    "latitude": "35.452455",
    "longitude": "139.395834",
    "tel": "046-292-5160",
    "address": "海老名市中央1-18-1ビナウォーク6番館2F",
    "access": "JR相模線、相鉄線、小田急線、海老名駅より徒歩5分",
    "games": [
      "GITADORA DrumMania -ARENA MODEL-"
    ]
  },
  {
    "name": "テクモピア座間店",
    "operation_time": "",
    "holiday": "",
    "latitude": "35.48001079",
    "longitude": "139.431891",
    "tel": "046-205-4719",
    "address": "座間市ひばりが丘4-11-48",
    "access": "",
    "games": [
      "GITADORA DrumMania -ARENA MODEL-"
    ]
  },
  {
    "name": "ラウンドワン板橋店",
    "operation_time": "",
    "holiday": "",
    "latitude": "35.77658",
    "longitude": "139.67879",
    "tel": "03-5922-3521",
    "address": "板橋区相生町16-13",
    "access": "",
    "games": [
      "GITADORA DrumMania -ARENA MODEL-"
    ]
  },
  {
    "name": "イミグランデ大和店",
    "operation_time": "10:00～24:00",
    "holiday": "無し",
    "latitude": "35.49148588",
    "longitude": "139.4547647",
    "tel": "046-277-8571",
    "address": "大和市鶴間2-12-27",
    "access": "小田急鶴間駅徒歩5分",
    "games": [
      "GITADORA DrumMania -ARENA MODEL-"
    ]
  },
  {
    "name": "タイトーFステーション向ヶ丘遊園店",
    "operation_time": "",
    "holiday": "",
    "latitude": "35.616404",
    "longitude": "139.565109",
    "tel": "044-281-3500",
    "address": "川崎市多摩区登戸2718-1",
    "access": "",
    "games": [
      "GITADORA DrumMania -ARENA MODEL-"
    ]
  },
  {
    "name": "千葉レジャーランド野田店",
    "operation_time": "一部24時間営業",
    "holiday": "無し",
    "latitude": "35.97154747",
    "longitude": "139.8653487",
    "tel": "04-7120-3535",
    "address": "野田市吉春776-1",
    "access": "国道16号線沿い野田市吉春地内",
    "games": [
      "GITADORA DrumMania -ARENA MODEL-"
    ]
  },
  {
    "name": "GiGO赤羽駅前",
    "operation_time": "",
    "holiday": "",
    "latitude": "35.778266",
    "longitude": "139.721535",
    "tel": "070-1458-9504",
    "address": "北区赤羽1-2-4",
    "access": "",
    "games": [
      "GITADORA DrumMania -ARENA MODEL-"
    ]
  },
  {
    "name": "ユーズランド越谷店",
    "operation_time": "10:00～21:00",
    "holiday": "無し",
    "latitude": "35.87763779",
    "longitude": "139.8247477",
    "tel": "048-934-3342",
    "address": "越谷市レイクタウン4-2-2イオンレイクタウンKAZE 3F",
    "access": "武蔵野線レイクタウン駅下車徒歩1分",
    "games": [
      "GITADORA DrumMania -ARENA MODEL-"
    ]
  },
  {
    "name": "タイトーステーション池袋西口店",
    "operation_time": "",
    "holiday": "",
    "latitude": "35.73058948",
    "longitude": "139.709706",
    "tel": "03-6907-3560",
    "address": "豊島区西池袋1-15-9第一西池ビル",
    "access": "",
    "games": [
      "GITADORA DrumMania -ARENA MODEL-"
    ]
  },
  {
    "name": "ラウンドワン池袋店",
    "operation_time": "",
    "holiday": "",
    "latitude": "35.730175",
    "longitude": "139.714846",
    "tel": "03-5928-0221",
    "address": "豊島区東池袋1-14-1池袋スクエア",
    "access": "",
    "games": [
      "GITADORA DrumMania -ARENA MODEL-"
    ]
  },
  {
    "name": "GiGO総本店",
    "operation_time": "",
    "holiday": "",
    "latitude": "35.72930775",
    "longitude": "139.7150562",
    "tel": "080-7018-7351",
    "address": "豊島区東池袋1-13-6ロクマルゲート池袋B1F-3F",
    "access": "",
    "games": [
      "GITADORA DrumMania -ARENA MODEL-"
    ]
  },
  {
    "name": "東京レジャーランド池袋店",
    "operation_time": "",
    "holiday": "",
    "latitude": "35.73071",
    "longitude": "139.71644",
    "tel": "03-5904-8388",
    "address": "豊島区東池袋1-29-1マルビル池袋2-3F",
    "access": "",
    "games": [
      "GITADORA DrumMania -ARENA MODEL-"
    ]
  },
  {
    "name": "タイトーステーションBIGBOX高田馬場",
    "operation_time": "10:00～24:00",
    "holiday": "無し",
    "latitude": "35.712933",
    "longitude": "139.70419",
    "tel": "03-5272-9855",
    "address": "新宿区高田馬場1-35-3BIGBOX6F",
    "access": "西武新宿線・高田馬場駅より徒歩1分",
    "games": [
      "GITADORA DrumMania -ARENA MODEL-"
    ]
  },
  {
    "name": "namco王子サンスクエア店",
    "operation_time": "",
    "holiday": "",
    "latitude": "35.7529261",
    "longitude": "139.7377633",
    "tel": "03-5959-9830",
    "address": "北区王子1-4-1サンスクエア2F",
    "access": "",
    "games": [
      "GITADORA DrumMania -ARENA MODEL-"
    ]
  },
  {
    "name": "タイトーステーション溝の口店",
    "operation_time": "",
    "holiday": "",
    "latitude": "35.600042",
    "longitude": "139.61245",
    "tel": "044-328-9262",
    "address": "川崎市高津区溝口1-11-8",
    "access": "",
    "games": [
      "GITADORA DrumMania -ARENA MODEL-"
    ]
  },
  {
    "name": "ラウンドワン草加店",
    "operation_time": "",
    "holiday": "",
    "latitude": "35.81240056",
    "longitude": "139.7878993",
    "tel": "048-920-3701",
    "address": "草加市谷塚上町204-1",
    "access": "",
    "games": [
      "GITADORA DrumMania -ARENA MODEL-"
    ]
  },
  {
    "name": "イミグランデ溝口店",
    "operation_time": "10:00～24:00",
    "holiday": "無し",
    "latitude": "35.60052965",
    "longitude": "139.6144859",
    "tel": "044-819-8595",
    "address": "川崎市高津区溝口1-14-7第二カスタムビル",
    "access": "",
    "games": [
      "GITADORA DrumMania -ARENA MODEL-"
    ]
  },
  {
    "name": "ゲームパニック新宿歌舞伎町",
    "operation_time": "",
    "holiday": "",
    "latitude": "35.69606337",
    "longitude": "139.7012777",
    "tel": "03-6265-9021",
    "address": "新宿区歌舞伎町1-20-1ヒューマックスパビリオン1-2F",
    "access": "",
    "games": [
      "GITADORA DrumMania -ARENA MODEL-"
    ]
  },
  {
    "name": "新宿スポーツランド本館",
    "operation_time": "",
    "holiday": "",
    "latitude": "35.69316847",
    "longitude": "139.7018443",
    "tel": "03-3352-5489",
    "address": "新宿区新宿3-22-12",
    "access": "",
    "games": [
      "GITADORA DrumMania -ARENA MODEL-"
    ]
  },
  {
    "name": "タイトーステーション新宿南口ゲームワールド店",
    "operation_time": "10:00～25:00",
    "holiday": "無し",
    "latitude": "35.689926",
    "longitude": "139.702372",
    "tel": "03-3226-0395",
    "address": "新宿区新宿3-35-8",
    "access": "JR・新宿駅より徒歩1分",
    "games": [
      "GITADORA DrumMania -ARENA MODEL-"
    ]
  },
  {
    "name": "ラウンドワンららぽーと新三郷店",
    "operation_time": "",
    "holiday": "",
    "latitude": "35.859813",
    "longitude": "139.865774",
    "tel": "048-950-7501",
    "address": "三郷市新三郷ららシティ3-1-1ららぽーと新三郷 2F",
    "access": "",
    "games": [
      "GITADORA DrumMania -ARENA MODEL-"
    ]
  },
  {
    "name": "ドラマ港北インター店",
    "operation_time": "10:00～24:00",
    "holiday": "無し",
    "latitude": "35.51925659",
    "longitude": "139.5847927",
    "tel": "045-474-6604",
    "address": "横浜市都筑区東方町321-6",
    "access": "第三京浜港北IC右側交差点左折約500M",
    "games": [
      "GITADORA DrumMania -ARENA MODEL-"
    ]
  },
  {
    "name": "タイトーステーション渋谷店",
    "operation_time": "10:00～24:00",
    "holiday": "無し",
    "latitude": "35.659983",
    "longitude": "139.70204",
    "tel": "03-5467-6565",
    "address": "渋谷区渋谷1-24-12渋谷東映プラザB1F",
    "access": "JR渋谷駅・宮益坂口より徒歩1分",
    "games": [
      "GITADORA DrumMania -ARENA MODEL-"
    ]
  },
  {
    "name": "ゲームパニック三郷",
    "operation_time": "",
    "holiday": "",
    "latitude": "35.84215546",
    "longitude": "139.8548102",
    "tel": "048-953-8295",
    "address": "三郷市ピアラシティ1-1-200",
    "access": "",
    "games": [
      "GITADORA DrumMania -ARENA MODEL-"
    ]
  },
  {
    "name": "タイトーステーション上野アメ横店",
    "operation_time": "10:00～24:00",
    "holiday": "無し",
    "latitude": "35.710538",
    "longitude": "139.774356",
    "tel": "03-3831-5800",
    "address": "台東区上野4-10-17",
    "access": "上野駅から徒歩2分!アメヤ横丁入ってすぐ",
    "games": [
      "GITADORA DrumMania -ARENA MODEL-"
    ]
  },
  {
    "name": "イミグランデ日吉店",
    "operation_time": "8:00～24:00",
    "holiday": "無し",
    "latitude": "35.554136",
    "longitude": "139.646509",
    "tel": "045-624-8633",
    "address": "横浜市港北区日吉2-2-4日吉ビル",
    "access": "",
    "games": [
      "GITADORA DrumMania -ARENA MODEL-"
    ]
  },
  {
    "name": "GiGO綱島",
    "operation_time": "",
    "holiday": "",
    "latitude": "35.5364623",
    "longitude": "139.6324113",
    "tel": "045-547-1199",
    "address": "横浜市港北区綱島西2-6-29城田ビル3F",
    "access": "",
    "games": [
      "GITADORA DrumMania -ARENA MODEL-"
    ]
  },
  {
    "name": "東京レジャーランド秋葉原店",
    "operation_time": "10:00～25:00",
    "holiday": "無し",
    "latitude": "35.69887947",
    "longitude": "139.7701404",
    "tel": "03-5298-1360",
    "address": "千代田区外神田1-9-5",
    "access": "JR秋葉原駅徒歩5分",
    "games": [
      "GITADORA DrumMania -ARENA MODEL-"
    ]
  },
  {
    "name": "東京レジャーランド秋葉原2号店",
    "operation_time": "10:00～25:00",
    "holiday": "無し",
    "latitude": "35.70073433",
    "longitude": "139.7718424",
    "tel": "03-5209-5650",
    "address": "千代田区外神田4-3-3",
    "access": "JR秋葉原駅より徒歩5分",
    "games": [
      "GITADORA DrumMania -ARENA MODEL-"
    ]
  },
  {
    "name": "GiGO秋葉原3号館",
    "operation_time": "",
    "holiday": "",
    "latitude": "35.699336",
    "longitude": "139.770908",
    "tel": "03-5297-3601",
    "address": "千代田区外神田1-11-11外神田1丁目ビルディング",
    "access": "",
    "games": [
      "GITADORA DrumMania -ARENA MODEL-"
    ]
  },
  {
    "name": "タイトーステーション秋葉原店",
    "operation_time": "10:00～24:00",
    "holiday": "無し",
    "latitude": "35.70025258",
    "longitude": "139.7716985",
    "tel": "03-5289-8445",
    "address": "千代田区外神田4-2-2貴三ビル",
    "access": "JR秋葉原駅電気街口を出て徒歩3分",
    "games": [
      "GITADORA DrumMania -ARENA MODEL-"
    ]
  },
  {
    "name": "シルクハット秋葉原",
    "operation_time": "",
    "holiday": "",
    "latitude": "35.69871026",
    "longitude": "139.7709979",
    "tel": "",
    "address": "千代田区外神田1-10-9",
    "access": "",
    "games": [
      "GITADORA DrumMania -ARENA MODEL-"
    ]
  },
  {
    "name": "ゲームパニック秋葉原",
    "operation_time": "",
    "holiday": "",
    "latitude": "35.69891",
    "longitude": "139.77165",
    "tel": "03-6285-2820",
    "address": "千代田区外神田1-13-1第122東京ビル",
    "access": "",
    "games": [
      "GITADORA DrumMania -ARENA MODEL-"
    ]
  },
  {
    "name": "ラウンドワン横浜綱島店",
    "operation_time": "",
    "holiday": "",
    "latitude": "35.53198182",
    "longitude": "139.6371126",
    "tel": "045-533-6151",
    "address": "横浜市港北区樽町2-6-40T-PLATZ",
    "access": "",
    "games": [
      "GITADORA DrumMania -ARENA MODEL-"
    ]
  },
  {
    "name": "タイトーステーション戸塚西口店",
    "operation_time": "10:00～24:00",
    "holiday": "無し",
    "latitude": "35.399502",
    "longitude": "139.531856",
    "tel": "045-881-6757",
    "address": "横浜市戸塚区戸塚町4023",
    "access": "JR戸塚駅西口・市営地下鉄戸塚駅より徒歩5分。",
    "games": [
      "GITADORA DrumMania -ARENA MODEL-"
    ]
  },
  {
    "name": "ユーズランド水戸内原店",
    "operation_time": "10:00～21:00",
    "holiday": "",
    "latitude": "36.374428",
    "longitude": "140.3590138",
    "tel": "029-259-1218",
    "address": "水戸市内原2-1イオンモール水戸内原2F",
    "access": "",
    "games": [
      "GITADORA DrumMania -ARENA MODEL-"
    ]
  },
  {
    "name": "東京レジャーランド亀有店",
    "operation_time": "",
    "holiday": "",
    "latitude": "35.765462",
    "longitude": "139.84798",
    "tel": "03-5680-8893",
    "address": "葛飾区亀有3-21-2",
    "access": "",
    "games": [
      "GITADORA DrumMania -ARENA MODEL-"
    ]
  },
  {
    "name": "GiGOデイズタウンつくば",
    "operation_time": "10:00～24:00",
    "holiday": "無休",
    "latitude": "36.07768145",
    "longitude": "140.1153322",
    "tel": "070-1459-0875",
    "address": "つくば市竹園1-9-2デイズタウンつくばB1F",
    "access": "つくば駅徒歩5分デイズタウンつくばB1F",
    "games": [
      "GITADORA DrumMania -ARENA MODEL-"
    ]
  },
  {
    "name": "嶺宝スポーツセンター",
    "operation_time": "11:00～23:00",
    "holiday": "火曜日",
    "latitude": "36.97400283",
    "longitude": "140.8903913",
    "tel": "0246-58-8093",
    "address": "いわき市小名浜住吉字折返2-2",
    "access": "6号バイパス住吉交差点横",
    "games": [
      "GITADORA DrumMania -ARENA MODEL-"
    ]
  },
  {
    "name": "ラウンドワン横浜駅西口店",
    "operation_time": "",
    "holiday": "",
    "latitude": "35.46393717",
    "longitude": "139.6180549",
    "tel": "045-412-0880",
    "address": "横浜市西区南幸2-8-16",
    "access": "",
    "games": [
      "GITADORA DrumMania -ARENA MODEL-"
    ]
  },
  {
    "name": "タイトーステーション横浜西口五番街店",
    "operation_time": "平日10:00～23:50 土日祝日9:00～23:50",
    "holiday": "無し",
    "latitude": "35.464648",
    "longitude": "139.619593",
    "tel": "045-411-5288",
    "address": "横浜市西区南幸1-12-9",
    "access": "JR・相鉄線・東横線・みなとみらい線 横浜駅より徒歩3分",
    "games": [
      "GITADORA DrumMania -ARENA MODEL-"
    ]
  },
  {
    "name": "タイトーFステーションオリナス錦糸町店",
    "operation_time": "10:00～23:45",
    "holiday": "無し",
    "latitude": "35.700721",
    "longitude": "139.816024",
    "tel": "03-5610-7376",
    "address": "墨田区太平4-1-2オリナスB1F",
    "access": "JR総武線錦糸町駅北口から徒歩5分",
    "games": [
      "GITADORA DrumMania -ARENA MODEL-"
    ]
  },
  {
    "name": "GiGO大森",
    "operation_time": "",
    "holiday": "",
    "latitude": "35.590043",
    "longitude": "139.72823",
    "tel": "03-5709-0669",
    "address": "大田区山王2-1-5大森駅ララビル2F",
    "access": "",
    "games": [
      "GITADORA DrumMania -ARENA MODEL-"
    ]
  },
  {
    "name": "シルクハット蒲田西口",
    "operation_time": "10:00～24:45",
    "holiday": "",
    "latitude": "35.56301591",
    "longitude": "139.7158447",
    "tel": "",
    "address": "大田区西蒲田7-2-3第二醍醐ビルB1-2F",
    "access": "",
    "games": [
      "GITADORA DrumMania -ARENA MODEL-"
    ]
  },
  {
    "name": "namco松戸店",
    "operation_time": "",
    "holiday": "",
    "latitude": "35.783581",
    "longitude": "139.900789",
    "tel": "047-711-7274",
    "address": "松戸市松戸1230-1ピアザ松戸1F",
    "access": "",
    "games": [
      "GITADORA DrumMania -ARENA MODEL-"
    ]
  },
  {
    "name": "ラウンドワンダイバーシティ東京プラザ店",
    "operation_time": "",
    "holiday": "",
    "latitude": "35.62521",
    "longitude": "139.775732",
    "tel": "03-3527-8491",
    "address": "江東区青海1-1-10ダイバーシティ東京6F-6100",
    "access": "",
    "games": [
      "GITADORA DrumMania -ARENA MODEL-"
    ]
  },
  {
    "name": "タイトーステーション柏店",
    "operation_time": "10:00～24:00",
    "holiday": "無し",
    "latitude": "35.86145714",
    "longitude": "139.972664",
    "tel": "04-7164-0866",
    "address": "柏市柏2-3-1",
    "access": "JR常磐線・柏駅より徒歩3分",
    "games": [
      "GITADORA DrumMania -ARENA MODEL-"
    ]
  },
  {
    "name": "シルクハット川崎ダイス",
    "operation_time": "9:00～24:45",
    "holiday": "無し",
    "latitude": "35.5314121",
    "longitude": "139.7002166",
    "tel": "",
    "address": "川崎市川崎区駅前本町8ダイスビルB2F",
    "access": "JR川崎駅アゼリア地下街と直結、京急川崎駅中央口徒歩1分",
    "games": [
      "GITADORA DrumMania -ARENA MODEL-"
    ]
  },
  {
    "name": "AMFマーズ",
    "operation_time": "8:30～翌1:00",
    "holiday": "無し",
    "latitude": "35.44284793",
    "longitude": "139.6311041",
    "tel": "045-243-6033",
    "address": "横浜市中区長者町6-106",
    "access": "JR「関内駅」下車徒歩3分",
    "games": [
      "GITADORA DrumMania -ARENA MODEL-"
    ]
  },
  {
    "name": "ラウンドワン南砂店",
    "operation_time": "",
    "holiday": "",
    "latitude": "35.67184786",
    "longitude": "139.8361845",
    "tel": "03-5617-6911",
    "address": "江東区南砂6-7-15トピレックプラザ4F",
    "access": "",
    "games": [
      "GITADORA DrumMania -ARENA MODEL-"
    ]
  },
  {
    "name": "ラウンドワン川崎大師店",
    "operation_time": "",
    "holiday": "",
    "latitude": "35.53846653",
    "longitude": "139.741634",
    "tel": "044-270-1541",
    "address": "川崎市川崎区殿町1-5-1",
    "access": "",
    "games": [
      "GITADORA DrumMania -ARENA MODEL-"
    ]
  },
  {
    "name": "ゲームパニックつくば",
    "operation_time": "",
    "holiday": "",
    "latitude": "36.04632758",
    "longitude": "140.1679958",
    "tel": "080-3350-1839",
    "address": "土浦市中村東1-1-1",
    "access": "",
    "games": [
      "GITADORA DrumMania -ARENA MODEL-"
    ]
  },
  {
    "name": "ラウンドワンアリオ柏店",
    "operation_time": "",
    "holiday": "",
    "latitude": "35.832403",
    "longitude": "140.012023",
    "tel": "04-7190-1201",
    "address": "柏市大島田1-6-1セブンパークアリオ柏 1070",
    "access": "",
    "games": [
      "GITADORA DrumMania -ARENA MODEL-"
    ]
  },
  {
    "name": "ゲームメガ日立店",
    "operation_time": "10:00～24:00",
    "holiday": "無し",
    "latitude": "36.54818909",
    "longitude": "140.6305166",
    "tel": "0294-32-1983",
    "address": "日立市東多賀町5-10-10",
    "access": "常陸多賀駅徒歩5分",
    "games": [
      "GITADORA DrumMania -ARENA MODEL-"
    ]
  },
  {
    "name": "ラウンドワン市川鬼高店",
    "operation_time": "",
    "holiday": "",
    "latitude": "35.711239",
    "longitude": "139.927465",
    "tel": "047-320-3801",
    "address": "市川市鬼高4-1-3",
    "access": "",
    "games": [
      "GITADORA DrumMania -ARENA MODEL-"
    ]
  },
  {
    "name": "タイトーFステーション市川妙典店",
    "operation_time": "施設の営業時間に準じる",
    "holiday": "施設の営業日に準じる",
    "latitude": "35.69246485",
    "longitude": "139.9267286",
    "tel": "047-318-3933",
    "address": "市川市妙典4-1-1イオン市川妙典店2番街2F",
    "access": "",
    "games": [
      "GITADORA DrumMania -ARENA MODEL-"
    ]
  },
  {
    "name": "アミューズメントエース津田沼",
    "operation_time": "9:00～24:00",
    "holiday": "無し",
    "latitude": "35.69228053",
    "longitude": "140.0201572",
    "tel": "047-475-8918",
    "address": "船橋市前原西2-15-1ファミービル1-3F",
    "access": "JR「津田沼駅」下車北口より徒歩1分",
    "games": [
      "GITADORA DrumMania -ARENA MODEL-"
    ]
  },
  {
    "name": "ラッキーバッティングドーム",
    "operation_time": "9:00～23:50",
    "holiday": "無し",
    "latitude": "35.72444576",
    "longitude": "140.0674286",
    "tel": "047-458-8208",
    "address": "八千代市大和田新田1088",
    "access": "東葉高速鉄道八千代緑が丘駅徒歩10分",
    "games": [
      "GITADORA DrumMania -ARENA MODEL-"
    ]
  },
  {
    "name": "ラウンドワン習志野店",
    "operation_time": "",
    "holiday": "",
    "latitude": "35.660295",
    "longitude": "140.022576",
    "tel": "047-408-1901",
    "address": "習志野市芝園1-4-5",
    "access": "",
    "games": [
      "GITADORA DrumMania -ARENA MODEL-"
    ]
  },
  {
    "name": "ラッキー佐倉店",
    "operation_time": "10:00～23:45",
    "holiday": "無し",
    "latitude": "35.71839979",
    "longitude": "140.1362206",
    "tel": "043-460-5165",
    "address": "佐倉市井野1475",
    "access": "京成線勝田台駅下車徒歩10分 国道296号沿い",
    "games": [
      "GITADORA DrumMania -ARENA MODEL-"
    ]
  },
  {
    "name": "ラッキー中央店(フェリシダ)",
    "operation_time": "9:00～24:50",
    "holiday": "無し",
    "latitude": "35.61028144",
    "longitude": "140.1182438",
    "tel": "043-222-5610",
    "address": "千葉市中央区富士見2-8-1",
    "access": "JR千葉駅より徒歩5分",
    "games": [
      "GITADORA DrumMania -ARENA MODEL-"
    ]
  },
  {
    "name": "ゲームチャリオット五井店",
    "operation_time": "10:00～24:00",
    "holiday": "無し",
    "latitude": "35.51363106",
    "longitude": "140.0899562",
    "tel": "0436-23-5533",
    "address": "市原市五井中央西2-1-2",
    "access": "JR五井駅西口駅前",
    "games": [
      "GITADORA DrumMania -ARENA MODEL-"
    ]
  },
  {
    "name": "スポーツウェーブ鉄腕24浜野店",
    "operation_time": "一部24時間営業",
    "holiday": "無し",
    "latitude": "35.55423187",
    "longitude": "140.1264305",
    "tel": "043-300-8033",
    "address": "千葉市中央区浜野町1025-59",
    "access": "館山自動車道蘇我ICより車で8分",
    "games": [
      "GITADORA DrumMania -ARENA MODEL-"
    ]
  },
  {
    "name": "ラウンドワン市原店",
    "operation_time": "",
    "holiday": "",
    "latitude": "35.54749256",
    "longitude": "140.1233239",
    "tel": "0436-44-8801",
    "address": "市原市八幡北町3-5-1",
    "access": "",
    "games": [
      "GITADORA DrumMania -ARENA MODEL-"
    ]
  }
]