[
  {
    "name": "アミパラ佐世保店",
    "operation_time": "10:00～24:00",
    "holiday": "無し",
    "latitude": "33.15005741",
    "longitude": "129.7804145",
    "tel": "0956-34-8880",
    "address": "佐世保市大塔町18-15",
    "access": "JR大塔駅徒歩3分",
    "games": [
      "麻雀格闘倶楽部(ﾊｲｸﾞﾚｰﾄﾞﾓﾃﾞﾙ)"
    ]
  },
  {
    "name": "ソニックワールド伊万里店",
    "operation_time": "10:00～24:00",
    "holiday": "無し",
    "latitude": "33.27857609",
    "longitude": "129.8722306",
    "tel": "0955-22-1104",
    "address": "伊万里市二里町八谷搦189-3",
    "access": "",
    "games": [
      "麻雀格闘倶楽部(ﾊｲｸﾞﾚｰﾄﾞﾓﾃﾞﾙ)"
    ]
  },
  {
    "name": "G-pala時津店",
    "operation_time": "10:00～24:00",
    "holiday": "無し",
    "latitude": "32.8243884",
    "longitude": "129.8477553",
    "tel": "095-813-2442",
    "address": "西彼杵郡時津町野田郷59",
    "access": "国道206号沿い",
    "games": [
      "麻雀格闘倶楽部(ﾊｲｸﾞﾚｰﾄﾞﾓﾃﾞﾙ)"
    ]
  },
  {
    "name": "楽市楽座福重店",
    "operation_time": "10:00～24:00",
    "holiday": "無し",
    "latitude": "33.56889775",
    "longitude": "130.3136834",
    "tel": "092-885-7380",
    "address": "福岡市西区石丸4-263-1",
    "access": "202号線沿い拾六町IC、石丸ICそば",
    "games": [
      "麻雀格闘倶楽部(ﾊｲｸﾞﾚｰﾄﾞﾓﾃﾞﾙ)"
    ]
  },
  {
    "name": "ソニックワールド大村店",
    "operation_time": "10:00～24:00",
    "holiday": "無し",
    "latitude": "32.92727946",
    "longitude": "129.9394753",
    "tel": "0957-50-2555",
    "address": "大村市古賀島町383-1",
    "access": "長崎自動車道「大村IC」下車車10分",
    "games": [
      "麻雀格闘倶楽部(ﾊｲｸﾞﾚｰﾄﾞﾓﾃﾞﾙ)"
    ]
  },
  {
    "name": "G-STAGE七隈店",
    "operation_time": "10:00～24:00",
    "holiday": "無し",
    "latitude": "33.55178855",
    "longitude": "130.3649354",
    "tel": "092-861-4856",
    "address": "福岡市城南区七隈8-4-8",
    "access": "七隈ファミリープラザ内",
    "games": [
      "麻雀格闘倶楽部(ﾊｲｸﾞﾚｰﾄﾞﾓﾃﾞﾙ)"
    ]
  },
  {
    "name": "タイトーステーション福岡天神店",
    "operation_time": "10:00～翌1:00",
    "holiday": "無し",
    "latitude": "33.5896519",
    "longitude": "130.3962521",
    "tel": "092-737-5500",
    "address": "福岡市中央区天神2-6-35サザンクロスビル",
    "access": "西鉄福岡駅北口より徒歩2分",
    "games": [
      "麻雀格闘倶楽部(ﾊｲｸﾞﾚｰﾄﾞﾓﾃﾞﾙ)"
    ]
  },
  {
    "name": "ラウンドワン福岡天神店",
    "operation_time": "",
    "holiday": "",
    "latitude": "33.58960223",
    "longitude": "130.3968402",
    "tel": "092-720-8101",
    "address": "福岡市中央区天神2-6-12",
    "access": "",
    "games": [
      "麻雀格闘倶楽部(ﾊｲｸﾞﾚｰﾄﾞﾓﾃﾞﾙ)"
    ]
  },
  {
    "name": "楽市街道箱崎店2F",
    "operation_time": "10:00～27:00",
    "holiday": "無し",
    "latitude": "33.62410817",
    "longitude": "130.4195897",
    "tel": "092-642-0760",
    "address": "福岡市東区箱崎5-1-8楽市街道箱崎店内2F",
    "access": "",
    "games": [
      "麻雀格闘倶楽部(ﾊｲｸﾞﾚｰﾄﾞﾓﾃﾞﾙ)"
    ]
  },
  {
    "name": "namco博多バスターミナル店",
    "operation_time": "",
    "holiday": "",
    "latitude": "33.591529",
    "longitude": "130.419887",
    "tel": "092-434-3721",
    "address": "福岡市博多区博多駅中央街2-1博多バスターミナル7F",
    "access": "",
    "games": [
      "麻雀格闘倶楽部(ﾊｲｸﾞﾚｰﾄﾞﾓﾃﾞﾙ)"
    ]
  },
  {
    "name": "最後の5$",
    "operation_time": "一部24時間営業",
    "holiday": "無し",
    "latitude": "33.60926671",
    "longitude": "130.4453319",
    "tel": "092-612-8080",
    "address": "糟屋郡粕屋町大字仲原2706",
    "access": "国道3号線博多バイパスを空港口交差点から北へ5分ほど。",
    "games": [
      "麻雀格闘倶楽部(ﾊｲｸﾞﾚｰﾄﾞﾓﾃﾞﾙ)"
    ]
  },
  {
    "name": "ラウンドワン博多半道橋店",
    "operation_time": "",
    "holiday": "",
    "latitude": "33.58394157",
    "longitude": "130.4382666",
    "tel": "092-475-6611",
    "address": "福岡市博多区半道橋2-2-8",
    "access": "",
    "games": [
      "麻雀格闘倶楽部(ﾊｲｸﾞﾚｰﾄﾞﾓﾃﾞﾙ)"
    ]
  },
  {
    "name": "遊道楽 嘉瀬店",
    "operation_time": "11:00～24:00",
    "holiday": "無し",
    "latitude": "33.24215325",
    "longitude": "130.2565663",
    "tel": "0952-40-0952",
    "address": "佐賀市嘉瀬町大字中原2488-1",
    "access": "207号線沿い",
    "games": [
      "麻雀格闘倶楽部(ﾊｲｸﾞﾚｰﾄﾞﾓﾃﾞﾙ)"
    ]
  },
  {
    "name": "ラウンドワン佐賀店",
    "operation_time": "",
    "holiday": "",
    "latitude": "33.27533631",
    "longitude": "130.3015536",
    "tel": "0952-36-7070",
    "address": "佐賀市兵庫北4-2-1",
    "access": "",
    "games": [
      "麻雀格闘倶楽部(ﾊｲｸﾞﾚｰﾄﾞﾓﾃﾞﾙ)"
    ]
  },
  {
    "name": "ラウンドワン大野城店",
    "operation_time": "",
    "holiday": "",
    "latitude": "33.54646948",
    "longitude": "130.4822214",
    "tel": "092-504-7411",
    "address": "大野城市御笠川1-18-16",
    "access": "",
    "games": [
      "麻雀格闘倶楽部(ﾊｲｸﾞﾚｰﾄﾞﾓﾃﾞﾙ)"
    ]
  },
  {
    "name": "namcoモラージュ佐賀店",
    "operation_time": "",
    "holiday": "",
    "latitude": "33.25112099",
    "longitude": "130.3195412",
    "tel": "0952-37-8013",
    "address": "佐賀市巨勢町大字牛島730モラージュ佐賀1F",
    "access": "",
    "games": [
      "麻雀格闘倶楽部(ﾊｲｸﾞﾚｰﾄﾞﾓﾃﾞﾙ)"
    ]
  },
  {
    "name": "楽市楽座諫早店",
    "operation_time": "10:00～24:00",
    "holiday": "無し",
    "latitude": "32.8336036",
    "longitude": "130.0758921",
    "tel": "0957-21-0031",
    "address": "諫早市長野町1086-17",
    "access": "57号線沿い諫早ICより車で10分",
    "games": [
      "麻雀格闘倶楽部(ﾊｲｸﾞﾚｰﾄﾞﾓﾃﾞﾙ)"
    ]
  },
  {
    "name": "コインレストラン秋峰",
    "operation_time": "5:00～翌2:00",
    "holiday": "無し",
    "latitude": "33.47954697",
    "longitude": "130.5531328",
    "tel": "092-926-1062",
    "address": "筑紫野市天山428-1",
    "access": "天山バス停より徒歩5分",
    "games": [
      "麻雀格闘倶楽部(ﾊｲｸﾞﾚｰﾄﾞﾓﾃﾞﾙ)"
    ]
  },
  {
    "name": "ゲームセンタースペース1",
    "operation_time": "10:00～24:00",
    "holiday": "無し",
    "latitude": "33.39260744",
    "longitude": "130.5424058",
    "tel": "0942-73-4777",
    "address": "小郡市小郡1466-3",
    "access": "",
    "games": [
      "麻雀格闘倶楽部(ﾊｲｸﾞﾚｰﾄﾞﾓﾃﾞﾙ)"
    ]
  },
  {
    "name": "ラウンドワン小倉店",
    "operation_time": "",
    "holiday": "",
    "latitude": "33.89742877",
    "longitude": "130.8598475",
    "tel": "093-562-8805",
    "address": "北九州市小倉北区西港町15-65",
    "access": "",
    "games": [
      "麻雀格闘倶楽部(ﾊｲｸﾞﾚｰﾄﾞﾓﾃﾞﾙ)"
    ]
  },
  {
    "name": "国分バッティングセンター",
    "operation_time": "10:00～24:00",
    "holiday": "無し",
    "latitude": "33.29941014",
    "longitude": "130.5328341",
    "tel": "0942-21-0441",
    "address": "久留米市国分町1408",
    "access": "国道3号線「刈原」交差点より競輪場方面へ",
    "games": [
      "麻雀格闘倶楽部(ﾊｲｸﾞﾚｰﾄﾞﾓﾃﾞﾙ)"
    ]
  },
  {
    "name": "アミパラ下関長府店",
    "operation_time": "10:00～24:00",
    "holiday": "無し",
    "latitude": "34.02547781",
    "longitude": "131.0073811",
    "tel": "083-248-5008",
    "address": "下関市長府才川1-42-48",
    "access": "JR長府駅徒歩12分",
    "games": [
      "麻雀格闘倶楽部(ﾊｲｸﾞﾚｰﾄﾞﾓﾃﾞﾙ)"
    ]
  },
  {
    "name": "ゲームセンターみやま",
    "operation_time": "10:00～24:00",
    "holiday": "無し",
    "latitude": "33.663281",
    "longitude": "130.8336246",
    "tel": "0947-32-2304",
    "address": "田川郡香春町大字香春1003",
    "access": "田川バイパス201号線沿い",
    "games": [
      "麻雀格闘倶楽部(ﾊｲｸﾞﾚｰﾄﾞﾓﾃﾞﾙ)"
    ]
  },
  {
    "name": "パスカワールドグリーンランド",
    "operation_time": "10:00～翌3:00",
    "holiday": "無し",
    "latitude": "32.98790587",
    "longitude": "130.4711246",
    "tel": "0968-69-3001",
    "address": "荒尾市本井手1574-54",
    "access": "三井グリーンランドウルトラマンランド横",
    "games": [
      "麻雀格闘倶楽部(ﾊｲｸﾞﾚｰﾄﾞﾓﾃﾞﾙ)"
    ]
  },
  {
    "name": "NO.1西工大前店",
    "operation_time": "10:00～24:00",
    "holiday": "無し",
    "latitude": "33.7546896",
    "longitude": "130.981077",
    "tel": "0930-25-2623",
    "address": "京都郡苅田町与原2-3-2",
    "access": "",
    "games": [
      "麻雀格闘倶楽部(ﾊｲｸﾞﾚｰﾄﾞﾓﾃﾞﾙ)"
    ]
  },
  {
    "name": "サープラ山口あそびタウン",
    "operation_time": "9:00～24:00",
    "holiday": "無し",
    "latitude": "34.1647908",
    "longitude": "131.4517343",
    "tel": "083-933-0307",
    "address": "山口市湯田温泉6-8-3",
    "access": "JR山口線 湯田温泉駅下車 湯田自動車学校方面徒歩10分",
    "games": [
      "麻雀格闘倶楽部(ﾊｲｸﾞﾚｰﾄﾞﾓﾃﾞﾙ)"
    ]
  },
  {
    "name": "ラウンドワン熊本店",
    "operation_time": "",
    "holiday": "",
    "latitude": "32.78499883",
    "longitude": "130.6775647",
    "tel": "096-325-7200",
    "address": "熊本市西区春日7-25-15",
    "access": "",
    "games": [
      "麻雀格闘倶楽部(ﾊｲｸﾞﾚｰﾄﾞﾓﾃﾞﾙ)"
    ]
  },
  {
    "name": "サープラ熊本あそびタウン",
    "operation_time": "",
    "holiday": "",
    "latitude": "32.831007",
    "longitude": "130.771462",
    "tel": "096-288-7562",
    "address": "熊本市東区御領8-4-82",
    "access": "",
    "games": [
      "麻雀格闘倶楽部(ﾊｲｸﾞﾚｰﾄﾞﾓﾃﾞﾙ)"
    ]
  },
  {
    "name": "アミパラ周南久米店",
    "operation_time": "",
    "holiday": "",
    "latitude": "34.03737576",
    "longitude": "131.8441913",
    "tel": "083-436-1234",
    "address": "周南市久米中央5-6-1イオンタウン周南久米内",
    "access": "",
    "games": [
      "麻雀格闘倶楽部(ﾊｲｸﾞﾚｰﾄﾞﾓﾃﾞﾙ)"
    ]
  },
  {
    "name": "ラウンドワン沖縄･宜野湾店",
    "operation_time": "",
    "holiday": "",
    "latitude": "26.27580261",
    "longitude": "127.7310389",
    "tel": "098-870-2110",
    "address": "宜野湾市真志喜3-28-8",
    "access": "",
    "games": [
      "麻雀格闘倶楽部(ﾊｲｸﾞﾚｰﾄﾞﾓﾃﾞﾙ)"
    ]
  },
  {
    "name": "ラウンドワン沖縄･南風原店",
    "operation_time": "",
    "holiday": "",
    "latitude": "26.19509176",
    "longitude": "127.7210653",
    "tel": "098-940-6670",
    "address": "島尻郡南風原町字兼城下茂原552",
    "access": "",
    "games": [
      "麻雀格闘倶楽部(ﾊｲｸﾞﾚｰﾄﾞﾓﾃﾞﾙ)"
    ]
  },
  {
    "name": "ラウンドワン鹿児島宇宿店",
    "operation_time": "",
    "holiday": "",
    "latitude": "31.54388304",
    "longitude": "130.5427759",
    "tel": "099-284-0655",
    "address": "鹿児島市宇宿2-2-2",
    "access": "",
    "games": [
      "麻雀格闘倶楽部(ﾊｲｸﾞﾚｰﾄﾞﾓﾃﾞﾙ)"
    ]
  },
  {
    "name": "サープラ鹿児島あそびタウン",
    "operation_time": "9:00～24:00",
    "holiday": "無し",
    "latitude": "31.57003616",
    "longitude": "130.565823",
    "tel": "099-213-0223",
    "address": "鹿児島市与次郎1-11-1 2F",
    "access": "フレスポジャングルパーク鹿児島店2F",
    "games": [
      "麻雀格闘倶楽部(ﾊｲｸﾞﾚｰﾄﾞﾓﾃﾞﾙ)"
    ]
  },
  {
    "name": "ラウンドワン大分店",
    "operation_time": "",
    "holiday": "",
    "latitude": "33.24885259",
    "longitude": "131.6402543",
    "tel": "097-573-2800",
    "address": "大分市萩原2-13-17",
    "access": "",
    "games": [
      "麻雀格闘倶楽部(ﾊｲｸﾞﾚｰﾄﾞﾓﾃﾞﾙ)"
    ]
  },
  {
    "name": "スペースV1廿日市店",
    "operation_time": "10:00～24:00",
    "holiday": "無し",
    "latitude": "34.35185323",
    "longitude": "132.3340207",
    "tel": "0829-34-3311",
    "address": "廿日市市本町4-23",
    "access": "山陽本線廿日市駅下車2号線沿い東へ徒歩15分",
    "games": [
      "麻雀格闘倶楽部(ﾊｲｸﾞﾚｰﾄﾞﾓﾃﾞﾙ)"
    ]
  },
  {
    "name": "アミパラ松江店",
    "operation_time": "",
    "holiday": "",
    "latitude": "35.463684",
    "longitude": "133.074132",
    "tel": "0852-67-1700",
    "address": "松江市東朝日町203-1",
    "access": "",
    "games": [
      "麻雀格闘倶楽部(ﾊｲｸﾞﾚｰﾄﾞﾓﾃﾞﾙ)"
    ]
  },
  {
    "name": "サープラ国分あそびタウン",
    "operation_time": "9:00～24:00",
    "holiday": "無し",
    "latitude": "31.72203434",
    "longitude": "130.756017",
    "tel": "0995-48-6789",
    "address": "霧島市国分広瀬2-4-1",
    "access": "",
    "games": [
      "麻雀格闘倶楽部(ﾊｲｸﾞﾚｰﾄﾞﾓﾃﾞﾙ)"
    ]
  },
  {
    "name": "GiGOアルパーク北棟",
    "operation_time": "",
    "holiday": "",
    "latitude": "34.37630292",
    "longitude": "132.3950257",
    "tel": "090-9155-1362",
    "address": "広島市西区草津南4-7-1アルパーク北棟2F",
    "access": "",
    "games": [
      "麻雀格闘倶楽部(ﾊｲｸﾞﾚｰﾄﾞﾓﾃﾞﾙ)"
    ]
  },
  {
    "name": "アミパラ広島店",
    "operation_time": "10:00～24:00",
    "holiday": "無し",
    "latitude": "34.39350431",
    "longitude": "132.4360428",
    "tel": "082-297-7135",
    "address": "広島市西区西観音町3-17",
    "access": "平和大通り沿い、西区区役所から東へすぐ",
    "games": [
      "麻雀格闘倶楽部(ﾊｲｸﾞﾚｰﾄﾞﾓﾃﾞﾙ)"
    ]
  },
  {
    "name": "タイトーステーション広島紙屋町店",
    "operation_time": "平日10:00～24:00 土日祝9:00～24:00",
    "holiday": "無し",
    "latitude": "34.394034",
    "longitude": "132.456154",
    "tel": "082-544-3961",
    "address": "広島市中区紙屋町2-2-21",
    "access": "広島電鉄 紙屋町西電停より徒歩2分",
    "games": [
      "麻雀格闘倶楽部(ﾊｲｸﾞﾚｰﾄﾞﾓﾃﾞﾙ)"
    ]
  },
  {
    "name": "ラウンドワン広島店",
    "operation_time": "",
    "holiday": "",
    "latitude": "34.39365895",
    "longitude": "132.4600423",
    "tel": "082-545-8910",
    "address": "広島市中区立町3-11",
    "access": "",
    "games": [
      "麻雀格闘倶楽部(ﾊｲｸﾞﾚｰﾄﾞﾓﾃﾞﾙ)"
    ]
  },
  {
    "name": "タイトーステーション広島本通店",
    "operation_time": "10:00～24:00",
    "holiday": "無し",
    "latitude": "34.3929912",
    "longitude": "132.4599026",
    "tel": "082-541-6345",
    "address": "広島市中区本通3-5せらかぐ本通ビル",
    "access": "広島電鉄・立町駅より徒歩5分",
    "games": [
      "麻雀格闘倶楽部(ﾊｲｸﾞﾚｰﾄﾞﾓﾃﾞﾙ)"
    ]
  },
  {
    "name": "ビバーチャ",
    "operation_time": "",
    "holiday": "",
    "latitude": "34.37953351",
    "longitude": "132.4613726",
    "tel": "082-504-8665",
    "address": "広島市中区南竹屋町10-17",
    "access": "",
    "games": [
      "麻雀格闘倶楽部(ﾊｲｸﾞﾚｰﾄﾞﾓﾃﾞﾙ)"
    ]
  },
  {
    "name": "アミパラがいな店",
    "operation_time": "10:00 ～ 24:00",
    "holiday": "無し",
    "latitude": "35.43797411",
    "longitude": "133.3392651",
    "tel": "0859-39-1800",
    "address": "米子市日ノ出町1-8-13",
    "access": "米子しんまち天満屋から南西へ300m",
    "games": [
      "麻雀格闘倶楽部(ﾊｲｸﾞﾚｰﾄﾞﾓﾃﾞﾙ)"
    ]
  },
  {
    "name": "アミパラここじゃ店",
    "operation_time": "10:00～24:00",
    "holiday": "無し",
    "latitude": "34.40752689",
    "longitude": "132.7155261",
    "tel": "082-424-4747",
    "address": "東広島市西条町下見6-10-19山手電気内",
    "access": "広島大学前の交差点より西へすぐ。山手電気内",
    "games": [
      "麻雀格闘倶楽部(ﾊｲｸﾞﾚｰﾄﾞﾓﾃﾞﾙ)"
    ]
  },
  {
    "name": "GiGO広",
    "operation_time": "10:00～24:00",
    "holiday": "無し",
    "latitude": "34.22860722",
    "longitude": "132.6293589",
    "tel": "070-1459-4743",
    "address": "呉市広中町1-9フタバ図書TSUTAYA広店2F",
    "access": "呉線広駅前下車すぐ185号線沿いフタバ図書内",
    "games": [
      "麻雀格闘倶楽部(ﾊｲｸﾞﾚｰﾄﾞﾓﾃﾞﾙ)"
    ]
  },
  {
    "name": "ラウンドワン宮崎店",
    "operation_time": "",
    "holiday": "",
    "latitude": "31.89458335",
    "longitude": "131.4170876",
    "tel": "0985-63-1210",
    "address": "宮崎市中村東3-4-60",
    "access": "",
    "games": [
      "麻雀格闘倶楽部(ﾊｲｸﾞﾚｰﾄﾞﾓﾃﾞﾙ)"
    ]
  },
  {
    "name": "ラウンドワン松山店",
    "operation_time": "",
    "holiday": "",
    "latitude": "33.8664873",
    "longitude": "132.751593",
    "tel": "089-911-5511",
    "address": "松山市東長戸1-3-10",
    "access": "",
    "games": [
      "麻雀格闘倶楽部(ﾊｲｸﾞﾚｰﾄﾞﾓﾃﾞﾙ)"
    ]
  },
  {
    "name": "タイトーステーション衣山店",
    "operation_time": "10:00～24:00",
    "holiday": "無し",
    "latitude": "33.8540137",
    "longitude": "132.7469102",
    "tel": "089-925-2039",
    "address": "松山市衣山1-188パルティ･フジ衣山内",
    "access": "衣山駅より徒歩6分",
    "games": [
      "麻雀格闘倶楽部(ﾊｲｸﾞﾚｰﾄﾞﾓﾃﾞﾙ)"
    ]
  },
  {
    "name": "バンバン衣山店",
    "operation_time": "10:00～24:00",
    "holiday": "無し",
    "latitude": "33.85248",
    "longitude": "132.7461968",
    "tel": "089-923-4555",
    "address": "松山市衣山1-248-1",
    "access": "",
    "games": [
      "麻雀格闘倶楽部(ﾊｲｸﾞﾚｰﾄﾞﾓﾃﾞﾙ)"
    ]
  },
  {
    "name": "宮西スタジアム",
    "operation_time": "",
    "holiday": "無し",
    "latitude": "33.848559",
    "longitude": "132.7518258",
    "tel": "089-924-5070",
    "address": "松山市宮西2-4-41",
    "access": "JR松山駅より徒歩15分",
    "games": [
      "麻雀格闘倶楽部(ﾊｲｸﾞﾚｰﾄﾞﾓﾃﾞﾙ)"
    ]
  },
  {
    "name": "アミパラ松山店",
    "operation_time": "10:00～24:00",
    "holiday": "無し",
    "latitude": "33.833875",
    "longitude": "132.744981",
    "tel": "089-913-5533",
    "address": "松山市生石町655-1",
    "access": "JR松山駅から南西1km 国道196号線沿い",
    "games": [
      "麻雀格闘倶楽部(ﾊｲｸﾞﾚｰﾄﾞﾓﾃﾞﾙ)"
    ]
  },
  {
    "name": "ビッグバンアミぷり",
    "operation_time": "10:00～翌3:00",
    "holiday": "無し",
    "latitude": "33.83736711",
    "longitude": "132.7699279",
    "tel": "089-915-0554",
    "address": "松山市大街道1-4-10",
    "access": "伊予鉄大街道駅より徒歩10分",
    "games": [
      "麻雀格闘倶楽部(ﾊｲｸﾞﾚｰﾄﾞﾓﾃﾞﾙ)"
    ]
  },
  {
    "name": "タイトーFステーション今治ワールドプラザ店",
    "operation_time": "",
    "holiday": "",
    "latitude": "34.04267054",
    "longitude": "133.0278686",
    "tel": "0898-48-8818",
    "address": "今治市東村1-14-2今治ワールドプラザ内",
    "access": "",
    "games": [
      "麻雀格闘倶楽部(ﾊｲｸﾞﾚｰﾄﾞﾓﾃﾞﾙ)"
    ]
  },
  {
    "name": "あみぱらんど福山店",
    "operation_time": "10:00～24:00",
    "holiday": "無し",
    "latitude": "34.48795195",
    "longitude": "133.3784594",
    "tel": "0849-25-6188",
    "address": "福山市三吉町南2-8-24",
    "access": "国道2号線沿い、福山警察署から東へすぐ",
    "games": [
      "麻雀格闘倶楽部(ﾊｲｸﾞﾚｰﾄﾞﾓﾃﾞﾙ)"
    ]
  },
  {
    "name": "ラウンドワン福山店",
    "operation_time": "",
    "holiday": "",
    "latitude": "34.489155",
    "longitude": "133.3925782",
    "tel": "084-973-9891",
    "address": "福山市明神町1-9-28",
    "access": "",
    "games": [
      "麻雀格闘倶楽部(ﾊｲｸﾞﾚｰﾄﾞﾓﾃﾞﾙ)"
    ]
  },
  {
    "name": "ファンタジスタ",
    "operation_time": "12:00～24:00",
    "holiday": "店舗にお問合わせください",
    "latitude": "34.5583269",
    "longitude": "133.6767549",
    "tel": "086-526-0438",
    "address": "倉敷市新倉敷駅前5-194",
    "access": "JR西日本山陽本線「新倉敷」駅から南西に徒歩10分",
    "games": [
      "麻雀格闘倶楽部(ﾊｲｸﾞﾚｰﾄﾞﾓﾃﾞﾙ)"
    ]
  },
  {
    "name": "ユーズランド倉敷店",
    "operation_time": "10:00～21:00",
    "holiday": "無し",
    "latitude": "34.60290341",
    "longitude": "133.7454258",
    "tel": "086-430-5234",
    "address": "倉敷市水江1イオン倉敷ショッピングセンター2F",
    "access": "イオン倉敷SC2F倉敷駅北口1番乗場よりバスで10分山陽自動車道倉敷ICより約7分",
    "games": [
      "麻雀格闘倶楽部(ﾊｲｸﾞﾚｰﾄﾞﾓﾃﾞﾙ)"
    ]
  },
  {
    "name": "アミパラ倉敷店",
    "operation_time": "10:00～24:00",
    "holiday": "無し",
    "latitude": "34.58364137",
    "longitude": "133.7712207",
    "tel": "086-430-2111",
    "address": "倉敷市西中新田624-1アミパラボウル1F",
    "access": "倉敷市役所前、アミパラボウル1F",
    "games": [
      "麻雀格闘倶楽部(ﾊｲｸﾞﾚｰﾄﾞﾓﾃﾞﾙ)"
    ]
  },
  {
    "name": "ドライブイン古城",
    "operation_time": "7:00～24:00",
    "holiday": "無し",
    "latitude": "34.55139486",
    "longitude": "133.7675318",
    "tel": "086-455-5190",
    "address": "倉敷市福田町福田2111-1",
    "access": "早島ICより車で20分",
    "games": [
      "麻雀格闘倶楽部(ﾊｲｸﾞﾚｰﾄﾞﾓﾃﾞﾙ)"
    ]
  },
  {
    "name": "岡山ヤングボウル",
    "operation_time": "一部24時間",
    "holiday": "無し",
    "latitude": "34.649061",
    "longitude": "133.884534",
    "tel": "086-246-6566",
    "address": "岡山市北区北長瀬表町3-3-20",
    "access": "北長瀬駅より徒歩5分 旧2号線倉敷方面",
    "games": [
      "麻雀格闘倶楽部(ﾊｲｸﾞﾚｰﾄﾞﾓﾃﾞﾙ)"
    ]
  },
  {
    "name": "ラウンドワン岡山妹尾店",
    "operation_time": "",
    "holiday": "",
    "latitude": "34.62318926",
    "longitude": "133.8694608",
    "tel": "086-282-8851",
    "address": "岡山市南区妹尾3413-1",
    "access": "",
    "games": [
      "麻雀格闘倶楽部(ﾊｲｸﾞﾚｰﾄﾞﾓﾃﾞﾙ)"
    ]
  },
  {
    "name": "アミパラテクノランド店",
    "operation_time": "10:00～24:00",
    "holiday": "",
    "latitude": "34.679221",
    "longitude": "133.927419",
    "tel": "086-225-3377",
    "address": "岡山市北区大和町1-7-12",
    "access": "法界院駅から徒歩10分",
    "games": [
      "麻雀格闘倶楽部(ﾊｲｸﾞﾚｰﾄﾞﾓﾃﾞﾙ)"
    ]
  },
  {
    "name": "アミパラ岡山店",
    "operation_time": "10:00～24:00",
    "holiday": "無し",
    "latitude": "34.63615978",
    "longitude": "133.919988",
    "tel": "086-235-3332",
    "address": "岡山市北区青江1-13-8",
    "access": "2号線バイパス・青江交差点から北へすぐ",
    "games": [
      "麻雀格闘倶楽部(ﾊｲｸﾞﾚｰﾄﾞﾓﾃﾞﾙ)"
    ]
  },
  {
    "name": "マックスプラザ善通寺",
    "operation_time": "",
    "holiday": "",
    "latitude": "34.24362494",
    "longitude": "133.7639965",
    "tel": "0877-63-4333",
    "address": "善通寺市中村町1798-2",
    "access": "",
    "games": [
      "麻雀格闘倶楽部(ﾊｲｸﾞﾚｰﾄﾞﾓﾃﾞﾙ)"
    ]
  },
  {
    "name": "アミパラ丸亀店",
    "operation_time": "10:00～24:00",
    "holiday": "無し",
    "latitude": "34.28466398",
    "longitude": "133.8209638",
    "tel": "0877-24-6666",
    "address": "丸亀市飯野町西分字川縁甲584-1ハローズ棟",
    "access": "坂出ICから5分国道11号線沿い ニトリ隣",
    "games": [
      "麻雀格闘倶楽部(ﾊｲｸﾞﾚｰﾄﾞﾓﾃﾞﾙ)"
    ]
  },
  {
    "name": "キャッツアイ新川店",
    "operation_time": "10:00～24:00",
    "holiday": "無し",
    "latitude": "43.10077961",
    "longitude": "141.3102954",
    "tel": "011-766-2828",
    "address": "札幌市北区新川2条7-1-7",
    "access": "札樽自動車道新川IC前",
    "games": [
      "麻雀格闘倶楽部(ﾊｲｸﾞﾚｰﾄﾞﾓﾃﾞﾙ)"
    ]
  },
  {
    "name": "キャッツアイ篠路店",
    "operation_time": "10:00～24:00",
    "holiday": "無し",
    "latitude": "43.14070168",
    "longitude": "141.3571701",
    "tel": "011-776-1500",
    "address": "札幌市北区篠路1条4-6-30",
    "access": "JR篠路駅下車徒歩20分",
    "games": [
      "麻雀格闘倶楽部(ﾊｲｸﾞﾚｰﾄﾞﾓﾃﾞﾙ)"
    ]
  },
  {
    "name": "namco豊岡店",
    "operation_time": "",
    "holiday": "",
    "latitude": "35.554983",
    "longitude": "134.811837",
    "tel": "0796-24-2908",
    "address": "豊岡市中陰町字大工617-3F",
    "access": "",
    "games": [
      "麻雀格闘倶楽部(ﾊｲｸﾞﾚｰﾄﾞﾓﾃﾞﾙ)"
    ]
  },
  {
    "name": "ラウンドワン札幌北21条店",
    "operation_time": "",
    "holiday": "",
    "latitude": "43.08681907",
    "longitude": "141.3495671",
    "tel": "011-733-8801",
    "address": "札幌市東区北21条東1-1-21",
    "access": "",
    "games": [
      "麻雀格闘倶楽部(ﾊｲｸﾞﾚｰﾄﾞﾓﾃﾞﾙ)"
    ]
  },
  {
    "name": "ゲームえの木",
    "operation_time": "10:00～24:00",
    "holiday": "無し",
    "latitude": "33.55611724",
    "longitude": "133.5064153",
    "tel": "088-825-3293",
    "address": "高知市旭町3-104",
    "access": "土佐電旭日町3丁目電停徒歩1分",
    "games": [
      "麻雀格闘倶楽部(ﾊｲｸﾞﾚｰﾄﾞﾓﾃﾞﾙ)"
    ]
  },
  {
    "name": "タイトーステーション札幌狸小路2丁目店",
    "operation_time": "",
    "holiday": "",
    "latitude": "43.05729",
    "longitude": "141.355525",
    "tel": "011-213-1115",
    "address": "札幌市中央区南三条西2-14ニコービル",
    "access": "",
    "games": [
      "麻雀格闘倶楽部(ﾊｲｸﾞﾚｰﾄﾞﾓﾃﾞﾙ)"
    ]
  },
  {
    "name": "ラウンドワン札幌すすきの店",
    "operation_time": "",
    "holiday": "",
    "latitude": "43.05431311",
    "longitude": "141.3540587",
    "tel": "011-520-1022",
    "address": "札幌市中央区南五条西3-6-1札幌東宝公楽ビル",
    "access": "",
    "games": [
      "麻雀格闘倶楽部(ﾊｲｸﾞﾚｰﾄﾞﾓﾃﾞﾙ)"
    ]
  },
  {
    "name": "キャッツアイ東苗穂店",
    "operation_time": "10:00～24:00",
    "holiday": "無し",
    "latitude": "43.09235265",
    "longitude": "141.4070002",
    "tel": "011-789-1500",
    "address": "札幌市東区東苗穂6条2-1-25",
    "access": "札樽自動車道雁来ICから車3分",
    "games": [
      "麻雀格闘倶楽部(ﾊｲｸﾞﾚｰﾄﾞﾓﾃﾞﾙ)"
    ]
  },
  {
    "name": "ラウンドワン高松店",
    "operation_time": "",
    "holiday": "",
    "latitude": "34.33898638",
    "longitude": "134.0669994",
    "tel": "087-812-6115",
    "address": "高松市松島町2-7-43",
    "access": "",
    "games": [
      "麻雀格闘倶楽部(ﾊｲｸﾞﾚｰﾄﾞﾓﾃﾞﾙ)"
    ]
  },
  {
    "name": "ラウンドワン高知店",
    "operation_time": "",
    "holiday": "",
    "latitude": "33.55793713",
    "longitude": "133.554676",
    "tel": "088-804-3070",
    "address": "高知市南宝永町4-12",
    "access": "",
    "games": [
      "麻雀格闘倶楽部(ﾊｲｸﾞﾚｰﾄﾞﾓﾃﾞﾙ)"
    ]
  },
  {
    "name": "アミパラ高松店",
    "operation_time": "",
    "holiday": "",
    "latitude": "34.30701859",
    "longitude": "134.0591822",
    "tel": "087-899-8868",
    "address": "高松市伏石町2168-2",
    "access": "",
    "games": [
      "麻雀格闘倶楽部(ﾊｲｸﾞﾚｰﾄﾞﾓﾃﾞﾙ)"
    ]
  },
  {
    "name": "ラウンドワン札幌白石本通店",
    "operation_time": "",
    "holiday": "",
    "latitude": "43.03673108",
    "longitude": "141.4328227",
    "tel": "011-865-8051",
    "address": "札幌市白石区本通-16-北1-50",
    "access": "",
    "games": [
      "麻雀格闘倶楽部(ﾊｲｸﾞﾚｰﾄﾞﾓﾃﾞﾙ)"
    ]
  },
  {
    "name": "キャッツアイ新札幌店",
    "operation_time": "10:00～24:00",
    "holiday": "無し",
    "latitude": "43.04493545",
    "longitude": "141.4754191",
    "tel": "011-899-1500",
    "address": "札幌市厚別区厚別東5条1-2-10",
    "access": "JR、札幌市営地下鉄新札幌駅下車徒歩20分",
    "games": [
      "麻雀格闘倶楽部(ﾊｲｸﾞﾚｰﾄﾞﾓﾃﾞﾙ)"
    ]
  },
  {
    "name": "キャッツアイ清田店",
    "operation_time": "10:00～24:00",
    "holiday": "無し",
    "latitude": "43.00286736",
    "longitude": "141.4364379",
    "tel": "011-884-2828",
    "address": "札幌市清田区清田1条1-20-1",
    "access": "国道36号線、札幌ドームより車5分",
    "games": [
      "麻雀格闘倶楽部(ﾊｲｸﾞﾚｰﾄﾞﾓﾃﾞﾙ)"
    ]
  },
  {
    "name": "遊ランド春光店",
    "operation_time": "11:00～翌4:00",
    "holiday": "無し",
    "latitude": "43.798192",
    "longitude": "142.373983",
    "tel": "0166-55-3355",
    "address": "旭川市春光1条7-2-25",
    "access": "JR旭川駅車20分",
    "games": [
      "麻雀格闘倶楽部(ﾊｲｸﾞﾚｰﾄﾞﾓﾃﾞﾙ)"
    ]
  },
  {
    "name": "ラウンドワン旭川店",
    "operation_time": "",
    "holiday": "",
    "latitude": "43.78651521",
    "longitude": "142.397308",
    "tel": "0166-49-5071",
    "address": "旭川市永山3条1-4-7",
    "access": "",
    "games": [
      "麻雀格闘倶楽部(ﾊｲｸﾞﾚｰﾄﾞﾓﾃﾞﾙ)"
    ]
  },
  {
    "name": "ゲームアイビス太子店",
    "operation_time": "10:00～24:00",
    "holiday": "無し",
    "latitude": "34.83203126",
    "longitude": "134.6001053",
    "tel": "0792-77-2320",
    "address": "揖保郡太子町太田2148-1",
    "access": "姫路バイパス太子ランプより相生方面へ車で5分",
    "games": [
      "麻雀格闘倶楽部(ﾊｲｸﾞﾚｰﾄﾞﾓﾃﾞﾙ)"
    ]
  },
  {
    "name": "遊ランド西御料店",
    "operation_time": "平日12:00～翌3:00 金・土・祝前日11:00～翌5:00",
    "holiday": "無し",
    "latitude": "43.723884",
    "longitude": "142.368924",
    "tel": "0166-60-5050",
    "address": "旭川市西御料5条2-64-19",
    "access": "旭川環状線1号から美瑛・富良野方面へお進み下さいませ",
    "games": [
      "麻雀格闘倶楽部(ﾊｲｸﾞﾚｰﾄﾞﾓﾃﾞﾙ)"
    ]
  },
  {
    "name": "キャッツアイ恵庭店",
    "operation_time": "10:00～24:00",
    "holiday": "無し",
    "latitude": "42.87586684",
    "longitude": "141.5834741",
    "tel": "0123-32-1500",
    "address": "恵庭市住吉町2-9-1",
    "access": "JR恵庭駅下車徒歩20分",
    "games": [
      "麻雀格闘倶楽部(ﾊｲｸﾞﾚｰﾄﾞﾓﾃﾞﾙ)"
    ]
  },
  {
    "name": "ラウンドワン姫路飾磨店",
    "operation_time": "",
    "holiday": "",
    "latitude": "34.79228629",
    "longitude": "134.6871127",
    "tel": "079-243-1830",
    "address": "姫路市飾磨区中島1-254",
    "access": "",
    "games": [
      "麻雀格闘倶楽部(ﾊｲｸﾞﾚｰﾄﾞﾓﾃﾞﾙ)"
    ]
  },
  {
    "name": "アピナ姫路店",
    "operation_time": "",
    "holiday": "",
    "latitude": "34.82687",
    "longitude": "134.7151",
    "tel": "079-222-8811",
    "address": "姫路市東郷町1454-3姫路リオス2F",
    "access": "",
    "games": [
      "麻雀格闘倶楽部(ﾊｲｸﾞﾚｰﾄﾞﾓﾃﾞﾙ)"
    ]
  },
  {
    "name": "タイトーステーション千歳店",
    "operation_time": "10:00-24:00",
    "holiday": "無し",
    "latitude": "42.833396",
    "longitude": "141.6439587",
    "tel": "0123-42-4195",
    "address": "千歳市北栄2-12-5",
    "access": "千歳駅から札幌方面に徒歩10分",
    "games": [
      "麻雀格闘倶楽部(ﾊｲｸﾞﾚｰﾄﾞﾓﾃﾞﾙ)"
    ]
  },
  {
    "name": "あそVIVA本店",
    "operation_time": "9:00～24:00",
    "holiday": "無し",
    "latitude": "35.28971907",
    "longitude": "135.1348229",
    "tel": "0773-25-5055",
    "address": "福知山市字堀小字上高田2146-1あそVIVA1F",
    "access": "",
    "games": [
      "麻雀格闘倶楽部(ﾊｲｸﾞﾚｰﾄﾞﾓﾃﾞﾙ)"
    ]
  },
  {
    "name": "ラウンドワン函館店",
    "operation_time": "",
    "holiday": "",
    "latitude": "41.82459206",
    "longitude": "140.7173548",
    "tel": "0138-49-8401",
    "address": "函館市西桔梗町848-11",
    "access": "",
    "games": [
      "麻雀格闘倶楽部(ﾊｲｸﾞﾚｰﾄﾞﾓﾃﾞﾙ)"
    ]
  },
  {
    "name": "ホムスタ加古川店",
    "operation_time": "10:00～24:00",
    "holiday": "無し",
    "latitude": "34.74552902",
    "longitude": "134.8355115",
    "tel": "0794-56-2121",
    "address": "加古川市尾上町安田351-1メガコート",
    "access": "",
    "games": [
      "麻雀格闘倶楽部(ﾊｲｸﾞﾚｰﾄﾞﾓﾃﾞﾙ)"
    ]
  },
  {
    "name": "ラウンドワン加古川店",
    "operation_time": "",
    "holiday": "",
    "latitude": "34.74708002",
    "longitude": "134.836935",
    "tel": "0794-29-2513",
    "address": "加古川市尾上町安田字小河原325番6号",
    "access": "",
    "games": [
      "麻雀格闘倶楽部(ﾊｲｸﾞﾚｰﾄﾞﾓﾃﾞﾙ)"
    ]
  },
  {
    "name": "社スポーツレーン",
    "operation_time": "店舗にてご確認ください",
    "holiday": "店舗にてご確認ください",
    "latitude": "34.916112",
    "longitude": "134.961435",
    "tel": "0795-42-4545",
    "address": "加東市社町1189-1",
    "access": "",
    "games": [
      "麻雀格闘倶楽部(ﾊｲｸﾞﾚｰﾄﾞﾓﾃﾞﾙ)"
    ]
  },
  {
    "name": "キャッツアイ苫小牧駅前店",
    "operation_time": "",
    "holiday": "",
    "latitude": "42.64136742",
    "longitude": "141.5979673",
    "tel": "0144-82-8538",
    "address": "苫小牧市木場町1-3",
    "access": "",
    "games": [
      "麻雀格闘倶楽部(ﾊｲｸﾞﾚｰﾄﾞﾓﾃﾞﾙ)"
    ]
  },
  {
    "name": "BIG BANG函館",
    "operation_time": "10:00～24:00",
    "holiday": "",
    "latitude": "41.78900071",
    "longitude": "140.7444508",
    "tel": "0138-54-7100",
    "address": "函館市梁川町9-3",
    "access": "五稜郭公園前駅から徒歩5分",
    "games": [
      "麻雀格闘倶楽部(ﾊｲｸﾞﾚｰﾄﾞﾓﾃﾞﾙ)"
    ]
  },
  {
    "name": "遊ランド富良野店",
    "operation_time": "13:00～翌1:00",
    "holiday": "無し",
    "latitude": "43.34423305",
    "longitude": "142.3786409",
    "tel": "0167-39-0123",
    "address": "富良野市弥生町5-50",
    "access": "富良野駅徒歩10分",
    "games": [
      "麻雀格闘倶楽部(ﾊｲｸﾞﾚｰﾄﾞﾓﾃﾞﾙ)"
    ]
  },
  {
    "name": "トップラン",
    "operation_time": "10:00～24:00",
    "holiday": "無し",
    "latitude": "34.717655",
    "longitude": "134.928895",
    "tel": "078-969-2700",
    "address": "神戸市西区岩岡町古郷1474-1",
    "access": "第二神明道路大久保ICから車で5分",
    "games": [
      "麻雀格闘倶楽部(ﾊｲｸﾞﾚｰﾄﾞﾓﾃﾞﾙ)"
    ]
  },
  {
    "name": "ホムスタ玉津店",
    "operation_time": "10:00～24:00",
    "holiday": "無し",
    "latitude": "34.67922481",
    "longitude": "134.9831791",
    "tel": "078-920-3337",
    "address": "神戸市西区丸塚2-9-18メガパレス2F",
    "access": "第二神名玉津IC下車車5分",
    "games": [
      "麻雀格闘倶楽部(ﾊｲｸﾞﾚｰﾄﾞﾓﾃﾞﾙ)"
    ]
  },
  {
    "name": "ラウンドワン徳島･万代店",
    "operation_time": "",
    "holiday": "",
    "latitude": "34.064828",
    "longitude": "134.564699",
    "tel": "088-612-0025",
    "address": "徳島市万代町4-19-1",
    "access": "",
    "games": [
      "麻雀格闘倶楽部(ﾊｲｸﾞﾚｰﾄﾞﾓﾃﾞﾙ)"
    ]
  },
  {
    "name": "アミパラ垂水店",
    "operation_time": "10:00～24:00",
    "holiday": "無し",
    "latitude": "34.66458",
    "longitude": "135.066782",
    "tel": "078-707-9111",
    "address": "神戸市垂水区名谷町字室山1400-18",
    "access": "",
    "games": [
      "麻雀格闘倶楽部(ﾊｲｸﾞﾚｰﾄﾞﾓﾃﾞﾙ)"
    ]
  },
  {
    "name": "アミューズメント ミール",
    "operation_time": "10:00～24:00",
    "holiday": "無し",
    "latitude": "34.88047252",
    "longitude": "135.2295927",
    "tel": "0795-64-5678",
    "address": "三田市対中町5-21",
    "access": "神戸電鉄三田本町駅下車国道176号線側へ徒歩5分。車の場合はガリバー三田店より176号を三田方面へ、ブックプラザ三田店の向かい。",
    "games": [
      "麻雀格闘倶楽部(ﾊｲｸﾞﾚｰﾄﾞﾓﾃﾞﾙ)"
    ]
  },
  {
    "name": "アルゴ",
    "operation_time": "11:15～23:30",
    "holiday": "無し",
    "latitude": "34.69392181",
    "longitude": "135.1914556",
    "tel": "078-334-3031",
    "address": "神戸市中央区下山手通1-1-8",
    "access": "JR三ノ宮駅下車徒歩5分生田神社前",
    "games": [
      "麻雀格闘倶楽部(ﾊｲｸﾞﾚｰﾄﾞﾓﾃﾞﾙ)"
    ]
  },
  {
    "name": "遊･スペース マジカル",
    "operation_time": "9:00～24:00",
    "holiday": "無し",
    "latitude": "34.69551577",
    "longitude": "135.1950261",
    "tel": "078-414-8844",
    "address": "神戸市中央区琴ノ緒町5-2-3協律三宮センタービル3F",
    "access": "JR三ノ宮駅下車徒歩5分",
    "games": [
      "麻雀格闘倶楽部(ﾊｲｸﾞﾚｰﾄﾞﾓﾃﾞﾙ)"
    ]
  },
  {
    "name": "ラウンドワン三宮駅前店",
    "operation_time": "",
    "holiday": "",
    "latitude": "34.69403073",
    "longitude": "135.1973402",
    "tel": "078-252-7200",
    "address": "神戸市中央区小野柄通り6-1-17",
    "access": "",
    "games": [
      "麻雀格闘倶楽部(ﾊｲｸﾞﾚｰﾄﾞﾓﾃﾞﾙ)"
    ]
  },
  {
    "name": "タイトーFステーションHAT神戸店",
    "operation_time": "10:00～21:30",
    "holiday": "無し",
    "latitude": "34.69960026",
    "longitude": "135.2142557",
    "tel": "078-251-3277",
    "address": "神戸市中央区脇浜海岸通2-2-2ブルメールHAT神戸2F",
    "access": "阪神春日野道駅下車徒歩10分",
    "games": [
      "麻雀格闘倶楽部(ﾊｲｸﾞﾚｰﾄﾞﾓﾃﾞﾙ)"
    ]
  },
  {
    "name": "バイパスレジャーランド加賀店",
    "operation_time": "一部24時間営業",
    "holiday": "無し",
    "latitude": "36.32515503",
    "longitude": "136.4113746",
    "tel": "0761-74-8007",
    "address": "加賀市箱宮町ヲ1-1",
    "access": "国道8号線加賀産業道路終点近く",
    "games": [
      "麻雀格闘倶楽部(ﾊｲｸﾞﾚｰﾄﾞﾓﾃﾞﾙ)"
    ]
  },
  {
    "name": "バイパスレジャーランド藤江新館",
    "operation_time": "",
    "holiday": "",
    "latitude": "36.58375651",
    "longitude": "136.6206642",
    "tel": "076-268-7518",
    "address": "金沢市藤江南2-105",
    "access": "",
    "games": [
      "麻雀格闘倶楽部(ﾊｲｸﾞﾚｰﾄﾞﾓﾃﾞﾙ)"
    ]
  },
  {
    "name": "バイパスレジャーランド藤江本館",
    "operation_time": "一部24時間営業",
    "holiday": "無し",
    "latitude": "36.58397239",
    "longitude": "136.621523",
    "tel": "076-268-3798",
    "address": "金沢市藤江南2-41",
    "access": "国道8号線沿い藤江交差点近く",
    "games": [
      "麻雀格闘倶楽部(ﾊｲｸﾞﾚｰﾄﾞﾓﾃﾞﾙ)"
    ]
  },
  {
    "name": "フクイレジャーランドワイプラザ店",
    "operation_time": "一部24時間営業",
    "holiday": "無し",
    "latitude": "36.08750805",
    "longitude": "136.2494211",
    "tel": "0776-57-0433",
    "address": "福井市新保北1-303ヤスサキワイプラザB棟2F",
    "access": "国道8号線沿い福井市内新保交差点近くワイプラザ内",
    "games": [
      "麻雀格闘倶楽部(ﾊｲｸﾞﾚｰﾄﾞﾓﾃﾞﾙ)"
    ]
  },
  {
    "name": "バイパスレジャーランド御経塚店",
    "operation_time": "",
    "holiday": "",
    "latitude": "36.5479306",
    "longitude": "136.6012358",
    "tel": "076-214-6615",
    "address": "野々市市御経塚4-46",
    "access": "",
    "games": [
      "麻雀格闘倶楽部(ﾊｲｸﾞﾚｰﾄﾞﾓﾃﾞﾙ)"
    ]
  },
  {
    "name": "アプレシオ米松店",
    "operation_time": "一部24時間",
    "holiday": "無し",
    "latitude": "36.07263602",
    "longitude": "136.2430342",
    "tel": "0776-52-2112",
    "address": "福井市長本町610",
    "access": "国道8号線沿い丸山交差点角",
    "games": [
      "麻雀格闘倶楽部(ﾊｲｸﾞﾚｰﾄﾞﾓﾃﾞﾙ)"
    ]
  },
  {
    "name": "福井レジャーランド板垣店",
    "operation_time": "",
    "holiday": "",
    "latitude": "36.042283",
    "longitude": "136.233748",
    "tel": "0776-33-5510",
    "address": "福井市下馬3-112",
    "access": "",
    "games": [
      "麻雀格闘倶楽部(ﾊｲｸﾞﾚｰﾄﾞﾓﾃﾞﾙ)"
    ]
  },
  {
    "name": "リオ西山",
    "operation_time": "13:00～24:00",
    "holiday": "無し",
    "latitude": "35.944112",
    "longitude": "136.171294",
    "tel": "0778-62-2480",
    "address": "鯖江市鳥井町5-1-2",
    "access": "西鯖江駅 徒歩16分",
    "games": [
      "麻雀格闘倶楽部(ﾊｲｸﾞﾚｰﾄﾞﾓﾃﾞﾙ)"
    ]
  },
  {
    "name": "ラウンドワン金沢店",
    "operation_time": "",
    "holiday": "",
    "latitude": "36.54211559",
    "longitude": "136.626054",
    "tel": "076-245-1850",
    "address": "金沢市横川6-120-1",
    "access": "",
    "games": [
      "麻雀格闘倶楽部(ﾊｲｸﾞﾚｰﾄﾞﾓﾃﾞﾙ)"
    ]
  },
  {
    "name": "キッズサーカスシピィ店",
    "operation_time": "",
    "holiday": "",
    "latitude": "35.90367935",
    "longitude": "136.1521765",
    "tel": "0778-42-6880",
    "address": "越前市新町7-8",
    "access": "",
    "games": [
      "麻雀格闘倶楽部(ﾊｲｸﾞﾚｰﾄﾞﾓﾃﾞﾙ)"
    ]
  },
  {
    "name": "タイトーステーション金沢店",
    "operation_time": "10:00～24:00 金・土・祝前日10:00～翌1:00",
    "holiday": "無し",
    "latitude": "36.561336",
    "longitude": "136.652994",
    "tel": "0762-65-5316",
    "address": "金沢市片町2-1-7宇都宮片町ビル1F",
    "access": "香林坊バス停より徒歩1分",
    "games": [
      "麻雀格闘倶楽部(ﾊｲｸﾞﾚｰﾄﾞﾓﾃﾞﾙ)"
    ]
  },
  {
    "name": "ラウンドワン伊丹店",
    "operation_time": "",
    "holiday": "",
    "latitude": "34.77891327",
    "longitude": "135.3932572",
    "tel": "0727-75-4150",
    "address": "伊丹市昆陽7-29",
    "access": "",
    "games": [
      "麻雀格闘倶楽部(ﾊｲｸﾞﾚｰﾄﾞﾓﾃﾞﾙ)"
    ]
  },
  {
    "name": "ジョイランド敦賀店",
    "operation_time": "10:00～24:00",
    "holiday": "無し",
    "latitude": "35.64473762",
    "longitude": "136.0430148",
    "tel": "0770-37-1616",
    "address": "敦賀市木崎40-土三田12USAアリーナ内",
    "access": "",
    "games": [
      "麻雀格闘倶楽部(ﾊｲｸﾞﾚｰﾄﾞﾓﾃﾞﾙ)"
    ]
  },
  {
    "name": "ラウンドワンJR尼崎駅前店",
    "operation_time": "",
    "holiday": "",
    "latitude": "34.73331738",
    "longitude": "135.4329448",
    "tel": "06-6495-4177",
    "address": "尼崎市潮江1-4-5プラストいきいきビル4F",
    "access": "",
    "games": [
      "麻雀格闘倶楽部(ﾊｲｸﾞﾚｰﾄﾞﾓﾃﾞﾙ)"
    ]
  },
  {
    "name": "ラウンドワン豊中店",
    "operation_time": "",
    "holiday": "",
    "latitude": "34.75733488",
    "longitude": "135.465555",
    "tel": "06-6865-2200",
    "address": "豊中市名神口1-1-1",
    "access": "",
    "games": [
      "麻雀格闘倶楽部(ﾊｲｸﾞﾚｰﾄﾞﾓﾃﾞﾙ)"
    ]
  },
  {
    "name": "ユーズランド和歌山店",
    "operation_time": "10:00～21:00",
    "holiday": "",
    "latitude": "34.275743",
    "longitude": "135.149066",
    "tel": "073-452-1668",
    "address": "和歌山市ふじと台23イオンモール和歌山2F",
    "access": "",
    "games": [
      "麻雀格闘倶楽部(ﾊｲｸﾞﾚｰﾄﾞﾓﾃﾞﾙ)"
    ]
  },
  {
    "name": "パルケ上賀茂店",
    "operation_time": "平日12:00～24:00 土11:00～24:00 日12:00～24:00",
    "holiday": "",
    "latitude": "35.06680723",
    "longitude": "135.7462635",
    "tel": "075-711-4622",
    "address": "京都市北区上賀茂西河原町1-1",
    "access": "",
    "games": [
      "麻雀格闘倶楽部(ﾊｲｸﾞﾚｰﾄﾞﾓﾃﾞﾙ)"
    ]
  },
  {
    "name": "ゲームSPOT207",
    "operation_time": "7:00～24:00",
    "holiday": "無し",
    "latitude": "36.73235328",
    "longitude": "137.0023356",
    "tel": "0766-26-2070",
    "address": "高岡市鐘紡町1655-3",
    "access": "JR高岡駅から車で15分",
    "games": [
      "麻雀格闘倶楽部(ﾊｲｸﾞﾚｰﾄﾞﾓﾃﾞﾙ)"
    ]
  },
  {
    "name": "あそVIVA阪急茨木店",
    "operation_time": "",
    "holiday": "",
    "latitude": "34.817929",
    "longitude": "135.576325",
    "tel": "072-631-6606",
    "address": "茨木市永代町6-2スポーツプラザ茨木2F",
    "access": "",
    "games": [
      "麻雀格闘倶楽部(ﾊｲｸﾞﾚｰﾄﾞﾓﾃﾞﾙ)"
    ]
  },
  {
    "name": "ぞうさん",
    "operation_time": "",
    "holiday": "",
    "latitude": "36.69943034",
    "longitude": "136.985008",
    "tel": "0766-63-6154",
    "address": "高岡市戸出町野瀬689",
    "access": "",
    "games": [
      "麻雀格闘倶楽部(ﾊｲｸﾞﾚｰﾄﾞﾓﾃﾞﾙ)"
    ]
  },
  {
    "name": "ラウンドワン東淀川店",
    "operation_time": "",
    "holiday": "",
    "latitude": "34.74289355",
    "longitude": "135.5255278",
    "tel": "06-6160-2221",
    "address": "大阪市東淀川区菅原7-14-29",
    "access": "",
    "games": [
      "麻雀格闘倶楽部(ﾊｲｸﾞﾚｰﾄﾞﾓﾃﾞﾙ)"
    ]
  },
  {
    "name": "ラウンドワン梅田店",
    "operation_time": "",
    "holiday": "",
    "latitude": "34.70337769",
    "longitude": "135.5009178",
    "tel": "06-6312-6800",
    "address": "大阪市北区小松原町4-16",
    "access": "",
    "games": [
      "麻雀格闘倶楽部(ﾊｲｸﾞﾚｰﾄﾞﾓﾃﾞﾙ)"
    ]
  },
  {
    "name": "アミューズメントCUE京都円町店",
    "operation_time": "",
    "holiday": "",
    "latitude": "35.01880055",
    "longitude": "135.7309726",
    "tel": "075-462-9316",
    "address": "京都市中京区西ノ京西円町40",
    "access": "",
    "games": [
      "麻雀格闘倶楽部(ﾊｲｸﾞﾚｰﾄﾞﾓﾃﾞﾙ)"
    ]
  },
  {
    "name": "ユーズランド高岡店",
    "operation_time": "10:00～21:00",
    "holiday": "無し",
    "latitude": "36.72378877",
    "longitude": "137.016935",
    "tel": "0766-27-2411",
    "address": "高岡市下伏間江383イオンモール高岡2F",
    "access": "イオン高岡SC2FJR高岡駅よりバスで10分能越自動車道高岡ICより東へ約3km",
    "games": [
      "麻雀格闘倶楽部(ﾊｲｸﾞﾚｰﾄﾞﾓﾃﾞﾙ)"
    ]
  },
  {
    "name": "サービスエリアイン高岡店",
    "operation_time": "5:00～24:00",
    "holiday": "無し",
    "latitude": "36.76070699",
    "longitude": "137.0468366",
    "tel": "0766-28-1028",
    "address": "高岡市石瀬下石瀬857-1",
    "access": "国道8号線高新大橋超えてすぐ。",
    "games": [
      "麻雀格闘倶楽部(ﾊｲｸﾞﾚｰﾄﾞﾓﾃﾞﾙ)"
    ]
  },
  {
    "name": "AXE",
    "operation_time": "10:15～23:00",
    "holiday": "無し",
    "latitude": "34.66806273",
    "longitude": "135.5029865",
    "tel": "090-8726-4577",
    "address": "大阪市中央区難波1-1-3",
    "access": "地下鉄御堂筋線難波駅下車徒歩5分",
    "games": [
      "麻雀格闘倶楽部(ﾊｲｸﾞﾚｰﾄﾞﾓﾃﾞﾙ)"
    ]
  },
  {
    "name": "ラウンドワン千日前店",
    "operation_time": "",
    "holiday": "",
    "latitude": "34.667424",
    "longitude": "135.5026714",
    "tel": "06-4708-2600",
    "address": "大阪市中央区難波1-3-1",
    "access": "",
    "games": [
      "麻雀格闘倶楽部(ﾊｲｸﾞﾚｰﾄﾞﾓﾃﾞﾙ)"
    ]
  },
  {
    "name": "難波ヒルズ",
    "operation_time": "10:15～23:00",
    "holiday": "無し",
    "latitude": "34.66626102",
    "longitude": "135.5018617",
    "tel": "090-3133-7638",
    "address": "大阪市中央区難波3-2-34",
    "access": "地下鉄御堂筋線難波駅下車徒歩5分",
    "games": [
      "麻雀格闘倶楽部(ﾊｲｸﾞﾚｰﾄﾞﾓﾃﾞﾙ)"
    ]
  },
  {
    "name": "メディアカフェポパイなんば本店",
    "operation_time": "",
    "holiday": "",
    "latitude": "34.663076",
    "longitude": "135.503502",
    "tel": "06-6635-0700",
    "address": "大阪市浪速区難波中2-2-18",
    "access": "",
    "games": [
      "麻雀格闘倶楽部(ﾊｲｸﾞﾚｰﾄﾞﾓﾃﾞﾙ)"
    ]
  },
  {
    "name": "namcoマグスミノエ店",
    "operation_time": "",
    "holiday": "",
    "latitude": "34.6100368",
    "longitude": "135.4682536",
    "tel": "06-6682-6856",
    "address": "大阪市住之江区泉1-1-82マグスミノエ1F",
    "access": "",
    "games": [
      "麻雀格闘倶楽部(ﾊｲｸﾞﾚｰﾄﾞﾓﾃﾞﾙ)"
    ]
  },
  {
    "name": "タイトーステーション大阪日本橋店",
    "operation_time": "10:00～24:00",
    "holiday": "無し",
    "latitude": "34.660362",
    "longitude": "135.506113",
    "tel": "06-6630-7270",
    "address": "大阪市浪速区日本橋4-9-14",
    "access": "地下鉄なんば駅・日本橋駅・恵美須町駅から約7分ほど。",
    "games": [
      "麻雀格闘倶楽部(ﾊｲｸﾞﾚｰﾄﾞﾓﾃﾞﾙ)"
    ]
  },
  {
    "name": "ラウンドワン高槻店",
    "operation_time": "",
    "holiday": "",
    "latitude": "34.83266921",
    "longitude": "135.6301782",
    "tel": "072-672-9933",
    "address": "高槻市辻子3-6-4",
    "access": "",
    "games": [
      "麻雀格闘倶楽部(ﾊｲｸﾞﾚｰﾄﾞﾓﾃﾞﾙ)"
    ]
  },
  {
    "name": "ラウンドワン和歌山店",
    "operation_time": "",
    "holiday": "",
    "latitude": "34.19849168",
    "longitude": "135.1859428",
    "tel": "073-421-8210",
    "address": "和歌山市小雑賀739-3",
    "access": "",
    "games": [
      "麻雀格闘倶楽部(ﾊｲｸﾞﾚｰﾄﾞﾓﾃﾞﾙ)"
    ]
  },
  {
    "name": "ラウンドワン京都河原町店",
    "operation_time": "",
    "holiday": "",
    "latitude": "35.00699573",
    "longitude": "135.7685149",
    "tel": "075-213-8400",
    "address": "京都市中京区河原町通り三条下ル山崎町250",
    "access": "",
    "games": [
      "麻雀格闘倶楽部(ﾊｲｸﾞﾚｰﾄﾞﾓﾃﾞﾙ)"
    ]
  },
  {
    "name": "ラウンドワン守口店",
    "operation_time": "",
    "holiday": "",
    "latitude": "34.7562488",
    "longitude": "135.5886793",
    "tel": "06-6907-9270",
    "address": "守口市佐太東町2-6-14ジャガーグリーン2F",
    "access": "",
    "games": [
      "麻雀格闘倶楽部(ﾊｲｸﾞﾚｰﾄﾞﾓﾃﾞﾙ)"
    ]
  },
  {
    "name": "泉大津フタバボウル",
    "operation_time": "10:00～翌3:00",
    "holiday": "無し",
    "latitude": "34.5109011",
    "longitude": "135.4157314",
    "tel": "0725-22-8128",
    "address": "泉大津市松之浜町1-2-53",
    "access": "南海本線松ノ浜駅下車徒歩5分",
    "games": [
      "麻雀格闘倶楽部(ﾊｲｸﾞﾚｰﾄﾞﾓﾃﾞﾙ)"
    ]
  },
  {
    "name": "ラウンドワン堺駅前店",
    "operation_time": "",
    "holiday": "",
    "latitude": "34.58340412",
    "longitude": "135.468425",
    "tel": "072-222-0120",
    "address": "堺市堺区戎島町4-44-3",
    "access": "",
    "games": [
      "麻雀格闘倶楽部(ﾊｲｸﾞﾚｰﾄﾞﾓﾃﾞﾙ)"
    ]
  },
  {
    "name": "ラウンドワン岸和田店",
    "operation_time": "",
    "holiday": "",
    "latitude": "34.45649962",
    "longitude": "135.3885278",
    "tel": "072-429-1100",
    "address": "岸和田市八阪町2-11-1",
    "access": "",
    "games": [
      "麻雀格闘倶楽部(ﾊｲｸﾞﾚｰﾄﾞﾓﾃﾞﾙ)"
    ]
  },
  {
    "name": "ラウンドワン城東放出店",
    "operation_time": "",
    "holiday": "",
    "latitude": "34.69651235",
    "longitude": "135.559648",
    "tel": "06-6936-0100",
    "address": "大阪市城東区今福南3-4-38",
    "access": "",
    "games": [
      "麻雀格闘倶楽部(ﾊｲｸﾞﾚｰﾄﾞﾓﾃﾞﾙ)"
    ]
  },
  {
    "name": "ラウンドワン京都伏見店",
    "operation_time": "",
    "holiday": "",
    "latitude": "34.93599659",
    "longitude": "135.746198",
    "tel": "075-622-9911",
    "address": "京都市伏見区下鳥羽平塚町131",
    "access": "",
    "games": [
      "麻雀格闘倶楽部(ﾊｲｸﾞﾚｰﾄﾞﾓﾃﾞﾙ)"
    ]
  },
  {
    "name": "クァトロブーム小杉",
    "operation_time": "",
    "holiday": "",
    "latitude": "36.7205",
    "longitude": "137.092912",
    "tel": "0766-57-8219",
    "address": "射水市三ケ2602",
    "access": "",
    "games": [
      "麻雀格闘倶楽部(ﾊｲｸﾞﾚｰﾄﾞﾓﾃﾞﾙ)"
    ]
  },
  {
    "name": "アミューズメントスロット市場",
    "operation_time": "",
    "holiday": "",
    "latitude": "36.72585306",
    "longitude": "137.1324104",
    "tel": "0766-50-9990",
    "address": "射水市小杉白石937-1",
    "access": "",
    "games": [
      "麻雀格闘倶楽部(ﾊｲｸﾞﾚｰﾄﾞﾓﾃﾞﾙ)"
    ]
  },
  {
    "name": "トップラン東大阪",
    "operation_time": "",
    "holiday": "",
    "latitude": "34.69383",
    "longitude": "135.61757",
    "tel": "072-970-6923",
    "address": "東大阪市東鴻池町1-6-30イオンタウン東大阪2F",
    "access": "",
    "games": [
      "麻雀格闘倶楽部(ﾊｲｸﾞﾚｰﾄﾞﾓﾃﾞﾙ)"
    ]
  },
  {
    "name": "ラウンドワン堺中央環状店",
    "operation_time": "",
    "holiday": "",
    "latitude": "34.55707895",
    "longitude": "135.5362412",
    "tel": "072-253-9559",
    "address": "堺市東区石原町2-241",
    "access": "",
    "games": [
      "麻雀格闘倶楽部(ﾊｲｸﾞﾚｰﾄﾞﾓﾃﾞﾙ)"
    ]
  },
  {
    "name": "ラウンドワン東大阪店",
    "operation_time": "",
    "holiday": "",
    "latitude": "34.6531932",
    "longitude": "135.60637",
    "tel": "06-6224-1700",
    "address": "東大阪市若江南町1-2-12",
    "access": "",
    "games": [
      "麻雀格闘倶楽部(ﾊｲｸﾞﾚｰﾄﾞﾓﾃﾞﾙ)"
    ]
  },
  {
    "name": "ラウンドワン浜大津アーカス店",
    "operation_time": "",
    "holiday": "",
    "latitude": "35.010557",
    "longitude": "135.866804",
    "tel": "077-526-8722",
    "address": "大津市浜町2-1浜大津アーカス4F",
    "access": "",
    "games": [
      "麻雀格闘倶楽部(ﾊｲｸﾞﾚｰﾄﾞﾓﾃﾞﾙ)"
    ]
  },
  {
    "name": "トヤマレジャーランド呉羽店",
    "operation_time": "一部24時間営業",
    "holiday": "無し",
    "latitude": "36.71545083",
    "longitude": "137.1579046",
    "tel": "076-434-5336",
    "address": "富山市高木字貝塚2054",
    "access": "県道44号線沿い呉羽本町交差点を富山方面方向に車で3分",
    "games": [
      "麻雀格闘倶楽部(ﾊｲｸﾞﾚｰﾄﾞﾓﾃﾞﾙ)"
    ]
  },
  {
    "name": "D-ポケット青森中央店",
    "operation_time": "7:00～24:00",
    "holiday": "無し",
    "latitude": "40.8063772",
    "longitude": "140.7405498",
    "tel": "017-729-3622",
    "address": "青森市大野若宮182-1",
    "access": "",
    "games": [
      "麻雀格闘倶楽部(ﾊｲｸﾞﾚｰﾄﾞﾓﾃﾞﾙ)"
    ]
  },
  {
    "name": "滋賀レジャーランド大津店",
    "operation_time": "",
    "holiday": "",
    "latitude": "35.003875",
    "longitude": "135.883431",
    "tel": "077-548-7851",
    "address": "大津市におの浜3-1-43",
    "access": "",
    "games": [
      "麻雀格闘倶楽部(ﾊｲｸﾞﾚｰﾄﾞﾓﾃﾞﾙ)"
    ]
  },
  {
    "name": "タイトーステーション青森アムゼ店",
    "operation_time": "10:00～22:00",
    "holiday": "無し",
    "latitude": "40.80791373",
    "longitude": "140.7533047",
    "tel": "017-721-1713",
    "address": "青森市緑3-9-2アムゼ内",
    "access": "JR青森駅より南東へ車で15分",
    "games": [
      "麻雀格闘倶楽部(ﾊｲｸﾞﾚｰﾄﾞﾓﾃﾞﾙ)"
    ]
  },
  {
    "name": "ラウンドワン青森店",
    "operation_time": "",
    "holiday": "",
    "latitude": "40.79867718",
    "longitude": "140.7483213",
    "tel": "017-762-3591",
    "address": "青森市浜田3-1-1",
    "access": "",
    "games": [
      "麻雀格闘倶楽部(ﾊｲｸﾞﾚｰﾄﾞﾓﾃﾞﾙ)"
    ]
  },
  {
    "name": "ゲームフェイス八尾",
    "operation_time": "平日10:00～24:00 土日祝9:00～24:00",
    "holiday": "無し",
    "latitude": "34.6039863",
    "longitude": "135.6123324",
    "tel": "0729-48-2306",
    "address": "八尾市天王寺屋2-68",
    "access": "JR大和路線「志紀駅」下車徒歩7分",
    "games": [
      "麻雀格闘倶楽部(ﾊｲｸﾞﾚｰﾄﾞﾓﾃﾞﾙ)"
    ]
  },
  {
    "name": "@time草津店",
    "operation_time": "一部24時間",
    "holiday": "無し",
    "latitude": "35.01929882",
    "longitude": "135.9421004",
    "tel": "077-561-1177",
    "address": "草津市木川町68",
    "access": "滋賀県道42号線(草津守山線)、木川町交差点そば",
    "games": [
      "麻雀格闘倶楽部(ﾊｲｸﾞﾚｰﾄﾞﾓﾃﾞﾙ)"
    ]
  },
  {
    "name": "ネットアクション守山",
    "operation_time": "一部24時間営業",
    "holiday": "無し",
    "latitude": "35.0693009",
    "longitude": "135.9953524",
    "tel": "077-583-5122",
    "address": "守山市播磨田町306",
    "access": "JR守山駅からバス10分",
    "games": [
      "麻雀格闘倶楽部(ﾊｲｸﾞﾚｰﾄﾞﾓﾃﾞﾙ)"
    ]
  },
  {
    "name": "エースレーン草津",
    "operation_time": "10:00～24:00",
    "holiday": "無し",
    "latitude": "34.99965692",
    "longitude": "135.9463199",
    "tel": "077-569-0472",
    "address": "草津市野路3-1-11",
    "access": "JR東海道線南草津駅より徒歩10分。国道1号線南田山交差点そば",
    "games": [
      "麻雀格闘倶楽部(ﾊｲｸﾞﾚｰﾄﾞﾓﾃﾞﾙ)"
    ]
  },
  {
    "name": "JOYJOY南草津店",
    "operation_time": "月～木11:00～翌6:00 金・祝前11:00～ 土・特日24時間営業 日・祝日～翌6:00",
    "holiday": "無し",
    "latitude": "35.007212",
    "longitude": "135.954238",
    "tel": "077-567-9666",
    "address": "草津市矢倉2-7-18",
    "access": "",
    "games": [
      "麻雀格闘倶楽部(ﾊｲｸﾞﾚｰﾄﾞﾓﾃﾞﾙ)"
    ]
  },
  {
    "name": "富山レジャーランド掛尾店",
    "operation_time": "",
    "holiday": "",
    "latitude": "36.66605175",
    "longitude": "137.208892",
    "tel": "076-413-2606",
    "address": "富山市掛尾町360-1",
    "access": "",
    "games": [
      "麻雀格闘倶楽部(ﾊｲｸﾞﾚｰﾄﾞﾓﾃﾞﾙ)"
    ]
  },
  {
    "name": "@time守山店",
    "operation_time": "一部24時間",
    "holiday": "無し",
    "latitude": "35.052326",
    "longitude": "135.996929",
    "tel": "077-514-2201",
    "address": "守山市梅田町28-1",
    "access": "",
    "games": [
      "麻雀格闘倶楽部(ﾊｲｸﾞﾚｰﾄﾞﾓﾃﾞﾙ)"
    ]
  },
  {
    "name": "アプレシオ天正寺店",
    "operation_time": "一部24時間",
    "holiday": "無し",
    "latitude": "36.68025569",
    "longitude": "137.2512074",
    "tel": "076-420-7322",
    "address": "富山市天正寺68",
    "access": "県道56号天正寺交差点付近",
    "games": [
      "麻雀格闘倶楽部(ﾊｲｸﾞﾚｰﾄﾞﾓﾃﾞﾙ)"
    ]
  },
  {
    "name": "@time長浜バイパス店",
    "operation_time": "",
    "holiday": "",
    "latitude": "35.37205348",
    "longitude": "136.2896019",
    "tel": "0749-68-2201",
    "address": "長浜市大辰巳町49",
    "access": "",
    "games": [
      "麻雀格闘倶楽部(ﾊｲｸﾞﾚｰﾄﾞﾓﾃﾞﾙ)"
    ]
  },
  {
    "name": "ゲームスポットアップル",
    "operation_time": "",
    "holiday": "",
    "latitude": "36.8255737",
    "longitude": "137.4142933",
    "tel": "0765-24-7740",
    "address": "魚津市吉島2-407-1",
    "access": "",
    "games": [
      "麻雀格闘倶楽部(ﾊｲｸﾞﾚｰﾄﾞﾓﾃﾞﾙ)"
    ]
  },
  {
    "name": "プレイランド黒部",
    "operation_time": "5:00～24:00",
    "holiday": "無し",
    "latitude": "36.88891002",
    "longitude": "137.4646533",
    "tel": "0765-52-5141",
    "address": "黒部市沓掛645",
    "access": "国道8号線沿い黒部IC入口交差点近く",
    "games": [
      "麻雀格闘倶楽部(ﾊｲｸﾞﾚｰﾄﾞﾓﾃﾞﾙ)"
    ]
  },
  {
    "name": "ラウンドワン奈良ミナーラ店",
    "operation_time": "",
    "holiday": "",
    "latitude": "34.685231",
    "longitude": "135.802224",
    "tel": "0742-32-3900",
    "address": "奈良市二条大路南1-3-1ミ･ナーラ5F",
    "access": "",
    "games": [
      "麻雀格闘倶楽部(ﾊｲｸﾞﾚｰﾄﾞﾓﾃﾞﾙ)"
    ]
  },
  {
    "name": "スロットギャラリー",
    "operation_time": "",
    "holiday": "",
    "latitude": "36.94616",
    "longitude": "137.547902",
    "tel": "0765-32-3337",
    "address": "下新川郡朝日町月山854-1",
    "access": "",
    "games": [
      "麻雀格闘倶楽部(ﾊｲｸﾞﾚｰﾄﾞﾓﾃﾞﾙ)"
    ]
  },
  {
    "name": "@time彦根店",
    "operation_time": "一部24時間",
    "holiday": "無し",
    "latitude": "35.25164502",
    "longitude": "136.2643391",
    "tel": "0749-21-4100",
    "address": "彦根市東沼波町111-1",
    "access": "近江鉄道本線「彦根口」駅より東南東へ約700m。",
    "games": [
      "麻雀格闘倶楽部(ﾊｲｸﾞﾚｰﾄﾞﾓﾃﾞﾙ)"
    ]
  },
  {
    "name": "アミューズメントCUE大和高田",
    "operation_time": "10:00～24:00",
    "holiday": "無し",
    "latitude": "34.49978101",
    "longitude": "135.7354379",
    "tel": "0745-25-3335",
    "address": "大和高田市東中2-11-16",
    "access": "国道166号線東宝交差点そば",
    "games": [
      "麻雀格闘倶楽部(ﾊｲｸﾞﾚｰﾄﾞﾓﾃﾞﾙ)"
    ]
  },
  {
    "name": "JOYJOY東近江八日市店",
    "operation_time": "月～木11:00～翌6:00 金・祝前11:00～ 土・特日24時間営業 日・祝日～翌6:00",
    "holiday": "無し",
    "latitude": "35.105566",
    "longitude": "136.212067",
    "tel": "059-357-0008",
    "address": "東近江市札の辻1-4-21",
    "access": "",
    "games": [
      "麻雀格闘倶楽部(ﾊｲｸﾞﾚｰﾄﾞﾓﾃﾞﾙ)"
    ]
  },
  {
    "name": "アミパラ橿原店",
    "operation_time": "",
    "holiday": "",
    "latitude": "34.52935645",
    "longitude": "135.7966131",
    "tel": "0744-25-0550",
    "address": "橿原市十市町1222-1ツインゲート橿原1F",
    "access": "",
    "games": [
      "麻雀格闘倶楽部(ﾊｲｸﾞﾚｰﾄﾞﾓﾃﾞﾙ)"
    ]
  },
  {
    "name": "ラウンドワン秋田店",
    "operation_time": "",
    "holiday": "",
    "latitude": "39.70235247",
    "longitude": "140.1092394",
    "tel": "018-896-6711",
    "address": "秋田市卸町1-1-2",
    "access": "",
    "games": [
      "麻雀格闘倶楽部(ﾊｲｸﾞﾚｰﾄﾞﾓﾃﾞﾙ)"
    ]
  },
  {
    "name": "ロックンボウル",
    "operation_time": "10:00～翌5:00",
    "holiday": "無し",
    "latitude": "39.71725634",
    "longitude": "140.1434496",
    "tel": "018-831-6900",
    "address": "秋田市広面字長沼301",
    "access": "",
    "games": [
      "麻雀格闘倶楽部(ﾊｲｸﾞﾚｰﾄﾞﾓﾃﾞﾙ)"
    ]
  },
  {
    "name": "アミューズメントスペースコミ丸アリババ大垣店",
    "operation_time": "10:00～24:00",
    "holiday": "無し",
    "latitude": "35.38404596",
    "longitude": "136.5956139",
    "tel": "050-3575-0530",
    "address": "大垣市池尻町940-1",
    "access": "関が原バイパス沿い",
    "games": [
      "麻雀格闘倶楽部(ﾊｲｸﾞﾚｰﾄﾞﾓﾃﾞﾙ)"
    ]
  },
  {
    "name": "ラウンドワンモレラ岐阜店",
    "operation_time": "",
    "holiday": "",
    "latitude": "35.455121",
    "longitude": "136.672955",
    "tel": "058-323-6600",
    "address": "本巣市三橋1100",
    "access": "",
    "games": [
      "麻雀格闘倶楽部(ﾊｲｸﾞﾚｰﾄﾞﾓﾃﾞﾙ)"
    ]
  },
  {
    "name": "大垣メトロポリス",
    "operation_time": "10:00～24:00",
    "holiday": "無し",
    "latitude": "35.36694278",
    "longitude": "136.6291725",
    "tel": "0584-75-5734",
    "address": "大垣市三塚町字西沼523-1",
    "access": "",
    "games": [
      "麻雀格闘倶楽部(ﾊｲｸﾞﾚｰﾄﾞﾓﾃﾞﾙ)"
    ]
  },
  {
    "name": "JOYJOY名張夏見店",
    "operation_time": "",
    "holiday": "",
    "latitude": "34.62157184",
    "longitude": "136.1045554",
    "tel": "0595-64-5556",
    "address": "名張市希央台3番町75",
    "access": "",
    "games": [
      "麻雀格闘倶楽部(ﾊｲｸﾞﾚｰﾄﾞﾓﾃﾞﾙ)"
    ]
  },
  {
    "name": "岐阜レジャーランド穂積店",
    "operation_time": "7:00～24:00",
    "holiday": "無し",
    "latitude": "35.38432479",
    "longitude": "136.6846653",
    "tel": "058-326-1133",
    "address": "瑞穂市稲里630",
    "access": "国道21号線沿い瑞穂市野田新田交差点近く",
    "games": [
      "麻雀格闘倶楽部(ﾊｲｸﾞﾚｰﾄﾞﾓﾃﾞﾙ)"
    ]
  },
  {
    "name": "亜熱帯岐阜県庁前",
    "operation_time": "一部24時間営業",
    "holiday": "無し",
    "latitude": "35.3936692",
    "longitude": "136.7148093",
    "tel": "0582-76-2666",
    "address": "岐阜市藪田中2-13-4",
    "access": "",
    "games": [
      "麻雀格闘倶楽部(ﾊｲｸﾞﾚｰﾄﾞﾓﾃﾞﾙ)"
    ]
  },
  {
    "name": "Asobinoすてぇじ輪之内店",
    "operation_time": "",
    "holiday": "",
    "latitude": "35.29341233",
    "longitude": "136.6497617",
    "tel": "0584-69-4690",
    "address": "安八郡輪之内町四郷新開229イオンタウン輪之内内",
    "access": "",
    "games": [
      "麻雀格闘倶楽部(ﾊｲｸﾞﾚｰﾄﾞﾓﾃﾞﾙ)"
    ]
  },
  {
    "name": "イーグルボウル",
    "operation_time": "",
    "holiday": "",
    "latitude": "40.60882",
    "longitude": "141.22112",
    "tel": "0176-25-1233",
    "address": "十和田市東四番町3-39",
    "access": "",
    "games": [
      "麻雀格闘倶楽部(ﾊｲｸﾞﾚｰﾄﾞﾓﾃﾞﾙ)"
    ]
  },
  {
    "name": "A.Cグランド",
    "operation_time": "9:00～24:00",
    "holiday": "無し",
    "latitude": "35.38308553",
    "longitude": "136.7461998",
    "tel": "058-275-0351",
    "address": "岐阜市茜部大川1-77",
    "access": "名鉄新岐阜駅15分",
    "games": [
      "麻雀格闘倶楽部(ﾊｲｸﾞﾚｰﾄﾞﾓﾃﾞﾙ)"
    ]
  },
  {
    "name": "JOYJOY岐阜茜部店",
    "operation_time": "",
    "holiday": "",
    "latitude": "35.38781289",
    "longitude": "136.7531953",
    "tel": "058-275-2223",
    "address": "岐阜市茜部菱野1-35",
    "access": "",
    "games": [
      "麻雀格闘倶楽部(ﾊｲｸﾞﾚｰﾄﾞﾓﾃﾞﾙ)"
    ]
  },
  {
    "name": "JOYJOY尾西郷東店",
    "operation_time": "",
    "holiday": "",
    "latitude": "35.30995929",
    "longitude": "136.7501915",
    "tel": "0586-61-1555",
    "address": "一宮市小信中島郷東45-1",
    "access": "",
    "games": [
      "麻雀格闘倶楽部(ﾊｲｸﾞﾚｰﾄﾞﾓﾃﾞﾙ)"
    ]
  },
  {
    "name": "亜熱帯各務原IC店",
    "operation_time": "一部24時間営業",
    "holiday": "無し",
    "latitude": "35.391928",
    "longitude": "136.834449",
    "tel": "0583-83-4443",
    "address": "各務原市三井町2-61",
    "access": "イオン各務原店を東に車で3分",
    "games": [
      "麻雀格闘倶楽部(ﾊｲｸﾞﾚｰﾄﾞﾓﾃﾞﾙ)"
    ]
  },
  {
    "name": "上越レジャーランボウル",
    "operation_time": "一部24時間営業",
    "holiday": "無し",
    "latitude": "37.16405087",
    "longitude": "138.2489336",
    "tel": "0255-31-2030",
    "address": "上越市下門前薬島827-2",
    "access": "国道8号線沿い高岡市内関川大橋そば",
    "games": [
      "麻雀格闘倶楽部(ﾊｲｸﾞﾚｰﾄﾞﾓﾃﾞﾙ)"
    ]
  },
  {
    "name": "タイトーFステーション上越店",
    "operation_time": "",
    "holiday": "",
    "latitude": "37.148097",
    "longitude": "138.259034",
    "tel": "025-530-7115",
    "address": "上越市富岡3524J-maxシアター内1F",
    "access": "J-MAXシアター1F",
    "games": [
      "麻雀格闘倶楽部(ﾊｲｸﾞﾚｰﾄﾞﾓﾃﾞﾙ)"
    ]
  },
  {
    "name": "JOYJOY一宮店",
    "operation_time": "月～木11:00～翌6:00 金・祝前11:00～ 土・特日24時間営業 日・祝日～翌6:00",
    "holiday": "無し",
    "latitude": "35.28770244",
    "longitude": "136.8156326",
    "tel": "0586-23-6006",
    "address": "一宮市森本3-23-19",
    "access": "",
    "games": [
      "麻雀格闘倶楽部(ﾊｲｸﾞﾚｰﾄﾞﾓﾃﾞﾙ)"
    ]
  },
  {
    "name": "JOYJOY江南高屋店",
    "operation_time": "",
    "holiday": "",
    "latitude": "35.34893595",
    "longitude": "136.8732334",
    "tel": "0587-55-0100",
    "address": "江南市高屋町西町51",
    "access": "",
    "games": [
      "麻雀格闘倶楽部(ﾊｲｸﾞﾚｰﾄﾞﾓﾃﾞﾙ)"
    ]
  },
  {
    "name": "亜熱帯 四日市久保田店",
    "operation_time": "一部24時間営業",
    "holiday": "無し",
    "latitude": "34.97480242",
    "longitude": "136.6062481",
    "tel": "059-357-0008",
    "address": "四日市市久保田1-5-37",
    "access": "",
    "games": [
      "麻雀格闘倶楽部(ﾊｲｸﾞﾚｰﾄﾞﾓﾃﾞﾙ)"
    ]
  },
  {
    "name": "亜熱帯津島店",
    "operation_time": "一部24時間営業",
    "holiday": "無し",
    "latitude": "35.18557547",
    "longitude": "136.7715968",
    "tel": "0567-24-2101",
    "address": "津島市蛭間町字枡田289",
    "access": "",
    "games": [
      "麻雀格闘倶楽部(ﾊｲｸﾞﾚｰﾄﾞﾓﾃﾞﾙ)"
    ]
  },
  {
    "name": "タイトーFステーション弥富店",
    "operation_time": "",
    "holiday": "",
    "latitude": "35.1144303",
    "longitude": "136.7190724",
    "tel": "0567-55-7095",
    "address": "弥富市五明町蒲原1371-4イオンタウン弥富内",
    "access": "",
    "games": [
      "麻雀格闘倶楽部(ﾊｲｸﾞﾚｰﾄﾞﾓﾃﾞﾙ)"
    ]
  },
  {
    "name": "ユーズランド下田店",
    "operation_time": "10:00～21:00",
    "holiday": "無し",
    "latitude": "40.60188383",
    "longitude": "141.4176032",
    "tel": "0178-50-3237",
    "address": "上北郡おいらせ町中野平40-1イオンモール下田1F",
    "access": "イオン下田SC1・2FJR下田駅よりバスで10分八戸市より車で約15km、三沢市より車で約15km",
    "games": [
      "麻雀格闘倶楽部(ﾊｲｸﾞﾚｰﾄﾞﾓﾃﾞﾙ)"
    ]
  },
  {
    "name": "タイトーステーションパールシティ稲沢店",
    "operation_time": "",
    "holiday": "",
    "latitude": "35.237444",
    "longitude": "136.819355",
    "tel": "0587-24-0996",
    "address": "稲沢市井之口大坪町80-1パールシティ稲沢2F",
    "access": "",
    "games": [
      "麻雀格闘倶楽部(ﾊｲｸﾞﾚｰﾄﾞﾓﾃﾞﾙ)"
    ]
  },
  {
    "name": "稲沢グランドボウル",
    "operation_time": "",
    "holiday": "",
    "latitude": "35.23636829",
    "longitude": "136.8193778",
    "tel": "0587-21-2131",
    "address": "稲沢市井之口大坪町80-1",
    "access": "",
    "games": [
      "麻雀格闘倶楽部(ﾊｲｸﾞﾚｰﾄﾞﾓﾃﾞﾙ)"
    ]
  },
  {
    "name": "JOYJOY稲沢グランドボウル",
    "operation_time": "月～木11:00～翌6:00 金・祝前11:00～ 土・特日24時間営業 日・祝日～翌6:00",
    "holiday": "無し",
    "latitude": "35.23636829",
    "longitude": "136.8193778",
    "tel": "0587-32-9991",
    "address": "稲沢市井之口大坪町80-2",
    "access": "",
    "games": [
      "麻雀格闘倶楽部(ﾊｲｸﾞﾚｰﾄﾞﾓﾃﾞﾙ)"
    ]
  },
  {
    "name": "亜熱帯近鉄四日市店",
    "operation_time": "一部24時間営業",
    "holiday": "無し",
    "latitude": "34.96687694",
    "longitude": "136.6206184",
    "tel": "059-356-0090",
    "address": "四日市市諏訪栄町4-6",
    "access": "",
    "games": [
      "麻雀格闘倶楽部(ﾊｲｸﾞﾚｰﾄﾞﾓﾃﾞﾙ)"
    ]
  },
  {
    "name": "JOYJOYアソビックスあさひ",
    "operation_time": "月～木11:00～翌6:00 金・祝前11:00～ 土・特日24時間営業 日・祝日～翌6:00",
    "holiday": "無し",
    "latitude": "35.03069111",
    "longitude": "136.6725295",
    "tel": "059-377-0090",
    "address": "三重郡朝日町大字小向字長割181アソビックスあさひ1F",
    "access": "",
    "games": [
      "麻雀格闘倶楽部(ﾊｲｸﾞﾚｰﾄﾞﾓﾃﾞﾙ)"
    ]
  },
  {
    "name": "JOYJOY四日市富洲原店",
    "operation_time": "一部24時間営業",
    "holiday": "無し",
    "latitude": "35.01256",
    "longitude": "136.659522",
    "tel": "059-363-4449",
    "address": "四日市市富洲原町34-8",
    "access": "",
    "games": [
      "麻雀格闘倶楽部(ﾊｲｸﾞﾚｰﾄﾞﾓﾃﾞﾙ)"
    ]
  },
  {
    "name": "アピナ四日市店",
    "operation_time": "",
    "holiday": "",
    "latitude": "34.94000426",
    "longitude": "136.6070666",
    "tel": "059-349-5011",
    "address": "四日市市泊小柳町4-34",
    "access": "",
    "games": [
      "麻雀格闘倶楽部(ﾊｲｸﾞﾚｰﾄﾞﾓﾃﾞﾙ)"
    ]
  },
  {
    "name": "ラウンドワン名古屋西春店",
    "operation_time": "",
    "holiday": "",
    "latitude": "35.25506282",
    "longitude": "136.8439405",
    "tel": "0568-26-4001",
    "address": "北名古屋市宇福寺神明15",
    "access": "",
    "games": [
      "麻雀格闘倶楽部(ﾊｲｸﾞﾚｰﾄﾞﾓﾃﾞﾙ)"
    ]
  },
  {
    "name": "鈴鹿グランドボウル",
    "operation_time": "9:00～翌5:00",
    "holiday": "無し",
    "latitude": "34.874604",
    "longitude": "136.561427",
    "tel": "059-382-2196",
    "address": "鈴鹿市三日市町赤土田1053",
    "access": "近鉄鈴鹿線「三日市」駅から徒歩5分 国道23号線、柳ランプウェイ(立体交差点)から鈴鹿中央通りを車で西へ5分",
    "games": [
      "麻雀格闘倶楽部(ﾊｲｸﾞﾚｰﾄﾞﾓﾃﾞﾙ)"
    ]
  },
  {
    "name": "ラウンドワンみえ川越IC店",
    "operation_time": "",
    "holiday": "",
    "latitude": "35.02319916",
    "longitude": "136.6836502",
    "tel": "059-361-2130",
    "address": "三重郡川越町大字南福崎851-1",
    "access": "",
    "games": [
      "麻雀格闘倶楽部(ﾊｲｸﾞﾚｰﾄﾞﾓﾃﾞﾙ)"
    ]
  },
  {
    "name": "楽市街道022名古屋店1F",
    "operation_time": "10:00～24:00",
    "holiday": "無し",
    "latitude": "35.23957843",
    "longitude": "136.848742",
    "tel": "0568-27-2622",
    "address": "北名古屋市中之郷字神明45-1-1F",
    "access": "22号線バイパス沿い",
    "games": [
      "麻雀格闘倶楽部(ﾊｲｸﾞﾚｰﾄﾞﾓﾃﾞﾙ)"
    ]
  },
  {
    "name": "亜熱帯小牧店",
    "operation_time": "一部24時間営業",
    "holiday": "無し",
    "latitude": "35.29913826",
    "longitude": "136.9078012",
    "tel": "0568-76-3121",
    "address": "小牧市大字村中下ノ坪486-1",
    "access": "名神高速小牧IC下車 車で3分",
    "games": [
      "麻雀格闘倶楽部(ﾊｲｸﾞﾚｰﾄﾞﾓﾃﾞﾙ)"
    ]
  },
  {
    "name": "アミューズメントワールドメトロポリス小牧店",
    "operation_time": "平日10:00～23:50 土日祝日前 9:00～23:50",
    "holiday": "無し",
    "latitude": "35.2951722",
    "longitude": "136.905659",
    "tel": "0568-71-0005",
    "address": "小牧市村中新町33",
    "access": "名神高速小牧インターより南へ1km R41号間々本町交差点角",
    "games": [
      "麻雀格闘倶楽部(ﾊｲｸﾞﾚｰﾄﾞﾓﾃﾞﾙ)"
    ]
  },
  {
    "name": "JOYJOYアソビックス蟹江店",
    "operation_time": "月～木11:00～翌6:00 金・祝前11:00～ 土・特日24時間営業 日・祝日～翌6:00",
    "holiday": "無し",
    "latitude": "35.124971",
    "longitude": "136.785742",
    "tel": "0567-96-6667",
    "address": "海部郡蟹江町大字蟹江新田字上芝切71",
    "access": "",
    "games": [
      "麻雀格闘倶楽部(ﾊｲｸﾞﾚｰﾄﾞﾓﾃﾞﾙ)"
    ]
  },
  {
    "name": "亜熱帯北名古屋店",
    "operation_time": "一部24時間営業",
    "holiday": "無し",
    "latitude": "35.241199",
    "longitude": "136.878072",
    "tel": "0568-22-8889",
    "address": "北名古屋市九之坪白山159",
    "access": "",
    "games": [
      "麻雀格闘倶楽部(ﾊｲｸﾞﾚｰﾄﾞﾓﾃﾞﾙ)"
    ]
  },
  {
    "name": "亜熱帯甚目寺店",
    "operation_time": "一部24時間営業",
    "holiday": "無し",
    "latitude": "35.184529",
    "longitude": "136.836643",
    "tel": "052-445-7877",
    "address": "あま市下萱津九反田47",
    "access": "",
    "games": [
      "麻雀格闘倶楽部(ﾊｲｸﾞﾚｰﾄﾞﾓﾃﾞﾙ)"
    ]
  },
  {
    "name": "JOYJOY津三重大前店",
    "operation_time": "月～木11:00～翌6:00 金・祝前11:00～ 土・特日24時間営業 日・祝日～翌6:00",
    "holiday": "無し",
    "latitude": "34.748183",
    "longitude": "136.520488",
    "tel": "059-233-1001",
    "address": "津市栗真町屋町字東浜1714-1",
    "access": "",
    "games": [
      "麻雀格闘倶楽部(ﾊｲｸﾞﾚｰﾄﾞﾓﾃﾞﾙ)"
    ]
  },
  {
    "name": "ラウンドワン新潟店",
    "operation_time": "",
    "holiday": "",
    "latitude": "37.88807436",
    "longitude": "139.0177537",
    "tel": "025-280-1322",
    "address": "新潟市中央区美咲町2-1-38",
    "access": "",
    "games": [
      "麻雀格闘倶楽部(ﾊｲｸﾞﾚｰﾄﾞﾓﾃﾞﾙ)"
    ]
  },
  {
    "name": "オリエンタルバッティングセンター可児店",
    "operation_time": "",
    "holiday": "",
    "latitude": "35.4295369",
    "longitude": "137.0390315",
    "tel": "0574-61-3991",
    "address": "可児市今渡695-1",
    "access": "",
    "games": [
      "麻雀格闘倶楽部(ﾊｲｸﾞﾚｰﾄﾞﾓﾃﾞﾙ)"
    ]
  },
  {
    "name": "亜熱帯中川コロナワールド店",
    "operation_time": "一部24時間営業",
    "holiday": "無し",
    "latitude": "35.124277",
    "longitude": "136.823702",
    "tel": "052-303-1333",
    "address": "名古屋市中川区江松3-124",
    "access": "",
    "games": [
      "麻雀格闘倶楽部(ﾊｲｸﾞﾚｰﾄﾞﾓﾃﾞﾙ)"
    ]
  },
  {
    "name": "プレイハウスエリナ",
    "operation_time": "",
    "holiday": "",
    "latitude": "37.71741366",
    "longitude": "138.8908286",
    "tel": "0256-82-4541",
    "address": "新潟市西蒲区津雲田640",
    "access": "JR「岩室駅」より車で5分。駅より国道116号を南下し国道沿い右側。",
    "games": [
      "麻雀格闘倶楽部(ﾊｲｸﾞﾚｰﾄﾞﾓﾃﾞﾙ)"
    ]
  },
  {
    "name": "自遊空間新潟黒埼店",
    "operation_time": "一部24時間",
    "holiday": "無し",
    "latitude": "37.867002",
    "longitude": "139.019529",
    "tel": "025-201-1015",
    "address": "新潟市西区山田2307-339",
    "access": "ふるさと村の隣",
    "games": [
      "麻雀格闘倶楽部(ﾊｲｸﾞﾚｰﾄﾞﾓﾃﾞﾙ)"
    ]
  },
  {
    "name": "ファンタジープラザ名古屋店",
    "operation_time": "10:00～翌5:00",
    "holiday": "無し",
    "latitude": "35.22569311",
    "longitude": "136.908786",
    "tel": "052-938-3461",
    "address": "名古屋市北区玄馬町234-1クロスタウン2F",
    "access": "比良駅徒歩6分/大我麻交差点付近",
    "games": [
      "麻雀格闘倶楽部(ﾊｲｸﾞﾚｰﾄﾞﾓﾃﾞﾙ)"
    ]
  },
  {
    "name": "namco新潟店",
    "operation_time": "",
    "holiday": "",
    "latitude": "37.90823",
    "longitude": "139.064009",
    "tel": "025-384-4980",
    "address": "新潟市中央区南笹口1-1-1ひもろぎビル2F",
    "access": "",
    "games": [
      "麻雀格闘倶楽部(ﾊｲｸﾞﾚｰﾄﾞﾓﾃﾞﾙ)"
    ]
  },
  {
    "name": "BOX.Q3",
    "operation_time": "10:00～24:00",
    "holiday": "無し",
    "latitude": "35.17310098",
    "longitude": "136.876603",
    "tel": "052-452-0920",
    "address": "名古屋市中村区則武1-16-8第一Uコーポ1F",
    "access": "各線名古屋駅 太閤口徒歩5分",
    "games": [
      "麻雀格闘倶楽部(ﾊｲｸﾞﾚｰﾄﾞﾓﾃﾞﾙ)"
    ]
  },
  {
    "name": "コムテックタワー",
    "operation_time": "平日10:00～24:00、土日祝9:00～24:00",
    "holiday": "",
    "latitude": "35.16941986",
    "longitude": "136.885993",
    "tel": "052-565-6471",
    "address": "名古屋市中村区名駅4-10-20",
    "access": "JR名古屋駅徒歩5分",
    "games": [
      "麻雀格闘倶楽部(ﾊｲｸﾞﾚｰﾄﾞﾓﾃﾞﾙ)"
    ]
  },
  {
    "name": "ラウンドワン津･高茶屋店",
    "operation_time": "",
    "holiday": "",
    "latitude": "34.6726828",
    "longitude": "136.5194663",
    "tel": "059-238-0011",
    "address": "津市高茶屋小森町277-8",
    "access": "",
    "games": [
      "麻雀格闘倶楽部(ﾊｲｸﾞﾚｰﾄﾞﾓﾃﾞﾙ)"
    ]
  },
  {
    "name": "亜熱帯津南高茶屋店",
    "operation_time": "一部24時間営業",
    "holiday": "無し",
    "latitude": "34.667405",
    "longitude": "136.517022",
    "tel": "059-235-0070",
    "address": "津市雲出本郷町西添1680-1",
    "access": "",
    "games": [
      "麻雀格闘倶楽部(ﾊｲｸﾞﾚｰﾄﾞﾓﾃﾞﾙ)"
    ]
  },
  {
    "name": "ラウンドワン中川一号線店",
    "operation_time": "",
    "holiday": "",
    "latitude": "35.12338322",
    "longitude": "136.8636484",
    "tel": "052-665-5353",
    "address": "名古屋市中川区法蔵町2-23",
    "access": "",
    "games": [
      "麻雀格闘倶楽部(ﾊｲｸﾞﾚｰﾄﾞﾓﾃﾞﾙ)"
    ]
  },
  {
    "name": "公楽園",
    "operation_time": "10:00～24:00",
    "holiday": "無し",
    "latitude": "37.63369507",
    "longitude": "138.8655143",
    "tel": "0256-97-1575",
    "address": "燕市熊森1283-1",
    "access": "JR「分水駅」より車で10分。国道116号線を北上し国道沿い右側。",
    "games": [
      "麻雀格闘倶楽部(ﾊｲｸﾞﾚｰﾄﾞﾓﾃﾞﾙ)"
    ]
  },
  {
    "name": "JOYJOY昭和橋店",
    "operation_time": "月～木11:00～翌6:00 金・祝前11:00～ 土・特日24時間営業 日・祝日～翌6:00",
    "holiday": "無し",
    "latitude": "35.124731",
    "longitude": "136.871635",
    "tel": "052-653-4777",
    "address": "名古屋市中川区昭和橋通2-37-2",
    "access": "",
    "games": [
      "麻雀格闘倶楽部(ﾊｲｸﾞﾚｰﾄﾞﾓﾃﾞﾙ)"
    ]
  },
  {
    "name": "亜熱帯栄住吉店",
    "operation_time": "一部24時間営業",
    "holiday": "無し",
    "latitude": "35.16633003",
    "longitude": "136.90331",
    "tel": "052-252-7477",
    "address": "名古屋市中区栄3-11-12",
    "access": "地下鉄東山線「栄」駅徒歩5分",
    "games": [
      "麻雀格闘倶楽部(ﾊｲｸﾞﾚｰﾄﾞﾓﾃﾞﾙ)"
    ]
  },
  {
    "name": "キングジョイ",
    "operation_time": "9:00～24:00",
    "holiday": "無し",
    "latitude": "35.16797694",
    "longitude": "136.9050444",
    "tel": "052-241-9515",
    "address": "名古屋市中区栄3-3-32",
    "access": "地下鉄栄駅徒歩3分",
    "games": [
      "麻雀格闘倶楽部(ﾊｲｸﾞﾚｰﾄﾞﾓﾃﾞﾙ)"
    ]
  },
  {
    "name": "JOYJOY平安通店",
    "operation_time": "月～木11:00～翌6:00 金・祝前11:00～ 土・特日24時間営業 日・祝日～翌6:00",
    "holiday": "無し",
    "latitude": "35.197874",
    "longitude": "136.930016",
    "tel": "052-914-0009",
    "address": "名古屋市北区平安2-2-16",
    "access": "",
    "games": [
      "麻雀格闘倶楽部(ﾊｲｸﾞﾚｰﾄﾞﾓﾃﾞﾙ)"
    ]
  },
  {
    "name": "ゆりの木ボウル",
    "operation_time": "",
    "holiday": "",
    "latitude": "40.506688",
    "longitude": "141.493379",
    "tel": "0178-45-1022",
    "address": "八戸市鷹匠小路10-3",
    "access": "",
    "games": [
      "麻雀格闘倶楽部(ﾊｲｸﾞﾚｰﾄﾞﾓﾃﾞﾙ)"
    ]
  },
  {
    "name": "タイトーステーションフェドラ大須店",
    "operation_time": "10:00～24:00",
    "holiday": "無し",
    "latitude": "35.15945319",
    "longitude": "136.9054236",
    "tel": "052-242-2011",
    "address": "名古屋市中区大須3-30-31萬松寺駐車場ビル1F･2F",
    "access": "地下鉄名城線上前津駅より徒歩1分",
    "games": [
      "麻雀格闘倶楽部(ﾊｲｸﾞﾚｰﾄﾞﾓﾃﾞﾙ)"
    ]
  },
  {
    "name": "コムテックスクウェア金山",
    "operation_time": "9:00～24:00",
    "holiday": "",
    "latitude": "35.14401179",
    "longitude": "136.8999767",
    "tel": "052-321-5601",
    "address": "名古屋市中区金山1-16-8",
    "access": "名鉄金山駅徒歩3分",
    "games": [
      "麻雀格闘倶楽部(ﾊｲｸﾞﾚｰﾄﾞﾓﾃﾞﾙ)"
    ]
  },
  {
    "name": "GiGO金山",
    "operation_time": "",
    "holiday": "",
    "latitude": "35.14264312",
    "longitude": "136.9023578",
    "tel": "052-323-0121",
    "address": "名古屋市熱田区金山町1-19-2",
    "access": "",
    "games": [
      "麻雀格闘倶楽部(ﾊｲｸﾞﾚｰﾄﾞﾓﾃﾞﾙ)"
    ]
  },
  {
    "name": "亜熱帯タイホウ熱田店",
    "operation_time": "一部24時間営業",
    "holiday": "無し",
    "latitude": "35.11926418",
    "longitude": "136.8868592",
    "tel": "052-652-2255",
    "address": "名古屋市熱田区六番町1816-1タイホウ熱田ビル1F",
    "access": "",
    "games": [
      "麻雀格闘倶楽部(ﾊｲｸﾞﾚｰﾄﾞﾓﾃﾞﾙ)"
    ]
  },
  {
    "name": "亜熱帯春日井店",
    "operation_time": "一部24時間営業",
    "holiday": "無し",
    "latitude": "35.27525998",
    "longitude": "137.0066366",
    "tel": "0588-57-0211",
    "address": "春日井市大泉寺町大池下292",
    "access": "春日井ICより19号線すぐ",
    "games": [
      "麻雀格闘倶楽部(ﾊｲｸﾞﾚｰﾄﾞﾓﾃﾞﾙ)"
    ]
  },
  {
    "name": "ラウンドワン千種店",
    "operation_time": "",
    "holiday": "",
    "latitude": "35.16799971",
    "longitude": "136.9279985",
    "tel": "052-238-1615",
    "address": "名古屋市千種区新栄3-20-17タイホウ千種駅前南ビル8F",
    "access": "",
    "games": [
      "麻雀格闘倶楽部(ﾊｲｸﾞﾚｰﾄﾞﾓﾃﾞﾙ)"
    ]
  },
  {
    "name": "ADXマミー春日井出川店",
    "operation_time": "",
    "holiday": "",
    "latitude": "35.26729521",
    "longitude": "137.012739",
    "tel": "0568-54-8590",
    "address": "春日井市不二が丘1-5",
    "access": "",
    "games": [
      "麻雀格闘倶楽部(ﾊｲｸﾞﾚｰﾄﾞﾓﾃﾞﾙ)"
    ]
  },
  {
    "name": "名古屋レジャーランド内田橋店",
    "operation_time": "一部24時間営業",
    "holiday": "無し",
    "latitude": "35.1137072",
    "longitude": "136.9098069",
    "tel": "052-694-6051",
    "address": "名古屋市南区内田橋2-26-22",
    "access": "名鉄常滑線豊田本町駅近く",
    "games": [
      "麻雀格闘倶楽部(ﾊｲｸﾞﾚｰﾄﾞﾓﾃﾞﾙ)"
    ]
  },
  {
    "name": "JOYJOY高蔵寺店",
    "operation_time": "月～木11:00～翌6:00 金・祝前11:00～ 土・特日24時間営業 日・祝日～翌6:00",
    "holiday": "無し",
    "latitude": "35.26577195",
    "longitude": "137.0354714",
    "tel": "0568-51-5525",
    "address": "春日井市高蔵寺町北1-44",
    "access": "",
    "games": [
      "麻雀格闘倶楽部(ﾊｲｸﾞﾚｰﾄﾞﾓﾃﾞﾙ)"
    ]
  },
  {
    "name": "ららぽーと",
    "operation_time": "一部24時間営業",
    "holiday": "無し",
    "latitude": "37.7144672",
    "longitude": "139.0026602",
    "tel": "025-375-5425",
    "address": "新潟市南区茨曽根2433",
    "access": "高速「巻潟東IC」より車で30分。ICをおり国道460号線より国道8号線を左折。国道沿い右側。",
    "games": [
      "麻雀格闘倶楽部(ﾊｲｸﾞﾚｰﾄﾞﾓﾃﾞﾙ)"
    ]
  },
  {
    "name": "JOYJOY大森IC店",
    "operation_time": "月～木11:00～翌6:00 金・祝前11:00～ 土・特日24時間営業 日・祝日～翌6:00",
    "holiday": "無し",
    "latitude": "35.19980481",
    "longitude": "136.9914145",
    "tel": "052-798-5111",
    "address": "名古屋市守山区薮田町305",
    "access": "",
    "games": [
      "麻雀格闘倶楽部(ﾊｲｸﾞﾚｰﾄﾞﾓﾃﾞﾙ)"
    ]
  },
  {
    "name": "自遊空間燕三条店",
    "operation_time": "一部24時間",
    "holiday": "無し",
    "latitude": "37.63973274",
    "longitude": "138.9401241",
    "tel": "0256-36-1444",
    "address": "三条市下須頃41-1",
    "access": "国道116号線沿い",
    "games": [
      "麻雀格闘倶楽部(ﾊｲｸﾞﾚｰﾄﾞﾓﾃﾞﾙ)"
    ]
  },
  {
    "name": "ポピー豊栄",
    "operation_time": "一部24時間営業",
    "holiday": "無し",
    "latitude": "37.94063019",
    "longitude": "139.200628",
    "tel": "025-386-1374",
    "address": "新潟市北区内島見浦潟2545-2",
    "access": "国道8号線「競馬場IC」をおり県道3号線を左折。県道沿い右側。",
    "games": [
      "麻雀格闘倶楽部(ﾊｲｸﾞﾚｰﾄﾞﾓﾃﾞﾙ)"
    ]
  },
  {
    "name": "亜熱帯松阪サンパーク店",
    "operation_time": "一部24時間営業",
    "holiday": "無し",
    "latitude": "34.562221",
    "longitude": "136.526162",
    "tel": "0598-21-0990",
    "address": "松阪市大黒田町708サンパーク松阪1F",
    "access": "",
    "games": [
      "麻雀格闘倶楽部(ﾊｲｸﾞﾚｰﾄﾞﾓﾃﾞﾙ)"
    ]
  },
  {
    "name": "アピナ長岡店",
    "operation_time": "10:00～24:00",
    "holiday": "無し",
    "latitude": "37.45794202",
    "longitude": "138.8125194",
    "tel": "0258-22-5510",
    "address": "長岡市堺東町22",
    "access": "国道8号線長岡バイパス堺交差点近く",
    "games": [
      "麻雀格闘倶楽部(ﾊｲｸﾞﾚｰﾄﾞﾓﾃﾞﾙ)"
    ]
  },
  {
    "name": "ラウンドワン鳴海店",
    "operation_time": "",
    "holiday": "",
    "latitude": "35.09913151",
    "longitude": "136.9528735",
    "tel": "052-899-0700",
    "address": "名古屋市緑区鳴海町字杜若28",
    "access": "",
    "games": [
      "麻雀格闘倶楽部(ﾊｲｸﾞﾚｰﾄﾞﾓﾃﾞﾙ)"
    ]
  },
  {
    "name": "亜熱帯四軒家店",
    "operation_time": "一部24時間営業",
    "holiday": "無し",
    "latitude": "35.194971",
    "longitude": "137.026667",
    "tel": "052-778-0123",
    "address": "名古屋市守山区白山2-102",
    "access": "",
    "games": [
      "麻雀格闘倶楽部(ﾊｲｸﾞﾚｰﾄﾞﾓﾃﾞﾙ)"
    ]
  },
  {
    "name": "亜熱帯緑浦里店",
    "operation_time": "一部24時間営業",
    "holiday": "無し",
    "latitude": "35.087555",
    "longitude": "136.948308",
    "tel": "052-891-4005",
    "address": "名古屋市緑区浦里3-21",
    "access": "",
    "games": [
      "麻雀格闘倶楽部(ﾊｲｸﾞﾚｰﾄﾞﾓﾃﾞﾙ)"
    ]
  },
  {
    "name": "亜熱帯高針原店",
    "operation_time": "一部24時間営業",
    "holiday": "無し",
    "latitude": "35.145938",
    "longitude": "136.994923",
    "tel": "052-704-2210",
    "address": "名古屋市名東区高針原2-1605",
    "access": "",
    "games": [
      "麻雀格闘倶楽部(ﾊｲｸﾞﾚｰﾄﾞﾓﾃﾞﾙ)"
    ]
  },
  {
    "name": "ゲームパニック大高",
    "operation_time": "9:00～23:45",
    "holiday": "無し",
    "latitude": "35.04850561",
    "longitude": "136.9496236",
    "tel": "052-625-5360",
    "address": "名古屋市緑区忠治山201グランドボウルB2F",
    "access": "国道23号線大高町共和IC側道グランドボウルB2階",
    "games": [
      "麻雀格闘倶楽部(ﾊｲｸﾞﾚｰﾄﾞﾓﾃﾞﾙ)"
    ]
  },
  {
    "name": "ゲームセンターテクノポリス",
    "operation_time": "10:00～24:00",
    "holiday": "無し",
    "latitude": "37.42498834",
    "longitude": "138.8377613",
    "tel": "0258-33-1516",
    "address": "長岡市要町1-8-50",
    "access": "JR「宮内駅」西口より徒歩で5分。県道498号線沿い。",
    "games": [
      "麻雀格闘倶楽部(ﾊｲｸﾞﾚｰﾄﾞﾓﾃﾞﾙ)"
    ]
  },
  {
    "name": "ラウンドワン長野店",
    "operation_time": "",
    "holiday": "",
    "latitude": "36.65105714",
    "longitude": "138.225192",
    "tel": "026-254-5801",
    "address": "長野市大字東和田827-6",
    "access": "",
    "games": [
      "麻雀格闘倶楽部(ﾊｲｸﾞﾚｰﾄﾞﾓﾃﾞﾙ)"
    ]
  },
  {
    "name": "G3ポロス横手南店",
    "operation_time": "",
    "holiday": "",
    "latitude": "39.29452197",
    "longitude": "140.5520782",
    "tel": "0182-23-5415",
    "address": "横手市大字婦気大堤字中田4-1イオンスーパーセンター横手南店2F",
    "access": "",
    "games": [
      "麻雀格闘倶楽部(ﾊｲｸﾞﾚｰﾄﾞﾓﾃﾞﾙ)"
    ]
  },
  {
    "name": "ユーズランド東浦店",
    "operation_time": "10:00～21:00",
    "holiday": "無し",
    "latitude": "34.97885364",
    "longitude": "136.9741411",
    "tel": "0562-82-2782",
    "address": "知多郡東浦町大字緒川字旭13-2イオンモール東浦2F",
    "access": "イオン東浦SC2FJR緒川駅より徒歩5分知多半島道路東浦知多ICより約4km",
    "games": [
      "麻雀格闘倶楽部(ﾊｲｸﾞﾚｰﾄﾞﾓﾃﾞﾙ)"
    ]
  },
  {
    "name": "JOYJOY信州中野店",
    "operation_time": "",
    "holiday": "",
    "latitude": "36.75806741",
    "longitude": "138.3693747",
    "tel": "0269-26-7777",
    "address": "中野市大字一本木字桜木6",
    "access": "",
    "games": [
      "麻雀格闘倶楽部(ﾊｲｸﾞﾚｰﾄﾞﾓﾃﾞﾙ)"
    ]
  },
  {
    "name": "M'sPARK刈谷店",
    "operation_time": "10:00～24:00",
    "holiday": "無し",
    "latitude": "35.00549344",
    "longitude": "137.0014494",
    "tel": "0566-27-5822",
    "address": "刈谷市稲場町3-206",
    "access": "155号沿い",
    "games": [
      "麻雀格闘倶楽部(ﾊｲｸﾞﾚｰﾄﾞﾓﾃﾞﾙ)"
    ]
  },
  {
    "name": "ゲームダイコク",
    "operation_time": "",
    "holiday": "",
    "latitude": "34.880273",
    "longitude": "136.916512",
    "tel": "0569-24-1316",
    "address": "半田市青山2-27-1",
    "access": "",
    "games": [
      "麻雀格闘倶楽部(ﾊｲｸﾞﾚｰﾄﾞﾓﾃﾞﾙ)"
    ]
  },
  {
    "name": "Gregory",
    "operation_time": "10:00～24:00",
    "holiday": "無し",
    "latitude": "34.94967489",
    "longitude": "136.9696189",
    "tel": "0562-83-7447",
    "address": "知多郡東浦町藤江大坪58-1-101",
    "access": "",
    "games": [
      "麻雀格闘倶楽部(ﾊｲｸﾞﾚｰﾄﾞﾓﾃﾞﾙ)"
    ]
  },
  {
    "name": "半田メトロポリス",
    "operation_time": "平日10:00～23:50 土日祝日前 9:00～23:50",
    "holiday": "無し",
    "latitude": "34.87469206",
    "longitude": "136.9217723",
    "tel": "0569-24-5226",
    "address": "半田市旭町3-11-1半田コロナワールド内2F",
    "access": "JR武豊線東成岩駅より徒歩1分",
    "games": [
      "麻雀格闘倶楽部(ﾊｲｸﾞﾚｰﾄﾞﾓﾃﾞﾙ)"
    ]
  },
  {
    "name": "半田グランドボウル",
    "operation_time": "",
    "holiday": "",
    "latitude": "34.89247",
    "longitude": "136.942241",
    "tel": "0569-24-9281",
    "address": "半田市東洋町2-49-1",
    "access": "",
    "games": [
      "麻雀格闘倶楽部(ﾊｲｸﾞﾚｰﾄﾞﾓﾃﾞﾙ)"
    ]
  },
  {
    "name": "ラウンドワン半田店",
    "operation_time": "",
    "holiday": "",
    "latitude": "34.88609688",
    "longitude": "136.9412056",
    "tel": "0569-25-7351",
    "address": "半田市瑞穂町6-7-8",
    "access": "",
    "games": [
      "麻雀格闘倶楽部(ﾊｲｸﾞﾚｰﾄﾞﾓﾃﾞﾙ)"
    ]
  },
  {
    "name": "JOYJOY豊田駅前店",
    "operation_time": "月～木11:00～翌6:00 金・祝前11:00～ 土・特日24時間営業 日・祝日～翌6:00",
    "holiday": "無し",
    "latitude": "35.08552695",
    "longitude": "137.1542339",
    "tel": "0565-31-0002",
    "address": "豊田市西町5-57-1豊田パークビル1F",
    "access": "",
    "games": [
      "麻雀格闘倶楽部(ﾊｲｸﾞﾚｰﾄﾞﾓﾃﾞﾙ)"
    ]
  },
  {
    "name": "亜熱帯豊田駅前店",
    "operation_time": "一部24時間営業",
    "holiday": "無し",
    "latitude": "35.08622538",
    "longitude": "137.1558371",
    "tel": "0565-32-4422",
    "address": "豊田市西町6-68",
    "access": "",
    "games": [
      "麻雀格闘倶楽部(ﾊｲｸﾞﾚｰﾄﾞﾓﾃﾞﾙ)"
    ]
  },
  {
    "name": "M'Sパーク豊田店",
    "operation_time": "一部24時間営業",
    "holiday": "",
    "latitude": "35.0565113",
    "longitude": "137.1404324",
    "tel": "0565-71-0027",
    "address": "豊田市寿町3-10-11",
    "access": "愛知環状鉄道三河豊田駅10分。名鉄三河線土橋駅より徒歩10分。",
    "games": [
      "麻雀格闘倶楽部(ﾊｲｸﾞﾚｰﾄﾞﾓﾃﾞﾙ)"
    ]
  },
  {
    "name": "ゲームコング",
    "operation_time": "",
    "holiday": "",
    "latitude": "35.07730389",
    "longitude": "137.1608843",
    "tel": "0565-35-0300",
    "address": "豊田市広路町2-20",
    "access": "",
    "games": [
      "麻雀格闘倶楽部(ﾊｲｸﾞﾚｰﾄﾞﾓﾃﾞﾙ)"
    ]
  },
  {
    "name": "タイトーステーション盛岡マッハランド店",
    "operation_time": "10:00～24:00",
    "holiday": "無し",
    "latitude": "39.723902",
    "longitude": "141.126913",
    "tel": "019-648-1408",
    "address": "盛岡市上堂1-2-38",
    "access": "国道4号線沿い、マッハランド内。",
    "games": [
      "麻雀格闘倶楽部(ﾊｲｸﾞﾚｰﾄﾞﾓﾃﾞﾙ)"
    ]
  },
  {
    "name": "ラウンドワン盛岡店",
    "operation_time": "",
    "holiday": "",
    "latitude": "39.70035197",
    "longitude": "141.133077",
    "tel": "019-654-9011",
    "address": "盛岡市盛岡駅西通2-10-35",
    "access": "",
    "games": [
      "麻雀格闘倶楽部(ﾊｲｸﾞﾚｰﾄﾞﾓﾃﾞﾙ)"
    ]
  },
  {
    "name": "サンシャイン",
    "operation_time": "10:00～24:00",
    "holiday": "無し",
    "latitude": "39.70320065",
    "longitude": "141.1454348",
    "tel": "019-622-9516",
    "address": "盛岡市大通2-7-21",
    "access": "盛岡大通り沿い",
    "games": [
      "麻雀格闘倶楽部(ﾊｲｸﾞﾚｰﾄﾞﾓﾃﾞﾙ)"
    ]
  },
  {
    "name": "岡崎グランドボウル",
    "operation_time": "",
    "holiday": "",
    "latitude": "34.97414674",
    "longitude": "137.1576611",
    "tel": "0564-22-5522",
    "address": "岡崎市日名北町1-1",
    "access": "",
    "games": [
      "麻雀格闘倶楽部(ﾊｲｸﾞﾚｰﾄﾞﾓﾃﾞﾙ)"
    ]
  },
  {
    "name": "ADXマミー岡崎店",
    "operation_time": "",
    "holiday": "",
    "latitude": "34.97692806",
    "longitude": "137.161659",
    "tel": "0564-83-6262",
    "address": "岡崎市井田新町6-1",
    "access": "",
    "games": [
      "麻雀格闘倶楽部(ﾊｲｸﾞﾚｰﾄﾞﾓﾃﾞﾙ)"
    ]
  },
  {
    "name": "GiGO新庄",
    "operation_time": "",
    "holiday": "",
    "latitude": "38.76416135",
    "longitude": "140.3089553",
    "tel": "080-7037-0268",
    "address": "新庄市金沢字沖1068",
    "access": "",
    "games": [
      "麻雀格闘倶楽部(ﾊｲｸﾞﾚｰﾄﾞﾓﾃﾞﾙ)"
    ]
  },
  {
    "name": "プレイゾーンバンブー",
    "operation_time": "11:00～24:00",
    "holiday": "無し",
    "latitude": "37.051028",
    "longitude": "138.868007",
    "tel": "025-782-5277",
    "address": "南魚沼市竹俣60-6",
    "access": "JR「六日町」より車で5分。国道17号線沿い。",
    "games": [
      "麻雀格闘倶楽部(ﾊｲｸﾞﾚｰﾄﾞﾓﾃﾞﾙ)"
    ]
  },
  {
    "name": "ポート24幸田",
    "operation_time": "10:00～24:00",
    "holiday": "無休",
    "latitude": "34.89016302",
    "longitude": "137.1632649",
    "tel": "0564-63-6588",
    "address": "額田郡幸田町大字高力字沖原15カメリアガーデン幸田内",
    "access": "東名高速音羽蒲郡ICから車で30分",
    "games": [
      "麻雀格闘倶楽部(ﾊｲｸﾞﾚｰﾄﾞﾓﾃﾞﾙ)"
    ]
  },
  {
    "name": "自遊空間 湖浜店",
    "operation_time": "一部24時間",
    "holiday": "無し",
    "latitude": "36.068393",
    "longitude": "138.095167",
    "tel": "0266-26-4177",
    "address": "諏訪郡下諏訪高浜6191-3",
    "access": "",
    "games": [
      "麻雀格闘倶楽部(ﾊｲｸﾞﾚｰﾄﾞﾓﾃﾞﾙ)"
    ]
  },
  {
    "name": "JOYJOY諏訪IC店",
    "operation_time": "月～木11:00～翌6:00 金・祝前11:00～ 土・特日24時間営業 日・祝日～翌6:00",
    "holiday": "無し",
    "latitude": "36.01662419",
    "longitude": "138.1247015",
    "tel": "0266-54-1110",
    "address": "諏訪市四賀1811-2",
    "access": "",
    "games": [
      "麻雀格闘倶楽部(ﾊｲｸﾞﾚｰﾄﾞﾓﾃﾞﾙ)"
    ]
  },
  {
    "name": "JOYJOY蒲郡三谷店",
    "operation_time": "",
    "holiday": "",
    "latitude": "34.82134068",
    "longitude": "137.2412179",
    "tel": "0533-67-7771",
    "address": "蒲郡市三谷北通4-84-4",
    "access": "",
    "games": [
      "麻雀格闘倶楽部(ﾊｲｸﾞﾚｰﾄﾞﾓﾃﾞﾙ)"
    ]
  },
  {
    "name": "JOYJOY田原神戸駅前店",
    "operation_time": "月～木11:00～翌6:00 金・祝前11:00～ 土・特日24時間営業 日・祝日～翌6:00",
    "holiday": "無し",
    "latitude": "34.66838365",
    "longitude": "137.2766284",
    "tel": "0531-22-7333",
    "address": "田原市神戸町大坪152-1",
    "access": "",
    "games": [
      "麻雀格闘倶楽部(ﾊｲｸﾞﾚｰﾄﾞﾓﾃﾞﾙ)"
    ]
  },
  {
    "name": "亜熱帯豊橋駅前店",
    "operation_time": "一部24時間営業",
    "holiday": "無し",
    "latitude": "34.762956",
    "longitude": "137.384749",
    "tel": "0532-53-1222",
    "address": "豊橋市駅前大通1-36-2",
    "access": "豊橋駅より徒歩2分",
    "games": [
      "麻雀格闘倶楽部(ﾊｲｸﾞﾚｰﾄﾞﾓﾃﾞﾙ)"
    ]
  },
  {
    "name": "アーチ北山バッティングセンター",
    "operation_time": "10:00～24:00",
    "holiday": "無し",
    "latitude": "34.73281548",
    "longitude": "137.3977467",
    "tel": "0532-48-8018",
    "address": "豊橋市北山町字西ノ原40-20",
    "access": "小松原街道の北山交差点そば",
    "games": [
      "麻雀格闘倶楽部(ﾊｲｸﾞﾚｰﾄﾞﾓﾃﾞﾙ)"
    ]
  },
  {
    "name": "GiGO天童",
    "operation_time": "10:00～24:00",
    "holiday": "無し",
    "latitude": "38.34302924",
    "longitude": "140.3739732",
    "tel": "023-656-9370",
    "address": "天童市南町1-5-26",
    "access": "JR「天童駅」より車で10分。国道13号線を南下し国道沿い左側。",
    "games": [
      "麻雀格闘倶楽部(ﾊｲｸﾞﾚｰﾄﾞﾓﾃﾞﾙ)"
    ]
  },
  {
    "name": "テクノワールド",
    "operation_time": "店舗にてご確認ください",
    "holiday": "無し",
    "latitude": "39.179225",
    "longitude": "141.162155",
    "tel": "0197-47-3619",
    "address": "奥州市江刺愛宕梁川127-1",
    "access": "",
    "games": [
      "麻雀格闘倶楽部(ﾊｲｸﾞﾚｰﾄﾞﾓﾃﾞﾙ)"
    ]
  },
  {
    "name": "ゲームゾーントレジャー北町店",
    "operation_time": "",
    "holiday": "",
    "latitude": "38.268738",
    "longitude": "140.329329",
    "tel": "023-682-3356",
    "address": "山形市北町2-2-45山形ファミリーボウル内",
    "access": "",
    "games": [
      "麻雀格闘倶楽部(ﾊｲｸﾞﾚｰﾄﾞﾓﾃﾞﾙ)"
    ]
  },
  {
    "name": "ゲームゾーントレジャー吉原店",
    "operation_time": "10:00～24:00",
    "holiday": "無し",
    "latitude": "38.22961845",
    "longitude": "140.3040511",
    "tel": "023-646-9336",
    "address": "山形市前明石1352-5",
    "access": "ジャスコ山形南店側",
    "games": [
      "麻雀格闘倶楽部(ﾊｲｸﾞﾚｰﾄﾞﾓﾃﾞﾙ)"
    ]
  },
  {
    "name": "ラウンドワン豊橋店",
    "operation_time": "",
    "holiday": "",
    "latitude": "34.7239242",
    "longitude": "137.4323261",
    "tel": "0532-65-2212",
    "address": "豊橋市大岩町字岩田27-2",
    "access": "",
    "games": [
      "麻雀格闘倶楽部(ﾊｲｸﾞﾚｰﾄﾞﾓﾃﾞﾙ)"
    ]
  },
  {
    "name": "GiGO米沢",
    "operation_time": "",
    "holiday": "",
    "latitude": "37.91095607",
    "longitude": "140.133677",
    "tel": "0238-24-0666",
    "address": "米沢市大字花沢字タナコ原177",
    "access": "",
    "games": [
      "麻雀格闘倶楽部(ﾊｲｸﾞﾚｰﾄﾞﾓﾃﾞﾙ)"
    ]
  },
  {
    "name": "群馬レジャーランド渋川店",
    "operation_time": "",
    "holiday": "",
    "latitude": "36.4742053",
    "longitude": "139.0154654",
    "tel": "0279-25-0718",
    "address": "渋川市八木原1364",
    "access": "",
    "games": [
      "麻雀格闘倶楽部(ﾊｲｸﾞﾚｰﾄﾞﾓﾃﾞﾙ)"
    ]
  },
  {
    "name": "GiGO会津若松",
    "operation_time": "9:00～24:00",
    "holiday": "無し",
    "latitude": "37.51832577",
    "longitude": "139.9222191",
    "tel": "0242-37-0777",
    "address": "会津若松市町北町上荒久田字宮下142",
    "access": "磐越道会津若松IC側",
    "games": [
      "麻雀格闘倶楽部(ﾊｲｸﾞﾚｰﾄﾞﾓﾃﾞﾙ)"
    ]
  },
  {
    "name": "アピナ浜松店",
    "operation_time": "",
    "holiday": "",
    "latitude": "34.76741731",
    "longitude": "137.7080638",
    "tel": "053-430-4800",
    "address": "浜松市中央区葵西2-27-10ロックタウン内",
    "access": "",
    "games": [
      "麻雀格闘倶楽部(ﾊｲｸﾞﾚｰﾄﾞﾓﾃﾞﾙ)"
    ]
  },
  {
    "name": "ポート24浜松店",
    "operation_time": "10:00～24:00",
    "holiday": "無休",
    "latitude": "34.68017431",
    "longitude": "137.6443768",
    "tel": "053-440-5588",
    "address": "浜松市中央区坪井町4183",
    "access": "東名高速浜松西ICから車で15分",
    "games": [
      "麻雀格闘倶楽部(ﾊｲｸﾞﾚｰﾄﾞﾓﾃﾞﾙ)"
    ]
  },
  {
    "name": "めだま屋安中店",
    "operation_time": "",
    "holiday": "",
    "latitude": "36.333805",
    "longitude": "138.95442",
    "tel": "027-321-6918",
    "address": "高崎市藤塚町423",
    "access": "",
    "games": [
      "麻雀格闘倶楽部(ﾊｲｸﾞﾚｰﾄﾞﾓﾃﾞﾙ)"
    ]
  },
  {
    "name": "ユーズランド高崎店",
    "operation_time": "10:00～21:00",
    "holiday": "",
    "latitude": "36.39047889",
    "longitude": "139.0067302",
    "tel": "027-310-9113",
    "address": "高崎市棟高町1400イオン高崎SC2F",
    "access": "",
    "games": [
      "麻雀格闘倶楽部(ﾊｲｸﾞﾚｰﾄﾞﾓﾃﾞﾙ)"
    ]
  },
  {
    "name": "ゲームセンター･コルソ",
    "operation_time": "一部24時間",
    "holiday": "無し",
    "latitude": "36.37885683",
    "longitude": "139.0079872",
    "tel": "027-372-6207",
    "address": "高崎市棟高町1868-135",
    "access": "",
    "games": [
      "麻雀格闘倶楽部(ﾊｲｸﾞﾚｰﾄﾞﾓﾃﾞﾙ)"
    ]
  },
  {
    "name": "楽市楽座サンストリート浜北店",
    "operation_time": "10:00～22:00",
    "holiday": "無し",
    "latitude": "34.79467266",
    "longitude": "137.7607979",
    "tel": "0535-84-6136",
    "address": "浜松市浜名区平口2861サンストリート浜北内 M-207",
    "access": "",
    "games": [
      "麻雀格闘倶楽部(ﾊｲｸﾞﾚｰﾄﾞﾓﾃﾞﾙ)"
    ]
  },
  {
    "name": "ソユーゲームフィールド古川店",
    "operation_time": "",
    "holiday": "",
    "latitude": "38.599076",
    "longitude": "140.974141",
    "tel": "0229-27-1785",
    "address": "大崎市古川沢田字筒場浦15イオンタウン古川内",
    "access": "",
    "games": [
      "麻雀格闘倶楽部(ﾊｲｸﾞﾚｰﾄﾞﾓﾃﾞﾙ)"
    ]
  },
  {
    "name": "タイトーステーション新浜松ザザシティ店",
    "operation_time": "10:00～20:00",
    "holiday": "ザザシティ休館日",
    "latitude": "34.705137",
    "longitude": "137.729441",
    "tel": "053-413-5256",
    "address": "浜松市中央区鍛冶町15ザザシティ浜松西館2F",
    "access": "JR「浜松駅」・遠鉄「新浜松駅」から徒歩5分",
    "games": [
      "麻雀格闘倶楽部(ﾊｲｸﾞﾚｰﾄﾞﾓﾃﾞﾙ)"
    ]
  },
  {
    "name": "群馬レジャーランド高崎駅東口店",
    "operation_time": "一部24時間営業",
    "holiday": "無し",
    "latitude": "36.32992086",
    "longitude": "139.0128661",
    "tel": "027-330-3002",
    "address": "高崎市江木町333-1高崎EXビル2F",
    "access": "JR高崎駅東口徒歩10分",
    "games": [
      "麻雀格闘倶楽部(ﾊｲｸﾞﾚｰﾄﾞﾓﾃﾞﾙ)"
    ]
  },
  {
    "name": "JOYJOY浜松駅かじ町店",
    "operation_time": "",
    "holiday": "",
    "latitude": "34.70621597",
    "longitude": "137.7316549",
    "tel": "053-455-3337",
    "address": "浜松市中央区田町330-20",
    "access": "",
    "games": [
      "麻雀格闘倶楽部(ﾊｲｸﾞﾚｰﾄﾞﾓﾃﾞﾙ)"
    ]
  },
  {
    "name": "群馬レジャーランド前橋店",
    "operation_time": "",
    "holiday": "",
    "latitude": "36.40497647",
    "longitude": "139.0794189",
    "tel": "050-1726-4972",
    "address": "前橋市日吉町4-37-1",
    "access": "",
    "games": [
      "麻雀格闘倶楽部(ﾊｲｸﾞﾚｰﾄﾞﾓﾃﾞﾙ)"
    ]
  },
  {
    "name": "ラウンドワン浜松店",
    "operation_time": "",
    "holiday": "",
    "latitude": "34.73795995",
    "longitude": "137.7638799",
    "tel": "053-461-1101",
    "address": "浜松市中央区天王町諏訪1981-17",
    "access": "",
    "games": [
      "麻雀格闘倶楽部(ﾊｲｸﾞﾚｰﾄﾞﾓﾃﾞﾙ)"
    ]
  },
  {
    "name": "Eau Rouge片貝店",
    "operation_time": "",
    "holiday": "",
    "latitude": "36.39515826",
    "longitude": "139.0967859",
    "tel": "027-233-1187",
    "address": "前橋市西片貝町1-319-3",
    "access": "",
    "games": [
      "麻雀格闘倶楽部(ﾊｲｸﾞﾚｰﾄﾞﾓﾃﾞﾙ)"
    ]
  },
  {
    "name": "ラウンドワン前橋店",
    "operation_time": "",
    "holiday": "",
    "latitude": "36.36888377",
    "longitude": "139.1051864",
    "tel": "027-287-1501",
    "address": "前橋市天川大島町1101-1",
    "access": "",
    "games": [
      "麻雀格闘倶楽部(ﾊｲｸﾞﾚｰﾄﾞﾓﾃﾞﾙ)"
    ]
  },
  {
    "name": "ドライブイン七興",
    "operation_time": "10:00～24:00",
    "holiday": "無し",
    "latitude": "36.26267414",
    "longitude": "139.0410056",
    "tel": "0274-22-3050",
    "address": "藤岡市上落合853",
    "access": "",
    "games": [
      "麻雀格闘倶楽部(ﾊｲｸﾞﾚｰﾄﾞﾓﾃﾞﾙ)"
    ]
  },
  {
    "name": "ゲームパニック甲府",
    "operation_time": "",
    "holiday": "",
    "latitude": "35.64182781",
    "longitude": "138.547239",
    "tel": "080-3350-2893",
    "address": "甲府市国母5-20-24",
    "access": "",
    "games": [
      "麻雀格闘倶楽部(ﾊｲｸﾞﾚｰﾄﾞﾓﾃﾞﾙ)"
    ]
  },
  {
    "name": "アピナ富谷店",
    "operation_time": "",
    "holiday": "",
    "latitude": "38.36528256",
    "longitude": "140.8765988",
    "tel": "022-341-5177",
    "address": "富谷市大清水1-33-1イオンモール109シネマズ富谷1F",
    "access": "",
    "games": [
      "麻雀格闘倶楽部(ﾊｲｸﾞﾚｰﾄﾞﾓﾃﾞﾙ)"
    ]
  },
  {
    "name": "WING玉村店",
    "operation_time": "一部24時間営業",
    "holiday": "無し",
    "latitude": "36.31467022",
    "longitude": "139.1021176",
    "tel": "0270-65-4737",
    "address": "佐波郡玉村町板井1331",
    "access": "",
    "games": [
      "麻雀格闘倶楽部(ﾊｲｸﾞﾚｰﾄﾞﾓﾃﾞﾙ)"
    ]
  },
  {
    "name": "群馬レジャーランド藤岡店",
    "operation_time": "一部24時間営業",
    "holiday": "",
    "latitude": "36.27426745",
    "longitude": "139.0718857",
    "tel": "0274-40-2371",
    "address": "藤岡市中2002-1",
    "access": "県道13号沿い、上信越道藤岡IC北 カーオプション店『ピット100』2階",
    "games": [
      "麻雀格闘倶楽部(ﾊｲｸﾞﾚｰﾄﾞﾓﾃﾞﾙ)"
    ]
  },
  {
    "name": "GAME BANK",
    "operation_time": "9:00～24:00",
    "holiday": "無し",
    "latitude": "38.352801",
    "longitude": "140.877385",
    "tel": "022-776-5677",
    "address": "仙台市泉区大沢2-5-4",
    "access": "東北自動車道 泉インター直ぐ",
    "games": [
      "麻雀格闘倶楽部(ﾊｲｸﾞﾚｰﾄﾞﾓﾃﾞﾙ)"
    ]
  },
  {
    "name": "GiGOイオン仙台中山",
    "operation_time": "",
    "holiday": "",
    "latitude": "38.299061",
    "longitude": "140.828497",
    "tel": "022-347-3139",
    "address": "仙台市泉区南中山1-35-57イオン仙台中山店別館3F",
    "access": "",
    "games": [
      "麻雀格闘倶楽部(ﾊｲｸﾞﾚｰﾄﾞﾓﾃﾞﾙ)"
    ]
  },
  {
    "name": "ラウンドワンスタジアム仙台泉店",
    "operation_time": "",
    "holiday": "",
    "latitude": "38.35192551",
    "longitude": "140.8797545",
    "tel": "022-347-4471",
    "address": "仙台市泉区大沢2-12-4仙台泉インターシティ1F",
    "access": "",
    "games": [
      "麻雀格闘倶楽部(ﾊｲｸﾞﾚｰﾄﾞﾓﾃﾞﾙ)"
    ]
  },
  {
    "name": "インターワールド伊勢崎店",
    "operation_time": "10:00～24:00",
    "holiday": "無し",
    "latitude": "36.3315169",
    "longitude": "139.1624928",
    "tel": "0270-25-4338",
    "address": "伊勢崎市宮子町3425-4",
    "access": "関東自動車道駒形ICから5分。伊勢崎オートレース近く",
    "games": [
      "麻雀格闘倶楽部(ﾊｲｸﾞﾚｰﾄﾞﾓﾃﾞﾙ)"
    ]
  },
  {
    "name": "群馬レジャーランド伊勢崎店",
    "operation_time": "一部24時間営業",
    "holiday": "無し",
    "latitude": "36.31824274",
    "longitude": "139.1723592",
    "tel": "0270-40-5330",
    "address": "伊勢崎市連取町3066-1",
    "access": "伊勢崎市内県道2号線沿い伊勢崎オート近く",
    "games": [
      "麻雀格闘倶楽部(ﾊｲｸﾞﾚｰﾄﾞﾓﾃﾞﾙ)"
    ]
  },
  {
    "name": "ラウンドワンさいたま･上里店",
    "operation_time": "",
    "holiday": "",
    "latitude": "36.259925",
    "longitude": "139.137383",
    "tel": "0495-35-2201",
    "address": "児玉郡上里町大字金久保字周川394-1",
    "access": "",
    "games": [
      "麻雀格闘倶楽部(ﾊｲｸﾞﾚｰﾄﾞﾓﾃﾞﾙ)"
    ]
  },
  {
    "name": "タイトーステーション仙台クリスロード店",
    "operation_time": "9:00～24:00",
    "holiday": "無し",
    "latitude": "38.261006",
    "longitude": "140.875705",
    "tel": "022-262-2541",
    "address": "仙台市青葉区中央2-3-25",
    "access": "JR仙台駅・地下鉄仙台駅より徒歩8分(ハピナ名掛丁アーケード内)",
    "games": [
      "麻雀格闘倶楽部(ﾊｲｸﾞﾚｰﾄﾞﾓﾃﾞﾙ)"
    ]
  },
  {
    "name": "GiGO仙台",
    "operation_time": "",
    "holiday": "",
    "latitude": "38.26181",
    "longitude": "140.87675",
    "tel": "022-211-1922",
    "address": "仙台市青葉区中央2-5-5三経60ビル",
    "access": "",
    "games": [
      "麻雀格闘倶楽部(ﾊｲｸﾞﾚｰﾄﾞﾓﾃﾞﾙ)"
    ]
  },
  {
    "name": "タイトーステーション仙台名掛丁店",
    "operation_time": "9:00～24:00",
    "holiday": "無し",
    "latitude": "38.262028",
    "longitude": "140.879112",
    "tel": "022-215-1664",
    "address": "仙台市青葉区中央1-7-13",
    "access": "JR仙台駅・地下鉄仙台駅より徒歩5分(ハピナ名掛丁アケード内)",
    "games": [
      "麻雀格闘倶楽部(ﾊｲｸﾞﾚｰﾄﾞﾓﾃﾞﾙ)"
    ]
  },
  {
    "name": "タイトーステーション仙台ベガロポリス店",
    "operation_time": "10:00～24:00",
    "holiday": "無し",
    "latitude": "38.21973354",
    "longitude": "140.8479417",
    "tel": "022-307-3685",
    "address": "仙台市太白区西多賀5-24-1",
    "access": "国道286号沿い、JR長町駅より車で10分",
    "games": [
      "麻雀格闘倶楽部(ﾊｲｸﾞﾚｰﾄﾞﾓﾃﾞﾙ)"
    ]
  },
  {
    "name": "ラウンドワン仙台苦竹店",
    "operation_time": "",
    "holiday": "",
    "latitude": "38.26828399",
    "longitude": "140.9172614",
    "tel": "022-788-2581",
    "address": "仙台市宮城野区苦竹1-7-10",
    "access": "",
    "games": [
      "麻雀格闘倶楽部(ﾊｲｸﾞﾚｰﾄﾞﾓﾃﾞﾙ)"
    ]
  },
  {
    "name": "GiGO利府",
    "operation_time": "10:00～24:00",
    "holiday": "無し",
    "latitude": "38.32801132",
    "longitude": "140.9756135",
    "tel": "080-7500-4898",
    "address": "宮城郡利府町加瀬字新前谷地55-1",
    "access": "三陸自動車道 利府中IC下車利府バイパス沿い車で5分",
    "games": [
      "麻雀格闘倶楽部(ﾊｲｸﾞﾚｰﾄﾞﾓﾃﾞﾙ)"
    ]
  },
  {
    "name": "ラウンドワン福島店",
    "operation_time": "",
    "holiday": "",
    "latitude": "37.75259469",
    "longitude": "140.4562354",
    "tel": "024-525-4731",
    "address": "福島市太田町14-18",
    "access": "",
    "games": [
      "麻雀格闘倶楽部(ﾊｲｸﾞﾚｰﾄﾞﾓﾃﾞﾙ)"
    ]
  },
  {
    "name": "サープラ福島あそびタウン",
    "operation_time": "9:00～24:00",
    "holiday": "無し",
    "latitude": "37.75708655",
    "longitude": "140.4603393",
    "tel": "024-526-3536",
    "address": "福島市栄町1-1パワーシティーピポット内",
    "access": "JR福島駅構内",
    "games": [
      "麻雀格闘倶楽部(ﾊｲｸﾞﾚｰﾄﾞﾓﾃﾞﾙ)"
    ]
  },
  {
    "name": "オレンジハット伊勢崎店",
    "operation_time": "10:00～24:00",
    "holiday": "無し",
    "latitude": "36.30163574",
    "longitude": "139.2183803",
    "tel": "0270-24-7751",
    "address": "伊勢崎市北千木町1423",
    "access": "14号沿い日本ビーンズ工場向かい",
    "games": [
      "麻雀格闘倶楽部(ﾊｲｸﾞﾚｰﾄﾞﾓﾃﾞﾙ)"
    ]
  },
  {
    "name": "ゲームワンダーランド2東店",
    "operation_time": "一部24時間",
    "holiday": "無し",
    "latitude": "36.32856",
    "longitude": "139.247267",
    "tel": "027-061-0891",
    "address": "伊勢崎市東小保方町3464-1",
    "access": "291号線沿い流通団地交差点近く",
    "games": [
      "麻雀格闘倶楽部(ﾊｲｸﾞﾚｰﾄﾞﾓﾃﾞﾙ)"
    ]
  },
  {
    "name": "アクツベンディング",
    "operation_time": "一部24時間営業",
    "holiday": "無し",
    "latitude": "36.3241751",
    "longitude": "139.2621714",
    "tel": "0270-62-8525",
    "address": "伊勢崎市東小保方町1225-1",
    "access": "",
    "games": [
      "麻雀格闘倶楽部(ﾊｲｸﾞﾚｰﾄﾞﾓﾃﾞﾙ)"
    ]
  },
  {
    "name": "GiGO福島南",
    "operation_time": "10:00～24:00",
    "holiday": "無し",
    "latitude": "37.72791083",
    "longitude": "140.4671033",
    "tel": "024-544-0280",
    "address": "福島市黒岩字中島7-2",
    "access": "高速福島西ICより車で15分。国道4号線を右折し「黒岩」交差点手前左側。",
    "games": [
      "麻雀格闘倶楽部(ﾊｲｸﾞﾚｰﾄﾞﾓﾃﾞﾙ)"
    ]
  },
  {
    "name": "ゲームコーナー東部",
    "operation_time": "9:00～24:00",
    "holiday": "無し",
    "latitude": "38.25101621",
    "longitude": "140.9438974",
    "tel": "022-287-5880",
    "address": "仙台市若林区六丁の目中町26-60",
    "access": "六丁目の交差点より多賀城方面へ向かい車で5分。産業通り沿い。",
    "games": [
      "麻雀格闘倶楽部(ﾊｲｸﾞﾚｰﾄﾞﾓﾃﾞﾙ)"
    ]
  },
  {
    "name": "GiGO名取",
    "operation_time": "",
    "holiday": "",
    "latitude": "38.1565798",
    "longitude": "140.8882353",
    "tel": "022-384-8950",
    "address": "名取市飯野坂字土城堀57-1",
    "access": "",
    "games": [
      "麻雀格闘倶楽部(ﾊｲｸﾞﾚｰﾄﾞﾓﾃﾞﾙ)"
    ]
  },
  {
    "name": "アップル島田店",
    "operation_time": "",
    "holiday": "",
    "latitude": "34.82659503",
    "longitude": "138.187415",
    "tel": "0547-54-4351",
    "address": "島田市宝来町8-5",
    "access": "",
    "games": [
      "麻雀格闘倶楽部(ﾊｲｸﾞﾚｰﾄﾞﾓﾃﾞﾙ)"
    ]
  },
  {
    "name": "GiGO日和田",
    "operation_time": "",
    "holiday": "",
    "latitude": "37.44821593",
    "longitude": "140.3804189",
    "tel": "070-1458-5583",
    "address": "郡山市日和田町字西中島7-1",
    "access": "",
    "games": [
      "麻雀格闘倶楽部(ﾊｲｸﾞﾚｰﾄﾞﾓﾃﾞﾙ)"
    ]
  },
  {
    "name": "群馬レジャーランド太田店",
    "operation_time": "一部24時間営業",
    "holiday": "無し",
    "latitude": "36.26802219",
    "longitude": "139.3761382",
    "tel": "0276-47-8030",
    "address": "太田市西矢島町162-2",
    "access": "",
    "games": [
      "麻雀格闘倶楽部(ﾊｲｸﾞﾚｰﾄﾞﾓﾃﾞﾙ)"
    ]
  },
  {
    "name": "ユーズランド太田店",
    "operation_time": "10:00～21:00",
    "holiday": "無し",
    "latitude": "36.29327372",
    "longitude": "139.4001931",
    "tel": "0276-47-8722",
    "address": "太田市石原町81イオンモール太田2F",
    "access": "イオン太田SC2F東武伊勢崎線太田駅よりバスで10分東北道館林ICよりR354～R122(太田バイパス)経由約30分",
    "games": [
      "麻雀格闘倶楽部(ﾊｲｸﾞﾚｰﾄﾞﾓﾃﾞﾙ)"
    ]
  },
  {
    "name": "藤枝グランドボウル",
    "operation_time": "",
    "holiday": "",
    "latitude": "34.887348",
    "longitude": "138.293077",
    "tel": "054-641-8381",
    "address": "藤枝市下当間652",
    "access": "",
    "games": [
      "麻雀格闘倶楽部(ﾊｲｸﾞﾚｰﾄﾞﾓﾃﾞﾙ)"
    ]
  },
  {
    "name": "タイトーFステーション郡山オリエントパーク店",
    "operation_time": "",
    "holiday": "",
    "latitude": "37.37465045",
    "longitude": "140.3487929",
    "tel": "024-946-8222",
    "address": "郡山市安積町荒井字大久保35-1",
    "access": "",
    "games": [
      "麻雀格闘倶楽部(ﾊｲｸﾞﾚｰﾄﾞﾓﾃﾞﾙ)"
    ]
  },
  {
    "name": "ドラマ足利店",
    "operation_time": "10:00～24:00",
    "holiday": "無し",
    "latitude": "36.32220259",
    "longitude": "139.4503607",
    "tel": "0284-73-9559",
    "address": "足利市朝倉町244-1",
    "access": "東武伊勢崎線足利市駅より徒歩10分",
    "games": [
      "麻雀格闘倶楽部(ﾊｲｸﾞﾚｰﾄﾞﾓﾃﾞﾙ)"
    ]
  },
  {
    "name": "ラウンドワン静岡･駿河店",
    "operation_time": "",
    "holiday": "",
    "latitude": "34.950991",
    "longitude": "138.360524",
    "tel": "054-201-1601",
    "address": "静岡市駿河区向手越1-10-1",
    "access": "",
    "games": [
      "麻雀格闘倶楽部(ﾊｲｸﾞﾚｰﾄﾞﾓﾃﾞﾙ)"
    ]
  },
  {
    "name": "サープラ焼津あそびタウン",
    "operation_time": "10:00-24:00",
    "holiday": "無し",
    "latitude": "34.878577",
    "longitude": "138.3078542",
    "tel": "054-628-6503",
    "address": "焼津市八楠3-18-5",
    "access": "東名高速焼津IC車で5分",
    "games": [
      "麻雀格闘倶楽部(ﾊｲｸﾞﾚｰﾄﾞﾓﾃﾞﾙ)"
    ]
  },
  {
    "name": "タイトーFステーション静岡店",
    "operation_time": "直接店舗にお問い合わせください",
    "holiday": "直接店舗にお問い合わせください",
    "latitude": "34.97439418",
    "longitude": "138.3832297",
    "tel": "054-251-3200",
    "address": "静岡市葵区呉服町2-5-4ふしみや第2ビル 5F",
    "access": "静岡駅より徒歩8分、新静岡駅より徒歩5分",
    "games": [
      "麻雀格闘倶楽部(ﾊｲｸﾞﾚｰﾄﾞﾓﾃﾞﾙ)"
    ]
  },
  {
    "name": "ラウンドワン郡山店",
    "operation_time": "",
    "holiday": "",
    "latitude": "37.40229903",
    "longitude": "140.3957065",
    "tel": "024-941-3191",
    "address": "郡山市向河原町4-55",
    "access": "",
    "games": [
      "麻雀格闘倶楽部(ﾊｲｸﾞﾚｰﾄﾞﾓﾃﾞﾙ)"
    ]
  },
  {
    "name": "namcoイオンタウン郡山店",
    "operation_time": "",
    "holiday": "",
    "latitude": "37.389283",
    "longitude": "140.390809",
    "tel": "024-943-2715",
    "address": "郡山市松木町2-88イオンタウン郡山",
    "access": "",
    "games": [
      "麻雀格闘倶楽部(ﾊｲｸﾞﾚｰﾄﾞﾓﾃﾞﾙ)"
    ]
  },
  {
    "name": "アップル新北街道店",
    "operation_time": "10:00～24:00",
    "holiday": "無休",
    "latitude": "34.99831803",
    "longitude": "138.4134069",
    "tel": "054-261-9109",
    "address": "静岡市葵区沓谷5-13-4",
    "access": "東名高速静岡ICから車で20分",
    "games": [
      "麻雀格闘倶楽部(ﾊｲｸﾞﾚｰﾄﾞﾓﾃﾞﾙ)"
    ]
  },
  {
    "name": "アミューズパーク郡山店",
    "operation_time": "店舗にてご確認ください",
    "holiday": "無し",
    "latitude": "37.37446344",
    "longitude": "140.3838207",
    "tel": "0249-44-9898",
    "address": "郡山市安積町日出山2-80",
    "access": "JR郡山駅より車で10分。東部幹線沿い。",
    "games": [
      "麻雀格闘倶楽部(ﾊｲｸﾞﾚｰﾄﾞﾓﾃﾞﾙ)"
    ]
  },
  {
    "name": "アップルグランリバー 大井川店",
    "operation_time": "10:00～24:00",
    "holiday": "無し",
    "latitude": "34.80971624",
    "longitude": "138.2732243",
    "tel": "054-270-3244",
    "address": "焼津市下江留1327",
    "access": "東名高速道路、吉田ICより車で10分",
    "games": [
      "麻雀格闘倶楽部(ﾊｲｸﾞﾚｰﾄﾞﾓﾃﾞﾙ)"
    ]
  },
  {
    "name": "ゲームスペースA-3",
    "operation_time": "10:00～24:00",
    "holiday": "無し",
    "latitude": "37.12433442",
    "longitude": "140.1824915",
    "tel": "0248-23-3421",
    "address": "西白河郡西郷村豊作西15-16-17",
    "access": "新白河駅高原口より徒歩3分",
    "games": [
      "麻雀格闘倶楽部(ﾊｲｸﾞﾚｰﾄﾞﾓﾃﾞﾙ)"
    ]
  },
  {
    "name": "ゲームインプリンス",
    "operation_time": "10:00～24:00",
    "holiday": "無休",
    "latitude": "35.02415636",
    "longitude": "138.4798001",
    "tel": "0543-64-8012",
    "address": "静岡市清水区天神1-2-6",
    "access": "東名高速静岡ICから車で30分",
    "games": [
      "麻雀格闘倶楽部(ﾊｲｸﾞﾚｰﾄﾞﾓﾃﾞﾙ)"
    ]
  },
  {
    "name": "大田原スポーツランド",
    "operation_time": "10:00～翌2:00",
    "holiday": "無し",
    "latitude": "36.85195131",
    "longitude": "139.9934495",
    "tel": "0287-36-7137",
    "address": "那須塩原市一区町104-60",
    "access": "大田原ゴルフセンター入口付近(パチンコニラク前)",
    "games": [
      "麻雀格闘倶楽部(ﾊｲｸﾞﾚｰﾄﾞﾓﾃﾞﾙ)"
    ]
  },
  {
    "name": "namco熊谷店",
    "operation_time": "",
    "holiday": "",
    "latitude": "36.13883458",
    "longitude": "139.395236",
    "tel": "048-527-3675",
    "address": "熊谷市銀座2-97",
    "access": "",
    "games": [
      "麻雀格闘倶楽部(ﾊｲｸﾞﾚｰﾄﾞﾓﾃﾞﾙ)"
    ]
  },
  {
    "name": "サープラ富士あそびタウン",
    "operation_time": "10:00～24:00 土日祝9:00～24:00",
    "holiday": "無し",
    "latitude": "35.16272123",
    "longitude": "138.6694286",
    "tel": "0545-67-7733",
    "address": "富士市永田町2-94",
    "access": "東名高速富士I.C車で10分",
    "games": [
      "麻雀格闘倶楽部(ﾊｲｸﾞﾚｰﾄﾞﾓﾃﾞﾙ)"
    ]
  },
  {
    "name": "namcoフェドラP&D佐野店",
    "operation_time": "10:00～23:00 土日祝9:00～23:00",
    "holiday": "無し",
    "latitude": "36.29729",
    "longitude": "139.605644",
    "tel": "0283-85-9518",
    "address": "佐野市高萩町1340",
    "access": "",
    "games": [
      "麻雀格闘倶楽部(ﾊｲｸﾞﾚｰﾄﾞﾓﾃﾞﾙ)"
    ]
  },
  {
    "name": "ラウンドワン富士店",
    "operation_time": "",
    "holiday": "",
    "latitude": "35.15310644",
    "longitude": "138.6938016",
    "tel": "0545-51-3636",
    "address": "富士市八代町4-15",
    "access": "",
    "games": [
      "麻雀格闘倶楽部(ﾊｲｸﾞﾚｰﾄﾞﾓﾃﾞﾙ)"
    ]
  },
  {
    "name": "シーサイドリゾート",
    "operation_time": "10:00～24:00",
    "holiday": "無し",
    "latitude": "36.56327652",
    "longitude": "139.8604649",
    "tel": "028-632-5006",
    "address": "宇都宮市睦町7-3",
    "access": "鹿沼街道沿い",
    "games": [
      "麻雀格闘倶楽部(ﾊｲｸﾞﾚｰﾄﾞﾓﾃﾞﾙ)"
    ]
  },
  {
    "name": "ラウンドワンさいたま･鴻巣店",
    "operation_time": "",
    "holiday": "",
    "latitude": "36.08064011",
    "longitude": "139.4902201",
    "tel": "048-595-2001",
    "address": "鴻巣市箕田3163-7",
    "access": "",
    "games": [
      "麻雀格闘倶楽部(ﾊｲｸﾞﾚｰﾄﾞﾓﾃﾞﾙ)"
    ]
  },
  {
    "name": "ラウンドワン宇都宮店",
    "operation_time": "",
    "holiday": "",
    "latitude": "36.54080987",
    "longitude": "139.8868656",
    "tel": "028-614-8171",
    "address": "宇都宮市江曽島町2072-1",
    "access": "",
    "games": [
      "麻雀格闘倶楽部(ﾊｲｸﾞﾚｰﾄﾞﾓﾃﾞﾙ)"
    ]
  },
  {
    "name": "タイトーステーション宇都宮ベルモール店",
    "operation_time": "10:00～21:00",
    "holiday": "無し",
    "latitude": "36.55605376",
    "longitude": "139.9281106",
    "tel": "028-613-1358",
    "address": "宇都宮市陽東6-2-1ベルモール宇都宮2F",
    "access": "宇都宮駅東口から車で10分",
    "games": [
      "麻雀格闘倶楽部(ﾊｲｸﾞﾚｰﾄﾞﾓﾃﾞﾙ)"
    ]
  },
  {
    "name": "ユーズランド日の出店",
    "operation_time": "10:00～21:00",
    "holiday": "",
    "latitude": "35.73493237",
    "longitude": "139.2750782",
    "tel": "042-588-8177",
    "address": "西多摩郡日の出町大字平井字三吉野桜木237-3 3F",
    "access": "",
    "games": [
      "麻雀格闘倶楽部(ﾊｲｸﾞﾚｰﾄﾞﾓﾃﾞﾙ)"
    ]
  },
  {
    "name": "インターパークプラスワン 宇都宮店",
    "operation_time": "9:00～24:00",
    "holiday": "無し",
    "latitude": "36.48822111",
    "longitude": "139.9053211",
    "tel": "028-657-6789",
    "address": "宇都宮市インターパーク6-5-1",
    "access": "国道4号線、北関東自動車道、宇都宮上三川インターインター降りてすぐ",
    "games": [
      "麻雀格闘倶楽部(ﾊｲｸﾞﾚｰﾄﾞﾓﾃﾞﾙ)"
    ]
  },
  {
    "name": "ラウンドワン入間店",
    "operation_time": "",
    "holiday": "",
    "latitude": "35.82812299",
    "longitude": "139.3755366",
    "tel": "042-960-1521",
    "address": "入間市小谷田3-7-25",
    "access": "",
    "games": [
      "麻雀格闘倶楽部(ﾊｲｸﾞﾚｰﾄﾞﾓﾃﾞﾙ)"
    ]
  },
  {
    "name": "新狭山グランドボウル",
    "operation_time": "",
    "holiday": "",
    "latitude": "35.878515",
    "longitude": "139.438562",
    "tel": "04-2952-2111",
    "address": "狭山市新狭山1-1-9",
    "access": "",
    "games": [
      "麻雀格闘倶楽部(ﾊｲｸﾞﾚｰﾄﾞﾓﾃﾞﾙ)"
    ]
  },
  {
    "name": "ドラマ瑞穂店",
    "operation_time": "10:00～24:00",
    "holiday": "無し",
    "latitude": "35.76337213",
    "longitude": "139.3568934",
    "tel": "042-556-6605",
    "address": "西多摩郡瑞穂町武蔵382-1",
    "access": "JR八高線「箱根ヶ崎駅」から武蔵村山市方面に徒歩25分",
    "games": [
      "麻雀格闘倶楽部(ﾊｲｸﾞﾚｰﾄﾞﾓﾃﾞﾙ)"
    ]
  },
  {
    "name": "タイトーFステーションクレアモール川越店",
    "operation_time": "",
    "holiday": "",
    "latitude": "35.91384483",
    "longitude": "139.482921",
    "tel": "049-298-8963",
    "address": "川越市新富町2-1-13本川越SSビル1-4F",
    "access": "",
    "games": [
      "麻雀格闘倶楽部(ﾊｲｸﾞﾚｰﾄﾞﾓﾃﾞﾙ)"
    ]
  },
  {
    "name": "アピナ小山店",
    "operation_time": "10:00～24:00",
    "holiday": "無し",
    "latitude": "36.300419",
    "longitude": "139.809126",
    "tel": "0285-31-0050",
    "address": "小山市駅南町4-27-18",
    "access": "国道50号線沿い駅南町交差点",
    "games": [
      "麻雀格闘倶楽部(ﾊｲｸﾞﾚｰﾄﾞﾓﾃﾞﾙ)"
    ]
  },
  {
    "name": "ゲームパドック プラスワン",
    "operation_time": "9:00～24:00",
    "holiday": "無し",
    "latitude": "36.2067047",
    "longitude": "139.7580433",
    "tel": "0280-98-5161",
    "address": "古河市小堤1916-1",
    "access": "国道125号、古河方面から下妻方面に走行、新幹線のガードをくくって500m左手",
    "games": [
      "麻雀格闘倶楽部(ﾊｲｸﾞﾚｰﾄﾞﾓﾃﾞﾙ)"
    ]
  },
  {
    "name": "サープラ沼津あそびタウン",
    "operation_time": "10:00～24:00",
    "holiday": "無し",
    "latitude": "35.10266451",
    "longitude": "138.8598883",
    "tel": "055-926-7739",
    "address": "沼津市大手町1-1-5",
    "access": "JR沼津駅徒歩5分",
    "games": [
      "麻雀格闘倶楽部(ﾊｲｸﾞﾚｰﾄﾞﾓﾃﾞﾙ)"
    ]
  },
  {
    "name": "沼津バッティングスタジアム",
    "operation_time": "10:00～24:00",
    "holiday": "無し",
    "latitude": "35.12119847",
    "longitude": "138.8770371",
    "tel": "055-923-4199",
    "address": "沼津市岡一色三竹道19-2",
    "access": "",
    "games": [
      "麻雀格闘倶楽部(ﾊｲｸﾞﾚｰﾄﾞﾓﾃﾞﾙ)"
    ]
  },
  {
    "name": "ラウンドワン武蔵村山店",
    "operation_time": "",
    "holiday": "",
    "latitude": "35.73563714",
    "longitude": "139.3826993",
    "tel": "042-520-3211",
    "address": "武蔵村山市伊奈平3-1-1",
    "access": "",
    "games": [
      "麻雀格闘倶楽部(ﾊｲｸﾞﾚｰﾄﾞﾓﾃﾞﾙ)"
    ]
  },
  {
    "name": "ラウンドワンさいたま･栗橋店",
    "operation_time": "",
    "holiday": "",
    "latitude": "36.12348469",
    "longitude": "139.7152159",
    "tel": "0480-55-0831",
    "address": "久喜市小右衛門192-1",
    "access": "",
    "games": [
      "麻雀格闘倶楽部(ﾊｲｸﾞﾚｰﾄﾞﾓﾃﾞﾙ)"
    ]
  },
  {
    "name": "ウェアハウス上尾店",
    "operation_time": "10:00～24:00",
    "holiday": "無し",
    "latitude": "35.98142891",
    "longitude": "139.5998843",
    "tel": "048-770-3332",
    "address": "上尾市二ツ宮1044",
    "access": "R17号より蓮田、伊奈方面車で3分",
    "games": [
      "麻雀格闘倶楽部(ﾊｲｸﾞﾚｰﾄﾞﾓﾃﾞﾙ)"
    ]
  },
  {
    "name": "ゲームプラザセントラル八王子店",
    "operation_time": "10:00～翌1:00",
    "holiday": "無し",
    "latitude": "35.65802575",
    "longitude": "139.338208",
    "tel": "0426-44-0078",
    "address": "八王子市東町12-15第5セントラルビル",
    "access": "JR八王子駅徒歩1分",
    "games": [
      "麻雀格闘倶楽部(ﾊｲｸﾞﾚｰﾄﾞﾓﾃﾞﾙ)"
    ]
  },
  {
    "name": "ラウンドワン上尾店",
    "operation_time": "",
    "holiday": "",
    "latitude": "35.98574121",
    "longitude": "139.6078308",
    "tel": "048-778-3411",
    "address": "上尾市大字平塚917-1",
    "access": "",
    "games": [
      "麻雀格闘倶楽部(ﾊｲｸﾞﾚｰﾄﾞﾓﾃﾞﾙ)"
    ]
  },
  {
    "name": "シルクハット八王子",
    "operation_time": "10:00～24:45",
    "holiday": "",
    "latitude": "35.65636374",
    "longitude": "139.3384725",
    "tel": "",
    "address": "八王子市旭町2-5八王子ツインタワービル3F",
    "access": "JR八王子駅前",
    "games": [
      "麻雀格闘倶楽部(ﾊｲｸﾞﾚｰﾄﾞﾓﾃﾞﾙ)"
    ]
  },
  {
    "name": "アミューズメントフィールドバイヨン",
    "operation_time": "10:00～24:00",
    "holiday": "無し",
    "latitude": "35.85617882",
    "longitude": "139.522425",
    "tel": "0492-65-1400",
    "address": "ふじみ野市うれし野2-16-1LCモールうれし野2F",
    "access": "東武東上線「ふじみ野」駅徒歩6分ショッピングモールリズム横",
    "games": [
      "麻雀格闘倶楽部(ﾊｲｸﾞﾚｰﾄﾞﾓﾃﾞﾙ)"
    ]
  },
  {
    "name": "ドラマ八王子高倉店",
    "operation_time": "10:00～24:00",
    "holiday": "無し",
    "latitude": "35.66506526",
    "longitude": "139.3664795",
    "tel": "0426-45-7050",
    "address": "八王子市高倉町55-4",
    "access": "国道20号、八王子市高倉町「高倉町西」交差点を日野バイパス豊田方面右手",
    "games": [
      "麻雀格闘倶楽部(ﾊｲｸﾞﾚｰﾄﾞﾓﾃﾞﾙ)"
    ]
  },
  {
    "name": "ラウンドワン所沢店",
    "operation_time": "",
    "holiday": "",
    "latitude": "35.78935214",
    "longitude": "139.4700049",
    "tel": "04-2940-8631",
    "address": "所沢市東町5-22TOCOTOCO SQUARE6F",
    "access": "",
    "games": [
      "麻雀格闘倶楽部(ﾊｲｸﾞﾚｰﾄﾞﾓﾃﾞﾙ)"
    ]
  },
  {
    "name": "タイトーステーション所沢店",
    "operation_time": "09:00～24:00",
    "holiday": "無し",
    "latitude": "35.7881",
    "longitude": "139.47243",
    "tel": "04-2925-9071",
    "address": "所沢市日吉町3-7",
    "access": "所沢駅西口プロペ通りを徒歩3分",
    "games": [
      "麻雀格闘倶楽部(ﾊｲｸﾞﾚｰﾄﾞﾓﾃﾞﾙ)"
    ]
  },
  {
    "name": "タイトーステーション立川北口店",
    "operation_time": "",
    "holiday": "",
    "latitude": "35.699058",
    "longitude": "139.412162",
    "tel": "042-512-9651",
    "address": "立川市曙町2-4-5OSJ TACHIKAWA2･3F",
    "access": "",
    "games": [
      "麻雀格闘倶楽部(ﾊｲｸﾞﾚｰﾄﾞﾓﾃﾞﾙ)"
    ]
  },
  {
    "name": "セスパ東大宮店",
    "operation_time": "一部24時間営業",
    "holiday": "無し",
    "latitude": "35.95896242",
    "longitude": "139.6287925",
    "tel": "048-723-0727",
    "address": "上尾市原市4154",
    "access": "国道16号線原市陸橋近く",
    "games": [
      "麻雀格闘倶楽部(ﾊｲｸﾞﾚｰﾄﾞﾓﾃﾞﾙ)"
    ]
  },
  {
    "name": "ウェアハウス三橋店",
    "operation_time": "一部24時間営業",
    "holiday": "無し",
    "latitude": "35.91589833",
    "longitude": "139.5959286",
    "tel": "048-795-8380",
    "address": "さいたま市西区三橋6-955-1",
    "access": "国道17号バイパス三橋六丁目交差点",
    "games": [
      "麻雀格闘倶楽部(ﾊｲｸﾞﾚｰﾄﾞﾓﾃﾞﾙ)"
    ]
  },
  {
    "name": "インターワールド幸手店",
    "operation_time": "",
    "holiday": "",
    "latitude": "36.05714632",
    "longitude": "139.7144119",
    "tel": "0480-47-0540",
    "address": "幸手市上高野2142-1",
    "access": "",
    "games": [
      "麻雀格闘倶楽部(ﾊｲｸﾞﾚｰﾄﾞﾓﾃﾞﾙ)"
    ]
  },
  {
    "name": "アピナ橋本店",
    "operation_time": "10:00～24:00",
    "holiday": "無し",
    "latitude": "35.597682",
    "longitude": "139.337035",
    "tel": "042-703-6033",
    "address": "相模原市緑区西橋本5-1-1ラ･フロール駐車場棟1F",
    "access": "橋本駅から徒歩10分 八王子バイパスから津久井街道へ繋がる側道に入ってすぐ",
    "games": [
      "麻雀格闘倶楽部(ﾊｲｸﾞﾚｰﾄﾞﾓﾃﾞﾙ)"
    ]
  },
  {
    "name": "埼玉スポーツセンター内スクウェアワン サイスポ店",
    "operation_time": "",
    "holiday": "",
    "latitude": "35.823129",
    "longitude": "139.531631",
    "tel": "04-2902-6335",
    "address": "所沢市南永井1116",
    "access": "",
    "games": [
      "麻雀格闘倶楽部(ﾊｲｸﾞﾚｰﾄﾞﾓﾃﾞﾙ)"
    ]
  },
  {
    "name": "ゲームインファッツ",
    "operation_time": "",
    "holiday": "無し",
    "latitude": "35.748627",
    "longitude": "139.471057",
    "tel": "042-391-0095",
    "address": "東村山市栄町2-22-21南ビル1F",
    "access": "",
    "games": [
      "麻雀格闘倶楽部(ﾊｲｸﾞﾚｰﾄﾞﾓﾃﾞﾙ)"
    ]
  },
  {
    "name": "ビッグボウル杉戸",
    "operation_time": "10:00～翌1:00",
    "holiday": "無し",
    "latitude": "36.04028926",
    "longitude": "139.720837",
    "tel": "0480-34-7870",
    "address": "北葛飾郡杉戸町杉戸2338",
    "access": "東武伊勢崎線東武動物公園駅より徒歩30分 国道4号線沿い",
    "games": [
      "麻雀格闘倶楽部(ﾊｲｸﾞﾚｰﾄﾞﾓﾃﾞﾙ)"
    ]
  },
  {
    "name": "ラウンドワン大宮店",
    "operation_time": "",
    "holiday": "",
    "latitude": "35.91078012",
    "longitude": "139.6254963",
    "tel": "048-658-5666",
    "address": "さいたま市大宮区宮町4-90-7",
    "access": "",
    "games": [
      "麻雀格闘倶楽部(ﾊｲｸﾞﾚｰﾄﾞﾓﾃﾞﾙ)"
    ]
  },
  {
    "name": "埼玉レジャーランド大宮駅東口店",
    "operation_time": "",
    "holiday": "",
    "latitude": "35.90800635",
    "longitude": "139.6245445",
    "tel": "048-788-4340",
    "address": "さいたま市大宮区宮町1-8大宮セントラルビルB1F-2F",
    "access": "",
    "games": [
      "麻雀格闘倶楽部(ﾊｲｸﾞﾚｰﾄﾞﾓﾃﾞﾙ)"
    ]
  },
  {
    "name": "埼玉レジャーランド大宮ラクーン店",
    "operation_time": "",
    "holiday": "",
    "latitude": "35.90775385",
    "longitude": "139.6256741",
    "tel": "048-871-5539",
    "address": "さいたま市大宮区宮町1-60大宮ラクーン5F",
    "access": "",
    "games": [
      "麻雀格闘倶楽部(ﾊｲｸﾞﾚｰﾄﾞﾓﾃﾞﾙ)"
    ]
  },
  {
    "name": "タイトーステーション大宮店",
    "operation_time": "9:00～翌1:00",
    "holiday": "無し",
    "latitude": "35.907441",
    "longitude": "139.625505",
    "tel": "048-782-5461",
    "address": "さいたま市大宮区大門町1-1",
    "access": "大宮駅東口徒歩1分",
    "games": [
      "麻雀格闘倶楽部(ﾊｲｸﾞﾚｰﾄﾞﾓﾃﾞﾙ)"
    ]
  },
  {
    "name": "フリスポ下館",
    "operation_time": "",
    "holiday": "",
    "latitude": "36.30255879",
    "longitude": "139.9564543",
    "tel": "0296-22-7552",
    "address": "筑西市神分472",
    "access": "国道50号を下館から小山方面へ10分",
    "games": [
      "麻雀格闘倶楽部(ﾊｲｸﾞﾚｰﾄﾞﾓﾃﾞﾙ)"
    ]
  },
  {
    "name": "GiGO相模原",
    "operation_time": "10:00～24:00",
    "holiday": "無し",
    "latitude": "35.57350902",
    "longitude": "139.3710322",
    "tel": "080-7465-6268",
    "address": "相模原市中央区中央2-1-5ムトス内",
    "access": "JR横浜線相模原駅徒歩15分国道16号線近く",
    "games": [
      "麻雀格闘倶楽部(ﾊｲｸﾞﾚｰﾄﾞﾓﾃﾞﾙ)"
    ]
  },
  {
    "name": "タイトーステーション国分寺店",
    "operation_time": "",
    "holiday": "",
    "latitude": "35.701889",
    "longitude": "139.480156",
    "tel": "042-401-0592",
    "address": "国分寺市本町3-5-11",
    "access": "",
    "games": [
      "麻雀格闘倶楽部(ﾊｲｸﾞﾚｰﾄﾞﾓﾃﾞﾙ)"
    ]
  },
  {
    "name": "Amusement&Game MAGHREB",
    "operation_time": "10:00～24:00",
    "holiday": "無し",
    "latitude": "35.624024",
    "longitude": "139.423196",
    "tel": "042-371-5556",
    "address": "多摩市落合1-39-2マグレブビル1F",
    "access": "京王線・小田急線 多摩センター駅 徒歩3分/多摩モノレール多摩センター駅 徒歩1分",
    "games": [
      "麻雀格闘倶楽部(ﾊｲｸﾞﾚｰﾄﾞﾓﾃﾞﾙ)"
    ]
  },
  {
    "name": "ウェアハウス岩槻店",
    "operation_time": "7:00～23:45",
    "holiday": "無し",
    "latitude": "35.94092949",
    "longitude": "139.6859268",
    "tel": "048-758-8755",
    "address": "さいたま市岩槻区加倉3-3-63",
    "access": "岩槻IC降りて直ぐ",
    "games": [
      "麻雀格闘倶楽部(ﾊｲｸﾞﾚｰﾄﾞﾓﾃﾞﾙ)"
    ]
  },
  {
    "name": "永山コパボウル",
    "operation_time": "",
    "holiday": "",
    "latitude": "35.63150676",
    "longitude": "139.4479486",
    "tel": "042-339-9966",
    "address": "多摩市永山1-3-4ヒューマックスパビリオン6F",
    "access": "",
    "games": [
      "麻雀格闘倶楽部(ﾊｲｸﾞﾚｰﾄﾞﾓﾃﾞﾙ)"
    ]
  },
  {
    "name": "ラウンドワン府中本町駅前店",
    "operation_time": "",
    "holiday": "",
    "latitude": "35.667312",
    "longitude": "139.477387",
    "tel": "042-340-4901",
    "address": "府中市本町1-13-3カネタビル",
    "access": "",
    "games": [
      "麻雀格闘倶楽部(ﾊｲｸﾞﾚｰﾄﾞﾓﾃﾞﾙ)"
    ]
  },
  {
    "name": "ラウンドワン朝霞店",
    "operation_time": "",
    "holiday": "",
    "latitude": "35.79026242",
    "longitude": "139.5796756",
    "tel": "048-450-1822",
    "address": "朝霞市膝折町2-16-10",
    "access": "",
    "games": [
      "麻雀格闘倶楽部(ﾊｲｸﾞﾚｰﾄﾞﾓﾃﾞﾙ)"
    ]
  },
  {
    "name": "埼玉レジャーランド春日部店",
    "operation_time": "一部24時間",
    "holiday": "無し",
    "latitude": "35.95940469",
    "longitude": "139.7289621",
    "tel": "048-763-4061",
    "address": "春日部市大字増富字谷際163-1",
    "access": "国道16号線沿い春日部市増富地内",
    "games": [
      "麻雀格闘倶楽部(ﾊｲｸﾞﾚｰﾄﾞﾓﾃﾞﾙ)"
    ]
  },
  {
    "name": "タイトーステーション小田原店",
    "operation_time": "10:00～24:00",
    "holiday": "無し",
    "latitude": "35.25494514",
    "longitude": "139.1561641",
    "tel": "0465-23-2473",
    "address": "小田原市栄町1-3-12",
    "access": "小田原駅東口を出てすぐ",
    "games": [
      "麻雀格闘倶楽部(ﾊｲｸﾞﾚｰﾄﾞﾓﾃﾞﾙ)"
    ]
  },
  {
    "name": "タイトーステーション小田原シティモール店",
    "operation_time": "10:00～24:00",
    "holiday": "無し",
    "latitude": "35.281376",
    "longitude": "139.193786",
    "tel": "0465-45-5052",
    "address": "小田原市前川120小田原シティーモールC棟2F",
    "access": "JR鴨宮駅より、徒歩約20分。",
    "games": [
      "麻雀格闘倶楽部(ﾊｲｸﾞﾚｰﾄﾞﾓﾃﾞﾙ)"
    ]
  },
  {
    "name": "ギガステーション戸田店",
    "operation_time": "10:00～24:00",
    "holiday": "無し",
    "latitude": "35.83477805",
    "longitude": "139.6530213",
    "tel": "048-421-1201",
    "address": "戸田市美女木943-7",
    "access": "",
    "games": [
      "麻雀格闘倶楽部(ﾊｲｸﾞﾚｰﾄﾞﾓﾃﾞﾙ)"
    ]
  },
  {
    "name": "タイトーステーション和光店",
    "operation_time": "10:00～24:00",
    "holiday": "無し",
    "latitude": "35.78667068",
    "longitude": "139.613806",
    "tel": "048-465-7161",
    "address": "和光市丸山台1-4-5",
    "access": "東武東上線・和光市駅より徒歩5分",
    "games": [
      "麻雀格闘倶楽部(ﾊｲｸﾞﾚｰﾄﾞﾓﾃﾞﾙ)"
    ]
  },
  {
    "name": "神奈川レジャーランド厚木店",
    "operation_time": "一部24時間営業",
    "holiday": "無し",
    "latitude": "35.44802433",
    "longitude": "139.3431365",
    "tel": "050-1722-4336",
    "address": "厚木市戸室5-31-1",
    "access": "小田急本厚木駅よりバスにてアンリツ前バス停下車徒歩1分",
    "games": [
      "麻雀格闘倶楽部(ﾊｲｸﾞﾚｰﾄﾞﾓﾃﾞﾙ)"
    ]
  },
  {
    "name": "ユーズランド春日部店",
    "operation_time": "10:00～21:00",
    "holiday": "施設の営業日に準じる",
    "latitude": "35.987895",
    "longitude": "139.788478",
    "tel": "048-745-2501",
    "address": "春日部市下柳420-1イオンモール春日部2F 2037",
    "access": "庄和インターそば",
    "games": [
      "麻雀格闘倶楽部(ﾊｲｸﾞﾚｰﾄﾞﾓﾃﾞﾙ)"
    ]
  },
  {
    "name": "ラウンドワンわらび店",
    "operation_time": "",
    "holiday": "",
    "latitude": "35.83078787",
    "longitude": "139.6742521",
    "tel": "048-447-8080",
    "address": "蕨市北町5-1-6",
    "access": "",
    "games": [
      "麻雀格闘倶楽部(ﾊｲｸﾞﾚｰﾄﾞﾓﾃﾞﾙ)"
    ]
  },
  {
    "name": "GiGO成増",
    "operation_time": "",
    "holiday": "",
    "latitude": "35.7774666",
    "longitude": "139.6312648",
    "tel": "070-1459-3563",
    "address": "板橋区成増2-17-24五曠第6ビルB1F-1F",
    "access": "",
    "games": [
      "麻雀格闘倶楽部(ﾊｲｸﾞﾚｰﾄﾞﾓﾃﾞﾙ)"
    ]
  },
  {
    "name": "ラウンドワン町田店",
    "operation_time": "",
    "holiday": "",
    "latitude": "35.54409488",
    "longitude": "139.4432407",
    "tel": "042-710-0091",
    "address": "町田市森野1-13-14",
    "access": "",
    "games": [
      "麻雀格闘倶楽部(ﾊｲｸﾞﾚｰﾄﾞﾓﾃﾞﾙ)"
    ]
  },
  {
    "name": "GiGO相模大野",
    "operation_time": "",
    "holiday": "",
    "latitude": "35.532177",
    "longitude": "139.436075",
    "tel": "042-741-8195",
    "address": "相模原市南区相模大野3-13-2フレスコビル3F",
    "access": "",
    "games": [
      "麻雀格闘倶楽部(ﾊｲｸﾞﾚｰﾄﾞﾓﾃﾞﾙ)"
    ]
  },
  {
    "name": "GiGO本厚木",
    "operation_time": "",
    "holiday": "",
    "latitude": "35.439044",
    "longitude": "139.361882",
    "tel": "0462-23-7157",
    "address": "厚木市中町4-15-9",
    "access": "",
    "games": [
      "麻雀格闘倶楽部(ﾊｲｸﾞﾚｰﾄﾞﾓﾃﾞﾙ)"
    ]
  },
  {
    "name": "シルクハット本厚木",
    "operation_time": "9:00～23:45",
    "holiday": "無し",
    "latitude": "35.44024066",
    "longitude": "139.3629959",
    "tel": "",
    "address": "厚木市中町3-4-22第二会田ビル2F",
    "access": "小田急「本厚木駅」北口より徒歩1分 第二会田ビル",
    "games": [
      "麻雀格闘倶楽部(ﾊｲｸﾞﾚｰﾄﾞﾓﾃﾞﾙ)"
    ]
  },
  {
    "name": "ピンクパンサー 下妻店",
    "operation_time": "12:00～24:00",
    "holiday": "無し",
    "latitude": "36.17067062",
    "longitude": "139.9664734",
    "tel": "0296-43-6880",
    "address": "下妻市小島884-10",
    "access": "国道旧294号線沿い",
    "games": [
      "麻雀格闘倶楽部(ﾊｲｸﾞﾚｰﾄﾞﾓﾃﾞﾙ)"
    ]
  },
  {
    "name": "東京レジャーランド吉祥寺店",
    "operation_time": "",
    "holiday": "",
    "latitude": "35.7036243",
    "longitude": "139.5786419",
    "tel": "0422-27-2200",
    "address": "武蔵野市吉祥寺本町1-3-7YSビル",
    "access": "",
    "games": [
      "麻雀格闘倶楽部(ﾊｲｸﾞﾚｰﾄﾞﾓﾃﾞﾙ)"
    ]
  },
  {
    "name": "ラウンドワン吉祥寺店",
    "operation_time": "",
    "holiday": "",
    "latitude": "35.706276",
    "longitude": "139.580884",
    "tel": "0422-29-1051",
    "address": "武蔵野市吉祥寺本町1-11-22",
    "access": "",
    "games": [
      "麻雀格闘倶楽部(ﾊｲｸﾞﾚｰﾄﾞﾓﾃﾞﾙ)"
    ]
  },
  {
    "name": "タイトーFステーション吉祥寺JOY",
    "operation_time": "",
    "holiday": "",
    "latitude": "35.70436",
    "longitude": "139.57963",
    "tel": "090-7265-2005",
    "address": "武蔵野市吉祥寺本町1-8-23河田ビル",
    "access": "",
    "games": [
      "麻雀格闘倶楽部(ﾊｲｸﾞﾚｰﾄﾞﾓﾃﾞﾙ)"
    ]
  },
  {
    "name": "タイトーステーション町田店",
    "operation_time": "10:00～24:00",
    "holiday": "無し",
    "latitude": "35.542593",
    "longitude": "139.448333",
    "tel": "042-739-6196",
    "address": "町田市原町田6-21-23松山ビル1F",
    "access": "JR横浜線町田駅より徒歩3分・小田急線町田駅より徒歩5分",
    "games": [
      "麻雀格闘倶楽部(ﾊｲｸﾞﾚｰﾄﾞﾓﾃﾞﾙ)"
    ]
  },
  {
    "name": "GiGO調布",
    "operation_time": "",
    "holiday": "",
    "latitude": "35.65098715",
    "longitude": "139.5442321",
    "tel": "070-1517-3693",
    "address": "調布市布田4-2-4",
    "access": "",
    "games": [
      "麻雀格闘倶楽部(ﾊｲｸﾞﾚｰﾄﾞﾓﾃﾞﾙ)"
    ]
  },
  {
    "name": "ウェアハウス越谷店",
    "operation_time": "10:00～24:00",
    "holiday": "無し",
    "latitude": "35.91195206",
    "longitude": "139.7637557",
    "tel": "048-973-4311",
    "address": "越谷市大字南荻島841-1",
    "access": "越谷岩槻線沿い、国道4号から車で1分",
    "games": [
      "麻雀格闘倶楽部(ﾊｲｸﾞﾚｰﾄﾞﾓﾃﾞﾙ)"
    ]
  },
  {
    "name": "タイトーステーション海老名ビナウォーク店",
    "operation_time": "10:00～24:00",
    "holiday": "無し",
    "latitude": "35.452455",
    "longitude": "139.395834",
    "tel": "046-292-5160",
    "address": "海老名市中央1-18-1ビナウォーク6番館2F",
    "access": "JR相模線、相鉄線、小田急線、海老名駅より徒歩5分",
    "games": [
      "麻雀格闘倶楽部(ﾊｲｸﾞﾚｰﾄﾞﾓﾃﾞﾙ)"
    ]
  },
  {
    "name": "ミラクル イン 中村橋",
    "operation_time": "10:00～24:00",
    "holiday": "無し",
    "latitude": "35.73696054",
    "longitude": "139.6383659",
    "tel": "03-5933-9312",
    "address": "練馬区貫井1-1-2",
    "access": "西武池袋線中村橋駅徒歩2分",
    "games": [
      "麻雀格闘倶楽部(ﾊｲｸﾞﾚｰﾄﾞﾓﾃﾞﾙ)"
    ]
  },
  {
    "name": "テクモピア座間店",
    "operation_time": "",
    "holiday": "",
    "latitude": "35.48001079",
    "longitude": "139.431891",
    "tel": "046-205-4719",
    "address": "座間市ひばりが丘4-11-48",
    "access": "",
    "games": [
      "麻雀格闘倶楽部(ﾊｲｸﾞﾚｰﾄﾞﾓﾃﾞﾙ)"
    ]
  },
  {
    "name": "アピナ荻窪店",
    "operation_time": "10:00～24:00 金土祝前日10:00～25:00",
    "holiday": "",
    "latitude": "35.705",
    "longitude": "139.618163",
    "tel": "03-3393-6665",
    "address": "杉並区上荻1-13-10ハクサンビル",
    "access": "",
    "games": [
      "麻雀格闘倶楽部(ﾊｲｸﾞﾚｰﾄﾞﾓﾃﾞﾙ)"
    ]
  },
  {
    "name": "ラウンドワン板橋店",
    "operation_time": "",
    "holiday": "",
    "latitude": "35.77658",
    "longitude": "139.67879",
    "tel": "03-5922-3521",
    "address": "板橋区相生町16-13",
    "access": "",
    "games": [
      "麻雀格闘倶楽部(ﾊｲｸﾞﾚｰﾄﾞﾓﾃﾞﾙ)"
    ]
  },
  {
    "name": "イミグランデ大和店",
    "operation_time": "10:00～24:00",
    "holiday": "無し",
    "latitude": "35.49148588",
    "longitude": "139.4547647",
    "tel": "046-277-8571",
    "address": "大和市鶴間2-12-27",
    "access": "小田急鶴間駅徒歩5分",
    "games": [
      "麻雀格闘倶楽部(ﾊｲｸﾞﾚｰﾄﾞﾓﾃﾞﾙ)"
    ]
  },
  {
    "name": "シルクハット川口",
    "operation_time": "9:00～23:45",
    "holiday": "無し",
    "latitude": "35.80293217",
    "longitude": "139.7175416",
    "tel": "",
    "address": "川口市栄町3-1-16イート川口ビル4F",
    "access": "JR川口駅前",
    "games": [
      "麻雀格闘倶楽部(ﾊｲｸﾞﾚｰﾄﾞﾓﾃﾞﾙ)"
    ]
  },
  {
    "name": "タイトーFステーション向ヶ丘遊園店",
    "operation_time": "",
    "holiday": "",
    "latitude": "35.616404",
    "longitude": "139.565109",
    "tel": "044-281-3500",
    "address": "川崎市多摩区登戸2718-1",
    "access": "",
    "games": [
      "麻雀格闘倶楽部(ﾊｲｸﾞﾚｰﾄﾞﾓﾃﾞﾙ)"
    ]
  },
  {
    "name": "千葉レジャーランド野田店",
    "operation_time": "一部24時間営業",
    "holiday": "無し",
    "latitude": "35.97154747",
    "longitude": "139.8653487",
    "tel": "04-7120-3535",
    "address": "野田市吉春776-1",
    "access": "国道16号線沿い野田市吉春地内",
    "games": [
      "麻雀格闘倶楽部(ﾊｲｸﾞﾚｰﾄﾞﾓﾃﾞﾙ)"
    ]
  },
  {
    "name": "ゲームスタジオキューブ高円寺",
    "operation_time": "10:00～翌1:00",
    "holiday": "無し",
    "latitude": "35.7049194",
    "longitude": "139.6495113",
    "tel": "03-3315-4448",
    "address": "杉並区高円寺南4-26-12福丸ビルB1F",
    "access": "JR中央線高円寺駅徒歩2分",
    "games": [
      "麻雀格闘倶楽部(ﾊｲｸﾞﾚｰﾄﾞﾓﾃﾞﾙ)"
    ]
  },
  {
    "name": "GiGO赤羽",
    "operation_time": "",
    "holiday": "",
    "latitude": "35.778926",
    "longitude": "139.722383",
    "tel": "070-1458-9465",
    "address": "北区赤羽1-7-9赤羽第一葉山ビルB1F",
    "access": "",
    "games": [
      "麻雀格闘倶楽部(ﾊｲｸﾞﾚｰﾄﾞﾓﾃﾞﾙ)"
    ]
  },
  {
    "name": "namco中野店",
    "operation_time": "10:00～24:45",
    "holiday": "",
    "latitude": "35.709163",
    "longitude": "139.666106",
    "tel": "03-5380-5442",
    "address": "中野区中野5-52-15中野ブロードウェイ別館",
    "access": "",
    "games": [
      "麻雀格闘倶楽部(ﾊｲｸﾞﾚｰﾄﾞﾓﾃﾞﾙ)"
    ]
  },
  {
    "name": "ゲームW店",
    "operation_time": "10:00～24:00",
    "holiday": "不定休",
    "latitude": "35.72942259",
    "longitude": "139.6828924",
    "tel": "03-5983-7880",
    "address": "豊島区南長崎5-27-6",
    "access": "西武池袋線 東長崎駅より徒歩2分",
    "games": [
      "麻雀格闘倶楽部(ﾊｲｸﾞﾚｰﾄﾞﾓﾃﾞﾙ)"
    ]
  },
  {
    "name": "ウェアハウス入谷店",
    "operation_time": "10:00～24:00",
    "holiday": "無し",
    "latitude": "35.80112943",
    "longitude": "139.760997",
    "tel": "03-3856-5833",
    "address": "足立区入谷7-8-11",
    "access": "足立ICから車で3分",
    "games": [
      "麻雀格闘倶楽部(ﾊｲｸﾞﾚｰﾄﾞﾓﾃﾞﾙ)"
    ]
  },
  {
    "name": "ユーズランド越谷店",
    "operation_time": "10:00～21:00",
    "holiday": "無し",
    "latitude": "35.87763779",
    "longitude": "139.8247477",
    "tel": "048-934-3342",
    "address": "越谷市レイクタウン4-2-2イオンレイクタウンKAZE 3F",
    "access": "武蔵野線レイクタウン駅下車徒歩1分",
    "games": [
      "麻雀格闘倶楽部(ﾊｲｸﾞﾚｰﾄﾞﾓﾃﾞﾙ)"
    ]
  },
  {
    "name": "タイトーステーション池袋ロサ店",
    "operation_time": "10:00～24:00",
    "holiday": "無し",
    "latitude": "35.732483",
    "longitude": "139.709305",
    "tel": "03-3982-1270",
    "address": "豊島区西池袋1-37-12ロサ会館1F",
    "access": "JR池袋駅西口、北口より徒歩3分",
    "games": [
      "麻雀格闘倶楽部(ﾊｲｸﾞﾚｰﾄﾞﾓﾃﾞﾙ)"
    ]
  },
  {
    "name": "タイトーステーション池袋西口店",
    "operation_time": "",
    "holiday": "",
    "latitude": "35.73058948",
    "longitude": "139.709706",
    "tel": "03-6907-3560",
    "address": "豊島区西池袋1-15-9第一西池ビル",
    "access": "",
    "games": [
      "麻雀格闘倶楽部(ﾊｲｸﾞﾚｰﾄﾞﾓﾃﾞﾙ)"
    ]
  },
  {
    "name": "世田谷オークラボウル",
    "operation_time": "10:00～11:00",
    "holiday": "無し",
    "latitude": "35.640433",
    "longitude": "139.638599",
    "tel": "03-3420-0271",
    "address": "世田谷区桜3-24-1",
    "access": "",
    "games": [
      "麻雀格闘倶楽部(ﾊｲｸﾞﾚｰﾄﾞﾓﾃﾞﾙ)"
    ]
  },
  {
    "name": "ラウンドワン池袋店",
    "operation_time": "",
    "holiday": "",
    "latitude": "35.730175",
    "longitude": "139.714846",
    "tel": "03-5928-0221",
    "address": "豊島区東池袋1-14-1池袋スクエア",
    "access": "",
    "games": [
      "麻雀格闘倶楽部(ﾊｲｸﾞﾚｰﾄﾞﾓﾃﾞﾙ)"
    ]
  },
  {
    "name": "東京レジャーランド池袋店",
    "operation_time": "",
    "holiday": "",
    "latitude": "35.73071",
    "longitude": "139.71644",
    "tel": "03-5904-8388",
    "address": "豊島区東池袋1-29-1マルビル池袋2-3F",
    "access": "",
    "games": [
      "麻雀格闘倶楽部(ﾊｲｸﾞﾚｰﾄﾞﾓﾃﾞﾙ)"
    ]
  },
  {
    "name": "タイトーステーションBIGBOX高田馬場",
    "operation_time": "10:00～24:00",
    "holiday": "無し",
    "latitude": "35.712933",
    "longitude": "139.70419",
    "tel": "03-5272-9855",
    "address": "新宿区高田馬場1-35-3BIGBOX6F",
    "access": "西武新宿線・高田馬場駅より徒歩1分",
    "games": [
      "麻雀格闘倶楽部(ﾊｲｸﾞﾚｰﾄﾞﾓﾃﾞﾙ)"
    ]
  },
  {
    "name": "namco王子サンスクエア店",
    "operation_time": "",
    "holiday": "",
    "latitude": "35.7529261",
    "longitude": "139.7377633",
    "tel": "03-5959-9830",
    "address": "北区王子1-4-1サンスクエア2F",
    "access": "",
    "games": [
      "麻雀格闘倶楽部(ﾊｲｸﾞﾚｰﾄﾞﾓﾃﾞﾙ)"
    ]
  },
  {
    "name": "タイトーステーション溝の口店",
    "operation_time": "",
    "holiday": "",
    "latitude": "35.600042",
    "longitude": "139.61245",
    "tel": "044-328-9262",
    "address": "川崎市高津区溝口1-11-8",
    "access": "",
    "games": [
      "麻雀格闘倶楽部(ﾊｲｸﾞﾚｰﾄﾞﾓﾃﾞﾙ)"
    ]
  },
  {
    "name": "ラウンドワン草加店",
    "operation_time": "",
    "holiday": "",
    "latitude": "35.81240056",
    "longitude": "139.7878993",
    "tel": "048-920-3701",
    "address": "草加市谷塚上町204-1",
    "access": "",
    "games": [
      "麻雀格闘倶楽部(ﾊｲｸﾞﾚｰﾄﾞﾓﾃﾞﾙ)"
    ]
  },
  {
    "name": "イミグランデ溝口店",
    "operation_time": "10:00～24:00",
    "holiday": "無し",
    "latitude": "35.60052965",
    "longitude": "139.6144859",
    "tel": "044-819-8595",
    "address": "川崎市高津区溝口1-14-7第二カスタムビル",
    "access": "",
    "games": [
      "麻雀格闘倶楽部(ﾊｲｸﾞﾚｰﾄﾞﾓﾃﾞﾙ)"
    ]
  },
  {
    "name": "ゲームファクトリーマグマ",
    "operation_time": "～24:00",
    "holiday": "無し",
    "latitude": "35.82819969",
    "longitude": "139.8024875",
    "tel": "0489-24-9800",
    "address": "草加市氷川町2125-1",
    "access": "東武伊勢崎線草加駅徒歩1分",
    "games": [
      "麻雀格闘倶楽部(ﾊｲｸﾞﾚｰﾄﾞﾓﾃﾞﾙ)"
    ]
  },
  {
    "name": "ゲームパニック新宿歌舞伎町",
    "operation_time": "",
    "holiday": "",
    "latitude": "35.69606337",
    "longitude": "139.7012777",
    "tel": "03-6265-9021",
    "address": "新宿区歌舞伎町1-20-1ヒューマックスパビリオン1-2F",
    "access": "",
    "games": [
      "麻雀格闘倶楽部(ﾊｲｸﾞﾚｰﾄﾞﾓﾃﾞﾙ)"
    ]
  },
  {
    "name": "タイトーステーション新宿東口店",
    "operation_time": "10:00～翌1:00",
    "holiday": "無し",
    "latitude": "35.693289",
    "longitude": "139.70154",
    "tel": "03-5362-5108",
    "address": "新宿区新宿3-22-7指田ビル",
    "access": "JR新宿駅東口より徒歩3分 スタジオアルタ裏",
    "games": [
      "麻雀格闘倶楽部(ﾊｲｸﾞﾚｰﾄﾞﾓﾃﾞﾙ)"
    ]
  },
  {
    "name": "新宿スポーツランド本館",
    "operation_time": "",
    "holiday": "",
    "latitude": "35.69316847",
    "longitude": "139.7018443",
    "tel": "03-3352-5489",
    "address": "新宿区新宿3-22-12",
    "access": "",
    "games": [
      "麻雀格闘倶楽部(ﾊｲｸﾞﾚｰﾄﾞﾓﾃﾞﾙ)"
    ]
  },
  {
    "name": "タイトーステーション新宿南口ゲームワールド店",
    "operation_time": "10:00～25:00",
    "holiday": "無し",
    "latitude": "35.689926",
    "longitude": "139.702372",
    "tel": "03-3226-0395",
    "address": "新宿区新宿3-35-8",
    "access": "JR・新宿駅より徒歩1分",
    "games": [
      "麻雀格闘倶楽部(ﾊｲｸﾞﾚｰﾄﾞﾓﾃﾞﾙ)"
    ]
  },
  {
    "name": "ビリヤードウェアハウス草加店",
    "operation_time": "10:00～24:00",
    "holiday": "無し",
    "latitude": "35.83027597",
    "longitude": "139.8209349",
    "tel": "048-930-5033",
    "address": "草加市稲荷2-36-33",
    "access": "草加産業道路沿いウェアハウス草加店隣り",
    "games": [
      "麻雀格闘倶楽部(ﾊｲｸﾞﾚｰﾄﾞﾓﾃﾞﾙ)"
    ]
  },
  {
    "name": "アストロ鶴ヶ峰店",
    "operation_time": "11:00～翌2:00/金11:00～翌4:00/土10:00～翌5:00/日10:00～翌2:00",
    "holiday": "無し",
    "latitude": "35.47653851",
    "longitude": "139.5434398",
    "tel": "045-955-3300",
    "address": "横浜市旭区鶴ヶ峰本町1-38-3",
    "access": "相鉄線鶴ヶ峰駅7分",
    "games": [
      "麻雀格闘倶楽部(ﾊｲｸﾞﾚｰﾄﾞﾓﾃﾞﾙ)"
    ]
  },
  {
    "name": "ウェアハウス保木間店",
    "operation_time": "10:00～24:00",
    "holiday": "無し",
    "latitude": "35.78913885",
    "longitude": "139.8032547",
    "tel": "03-3860-7822",
    "address": "足立区保木間1-1-19-1F",
    "access": "竹の塚駅より車で7分",
    "games": [
      "麻雀格闘倶楽部(ﾊｲｸﾞﾚｰﾄﾞﾓﾃﾞﾙ)"
    ]
  },
  {
    "name": "ラウンドワンららぽーと新三郷店",
    "operation_time": "",
    "holiday": "",
    "latitude": "35.859813",
    "longitude": "139.865774",
    "tel": "048-950-7501",
    "address": "三郷市新三郷ららシティ3-1-1ららぽーと新三郷 2F",
    "access": "",
    "games": [
      "麻雀格闘倶楽部(ﾊｲｸﾞﾚｰﾄﾞﾓﾃﾞﾙ)"
    ]
  },
  {
    "name": "ドラマ港北インター店",
    "operation_time": "10:00～24:00",
    "holiday": "無し",
    "latitude": "35.51925659",
    "longitude": "139.5847927",
    "tel": "045-474-6604",
    "address": "横浜市都筑区東方町321-6",
    "access": "第三京浜港北IC右側交差点左折約500M",
    "games": [
      "麻雀格闘倶楽部(ﾊｲｸﾞﾚｰﾄﾞﾓﾃﾞﾙ)"
    ]
  },
  {
    "name": "タイトーステーション渋谷店",
    "operation_time": "10:00～24:00",
    "holiday": "無し",
    "latitude": "35.659983",
    "longitude": "139.70204",
    "tel": "03-5467-6565",
    "address": "渋谷区渋谷1-24-12渋谷東映プラザB1F",
    "access": "JR渋谷駅・宮益坂口より徒歩1分",
    "games": [
      "麻雀格闘倶楽部(ﾊｲｸﾞﾚｰﾄﾞﾓﾃﾞﾙ)"
    ]
  },
  {
    "name": "ゲームパニック三郷",
    "operation_time": "",
    "holiday": "",
    "latitude": "35.84215546",
    "longitude": "139.8548102",
    "tel": "048-953-8295",
    "address": "三郷市ピアラシティ1-1-200",
    "access": "",
    "games": [
      "麻雀格闘倶楽部(ﾊｲｸﾞﾚｰﾄﾞﾓﾃﾞﾙ)"
    ]
  },
  {
    "name": "GiGO神楽坂",
    "operation_time": "",
    "holiday": "",
    "latitude": "35.701061",
    "longitude": "139.741994",
    "tel": "03-3260-7253",
    "address": "新宿区神楽坂2-11第2カグラヒルズ1F",
    "access": "",
    "games": [
      "麻雀格闘倶楽部(ﾊｲｸﾞﾚｰﾄﾞﾓﾃﾞﾙ)"
    ]
  },
  {
    "name": "ドラマ藤沢店",
    "operation_time": "10:00～24:00",
    "holiday": "無し",
    "latitude": "35.35751243",
    "longitude": "139.4682681",
    "tel": "0466-82-0328",
    "address": "藤沢市本藤沢5-6-8",
    "access": "小田急江ノ島線善行駅より徒歩15分",
    "games": [
      "麻雀格闘倶楽部(ﾊｲｸﾞﾚｰﾄﾞﾓﾃﾞﾙ)"
    ]
  },
  {
    "name": "ASO:VIBA!",
    "operation_time": "10:00～24:00",
    "holiday": "無し",
    "latitude": "35.64677066",
    "longitude": "139.7109583",
    "tel": "03-3444-4912",
    "address": "渋谷区恵比寿1-10-5",
    "access": "JR山手線恵比寿駅徒歩1分",
    "games": [
      "麻雀格闘倶楽部(ﾊｲｸﾞﾚｰﾄﾞﾓﾃﾞﾙ)"
    ]
  },
  {
    "name": "タイトーステーション上野アメ横店",
    "operation_time": "10:00～24:00",
    "holiday": "無し",
    "latitude": "35.710538",
    "longitude": "139.774356",
    "tel": "03-3831-5800",
    "address": "台東区上野4-10-17",
    "access": "上野駅から徒歩2分!アメヤ横丁入ってすぐ",
    "games": [
      "麻雀格闘倶楽部(ﾊｲｸﾞﾚｰﾄﾞﾓﾃﾞﾙ)"
    ]
  },
  {
    "name": "イミグランデ日吉店",
    "operation_time": "8:00～24:00",
    "holiday": "無し",
    "latitude": "35.554136",
    "longitude": "139.646509",
    "tel": "045-624-8633",
    "address": "横浜市港北区日吉2-2-4日吉ビル",
    "access": "",
    "games": [
      "麻雀格闘倶楽部(ﾊｲｸﾞﾚｰﾄﾞﾓﾃﾞﾙ)"
    ]
  },
  {
    "name": "タイトーステーション上野御徒町店",
    "operation_time": "",
    "holiday": "",
    "latitude": "35.708938",
    "longitude": "139.774321",
    "tel": "03-5817-4511",
    "address": "台東区上野4-6-9湯島商事ビル",
    "access": "",
    "games": [
      "麻雀格闘倶楽部(ﾊｲｸﾞﾚｰﾄﾞﾓﾃﾞﾙ)"
    ]
  },
  {
    "name": "GiGO綱島",
    "operation_time": "",
    "holiday": "",
    "latitude": "35.5364623",
    "longitude": "139.6324113",
    "tel": "045-547-1199",
    "address": "横浜市港北区綱島西2-6-29城田ビル3F",
    "access": "",
    "games": [
      "麻雀格闘倶楽部(ﾊｲｸﾞﾚｰﾄﾞﾓﾃﾞﾙ)"
    ]
  },
  {
    "name": "東京レジャーランド秋葉原店",
    "operation_time": "10:00～25:00",
    "holiday": "無し",
    "latitude": "35.69887947",
    "longitude": "139.7701404",
    "tel": "03-5298-1360",
    "address": "千代田区外神田1-9-5",
    "access": "JR秋葉原駅徒歩5分",
    "games": [
      "麻雀格闘倶楽部(ﾊｲｸﾞﾚｰﾄﾞﾓﾃﾞﾙ)"
    ]
  },
  {
    "name": "東京レジャーランド秋葉原2号店",
    "operation_time": "10:00～25:00",
    "holiday": "無し",
    "latitude": "35.70073433",
    "longitude": "139.7718424",
    "tel": "03-5209-5650",
    "address": "千代田区外神田4-3-3",
    "access": "JR秋葉原駅より徒歩5分",
    "games": [
      "麻雀格闘倶楽部(ﾊｲｸﾞﾚｰﾄﾞﾓﾃﾞﾙ)"
    ]
  },
  {
    "name": "タイトーステーション秋葉原店",
    "operation_time": "10:00～24:00",
    "holiday": "無し",
    "latitude": "35.70025258",
    "longitude": "139.7716985",
    "tel": "03-5289-8445",
    "address": "千代田区外神田4-2-2貴三ビル",
    "access": "JR秋葉原駅電気街口を出て徒歩3分",
    "games": [
      "麻雀格闘倶楽部(ﾊｲｸﾞﾚｰﾄﾞﾓﾃﾞﾙ)"
    ]
  },
  {
    "name": "Hey(タイトー)",
    "operation_time": "10:00～24:00",
    "holiday": "無し",
    "latitude": "35.698992",
    "longitude": "139.77108",
    "tel": "03-5209-2030",
    "address": "千代田区外神田1-10-5広瀬本社ビル2F",
    "access": "JR秋葉原駅電気街口を出て徒歩2分",
    "games": [
      "麻雀格闘倶楽部(ﾊｲｸﾞﾚｰﾄﾞﾓﾃﾞﾙ)"
    ]
  },
  {
    "name": "ゲームパニック秋葉原",
    "operation_time": "",
    "holiday": "",
    "latitude": "35.69891",
    "longitude": "139.77165",
    "tel": "03-6285-2820",
    "address": "千代田区外神田1-13-1第122東京ビル",
    "access": "",
    "games": [
      "麻雀格闘倶楽部(ﾊｲｸﾞﾚｰﾄﾞﾓﾃﾞﾙ)"
    ]
  },
  {
    "name": "アミューズパークいわき神谷店",
    "operation_time": "9:00～24:00",
    "holiday": "無し",
    "latitude": "37.06530832",
    "longitude": "140.9425725",
    "tel": "0246-34-7217",
    "address": "いわき市平下神谷字馬洗7-1",
    "access": "",
    "games": [
      "麻雀格闘倶楽部(ﾊｲｸﾞﾚｰﾄﾞﾓﾃﾞﾙ)"
    ]
  },
  {
    "name": "ラウンドワン横浜綱島店",
    "operation_time": "",
    "holiday": "",
    "latitude": "35.53198182",
    "longitude": "139.6371126",
    "tel": "045-533-6151",
    "address": "横浜市港北区樽町2-6-40T-PLATZ",
    "access": "",
    "games": [
      "麻雀格闘倶楽部(ﾊｲｸﾞﾚｰﾄﾞﾓﾃﾞﾙ)"
    ]
  },
  {
    "name": "タイトーステーション戸塚西口店",
    "operation_time": "10:00～24:00",
    "holiday": "無し",
    "latitude": "35.399502",
    "longitude": "139.531856",
    "tel": "045-881-6757",
    "address": "横浜市戸塚区戸塚町4023",
    "access": "JR戸塚駅西口・市営地下鉄戸塚駅より徒歩5分。",
    "games": [
      "麻雀格闘倶楽部(ﾊｲｸﾞﾚｰﾄﾞﾓﾃﾞﾙ)"
    ]
  },
  {
    "name": "タイトーステーション浅草店",
    "operation_time": "10:00～翌1:00",
    "holiday": "無し",
    "latitude": "35.712553",
    "longitude": "139.793995",
    "tel": "03-3836-7785",
    "address": "台東区浅草1-27-5ROXドーム1F",
    "access": "つくばEX浅草駅から徒歩1分、銀座線田原町駅から徒歩3分",
    "games": [
      "麻雀格闘倶楽部(ﾊｲｸﾞﾚｰﾄﾞﾓﾃﾞﾙ)"
    ]
  },
  {
    "name": "タイトーステーション藤沢店",
    "operation_time": "10:00～23:50",
    "holiday": "無し",
    "latitude": "35.337282",
    "longitude": "139.487332",
    "tel": "0466-47-9153",
    "address": "藤沢市南藤沢21-1",
    "access": "",
    "games": [
      "麻雀格闘倶楽部(ﾊｲｸﾞﾚｰﾄﾞﾓﾃﾞﾙ)"
    ]
  },
  {
    "name": "ウェアハウス南流山店",
    "operation_time": "10:00～24:00",
    "holiday": "無し",
    "latitude": "35.84020798",
    "longitude": "139.9050111",
    "tel": "04-7159-2351",
    "address": "流山市南流山4-16-6",
    "access": "南流山駅から徒歩3分",
    "games": [
      "麻雀格闘倶楽部(ﾊｲｸﾞﾚｰﾄﾞﾓﾃﾞﾙ)"
    ]
  },
  {
    "name": "ゲームメガつくば店",
    "operation_time": "",
    "holiday": "",
    "latitude": "36.07682559",
    "longitude": "140.1047877",
    "tel": "029-846-1200",
    "address": "つくば市小野崎177-2",
    "access": "",
    "games": [
      "麻雀格闘倶楽部(ﾊｲｸﾞﾚｰﾄﾞﾓﾃﾞﾙ)"
    ]
  },
  {
    "name": "ユーズランド水戸内原店",
    "operation_time": "10:00～21:00",
    "holiday": "",
    "latitude": "36.374428",
    "longitude": "140.3590138",
    "tel": "029-259-1218",
    "address": "水戸市内原2-1イオンモール水戸内原2F",
    "access": "",
    "games": [
      "麻雀格闘倶楽部(ﾊｲｸﾞﾚｰﾄﾞﾓﾃﾞﾙ)"
    ]
  },
  {
    "name": "東京レジャーランド亀有店",
    "operation_time": "",
    "holiday": "",
    "latitude": "35.765462",
    "longitude": "139.84798",
    "tel": "03-5680-8893",
    "address": "葛飾区亀有3-21-2",
    "access": "",
    "games": [
      "麻雀格闘倶楽部(ﾊｲｸﾞﾚｰﾄﾞﾓﾃﾞﾙ)"
    ]
  },
  {
    "name": "嶺宝スポーツセンター",
    "operation_time": "11:00～23:00",
    "holiday": "火曜日",
    "latitude": "36.97400283",
    "longitude": "140.8903913",
    "tel": "0246-58-8093",
    "address": "いわき市小名浜住吉字折返2-2",
    "access": "6号バイパス住吉交差点横",
    "games": [
      "麻雀格闘倶楽部(ﾊｲｸﾞﾚｰﾄﾞﾓﾃﾞﾙ)"
    ]
  },
  {
    "name": "メルヘンランド コーナン鎌倉大船店",
    "operation_time": "",
    "holiday": "",
    "latitude": "35.34778961",
    "longitude": "139.5170616",
    "tel": "0467-50-0091",
    "address": "鎌倉市岡本1188-1コーナン鎌倉大船店2F",
    "access": "",
    "games": [
      "麻雀格闘倶楽部(ﾊｲｸﾞﾚｰﾄﾞﾓﾃﾞﾙ)"
    ]
  },
  {
    "name": "スーパーウェーブ柏店",
    "operation_time": "9:00～24:00",
    "holiday": "無し",
    "latitude": "35.88165286",
    "longitude": "139.9615303",
    "tel": "04-7144-8366",
    "address": "柏市十余二249-5MEM内",
    "access": "国道16号線沿い マルハンエンタテインメントモール内",
    "games": [
      "麻雀格闘倶楽部(ﾊｲｸﾞﾚｰﾄﾞﾓﾃﾞﾙ)"
    ]
  },
  {
    "name": "ラウンドワン横浜駅西口店",
    "operation_time": "",
    "holiday": "",
    "latitude": "35.46393717",
    "longitude": "139.6180549",
    "tel": "045-412-0880",
    "address": "横浜市西区南幸2-8-16",
    "access": "",
    "games": [
      "麻雀格闘倶楽部(ﾊｲｸﾞﾚｰﾄﾞﾓﾃﾞﾙ)"
    ]
  },
  {
    "name": "タイトーステーション横浜西口五番街店",
    "operation_time": "平日10:00～23:50 土日祝日9:00～23:50",
    "holiday": "無し",
    "latitude": "35.464648",
    "longitude": "139.619593",
    "tel": "045-411-5288",
    "address": "横浜市西区南幸1-12-9",
    "access": "JR・相鉄線・東横線・みなとみらい線 横浜駅より徒歩3分",
    "games": [
      "麻雀格闘倶楽部(ﾊｲｸﾞﾚｰﾄﾞﾓﾃﾞﾙ)"
    ]
  },
  {
    "name": "タイトーFステーションオリナス錦糸町店",
    "operation_time": "10:00～23:45",
    "holiday": "無し",
    "latitude": "35.700721",
    "longitude": "139.816024",
    "tel": "03-5610-7376",
    "address": "墨田区太平4-1-2オリナスB1F",
    "access": "JR総武線錦糸町駅北口から徒歩5分",
    "games": [
      "麻雀格闘倶楽部(ﾊｲｸﾞﾚｰﾄﾞﾓﾃﾞﾙ)"
    ]
  },
  {
    "name": "GiGO立石",
    "operation_time": "",
    "holiday": "",
    "latitude": "35.73960492",
    "longitude": "139.8494477",
    "tel": "070-6631-7803",
    "address": "葛飾区立石7-3-6リ･セブン",
    "access": "",
    "games": [
      "麻雀格闘倶楽部(ﾊｲｸﾞﾚｰﾄﾞﾓﾃﾞﾙ)"
    ]
  },
  {
    "name": "シルクハット大船",
    "operation_time": "9:00～23:45",
    "holiday": "無し",
    "latitude": "35.35325232",
    "longitude": "139.5325488",
    "tel": "",
    "address": "鎌倉市大船1-24大船駅前ビル1-3F",
    "access": "JR大船駅徒歩1分",
    "games": [
      "麻雀格闘倶楽部(ﾊｲｸﾞﾚｰﾄﾞﾓﾃﾞﾙ)"
    ]
  },
  {
    "name": "タイトーステーション錦糸町楽天地店",
    "operation_time": "10:00～24:00",
    "holiday": "無し",
    "latitude": "35.696456",
    "longitude": "139.815836",
    "tel": "03-5638-0701",
    "address": "墨田区江東橋4-27-14楽天地ビルB1F",
    "access": "東京メトロ半蔵門線・錦糸町駅2番出口直通!東京楽天地ビル地下1階",
    "games": [
      "麻雀格闘倶楽部(ﾊｲｸﾞﾚｰﾄﾞﾓﾃﾞﾙ)"
    ]
  },
  {
    "name": "GiGO大森",
    "operation_time": "",
    "holiday": "",
    "latitude": "35.590043",
    "longitude": "139.72823",
    "tel": "03-5709-0669",
    "address": "大田区山王2-1-5大森駅ララビル2F",
    "access": "",
    "games": [
      "麻雀格闘倶楽部(ﾊｲｸﾞﾚｰﾄﾞﾓﾃﾞﾙ)"
    ]
  },
  {
    "name": "シルクハット大森",
    "operation_time": "10:00～23:45",
    "holiday": "無し",
    "latitude": "35.5889478",
    "longitude": "139.7278437",
    "tel": "",
    "address": "大田区山王2-4-1大森駅前ビル2F",
    "access": "JR大森駅西口より徒歩0分",
    "games": [
      "麻雀格闘倶楽部(ﾊｲｸﾞﾚｰﾄﾞﾓﾃﾞﾙ)"
    ]
  },
  {
    "name": "シルクハット蒲田西口",
    "operation_time": "10:00～24:45",
    "holiday": "",
    "latitude": "35.56301591",
    "longitude": "139.7158447",
    "tel": "",
    "address": "大田区西蒲田7-2-3第二醍醐ビルB1-2F",
    "access": "",
    "games": [
      "麻雀格闘倶楽部(ﾊｲｸﾞﾚｰﾄﾞﾓﾃﾞﾙ)"
    ]
  },
  {
    "name": "namco松戸店",
    "operation_time": "",
    "holiday": "",
    "latitude": "35.783581",
    "longitude": "139.900789",
    "tel": "047-711-7274",
    "address": "松戸市松戸1230-1ピアザ松戸1F",
    "access": "",
    "games": [
      "麻雀格闘倶楽部(ﾊｲｸﾞﾚｰﾄﾞﾓﾃﾞﾙ)"
    ]
  },
  {
    "name": "ゲームセンタービーワン",
    "operation_time": "7:30～24:00",
    "holiday": "無し",
    "latitude": "35.86269482",
    "longitude": "139.9692503",
    "tel": "04-7144-5597",
    "address": "柏市旭町1-1-16中崎ビル地下1F",
    "access": "JR柏駅西口徒歩1分",
    "games": [
      "麻雀格闘倶楽部(ﾊｲｸﾞﾚｰﾄﾞﾓﾃﾞﾙ)"
    ]
  },
  {
    "name": "タイトーステーションBIGFUN平和島店",
    "operation_time": "",
    "holiday": "",
    "latitude": "35.586122",
    "longitude": "139.740355",
    "tel": "03-5762-7446",
    "address": "大田区平和島1-1-1BIGFUN平和島3F",
    "access": "",
    "games": [
      "麻雀格闘倶楽部(ﾊｲｸﾞﾚｰﾄﾞﾓﾃﾞﾙ)"
    ]
  },
  {
    "name": "柏ヤングボウル",
    "operation_time": "一部24時間営業",
    "holiday": "無し",
    "latitude": "35.845987",
    "longitude": "139.957023",
    "tel": "04-7174-2222",
    "address": "柏市南柏中央11-1",
    "access": "JR南柏駅より徒歩5分",
    "games": [
      "麻雀格闘倶楽部(ﾊｲｸﾞﾚｰﾄﾞﾓﾃﾞﾙ)"
    ]
  },
  {
    "name": "柏駅前ヤングボウル",
    "operation_time": "",
    "holiday": "",
    "latitude": "35.8605258",
    "longitude": "139.9713721",
    "tel": "047-164-2117",
    "address": "柏市柏1-3-1ドン･キホーテ5F",
    "access": "",
    "games": [
      "麻雀格闘倶楽部(ﾊｲｸﾞﾚｰﾄﾞﾓﾃﾞﾙ)"
    ]
  },
  {
    "name": "タイトーステーション柏店",
    "operation_time": "10:00～24:00",
    "holiday": "無し",
    "latitude": "35.86145714",
    "longitude": "139.972664",
    "tel": "04-7164-0866",
    "address": "柏市柏2-3-1",
    "access": "JR常磐線・柏駅より徒歩3分",
    "games": [
      "麻雀格闘倶楽部(ﾊｲｸﾞﾚｰﾄﾞﾓﾃﾞﾙ)"
    ]
  },
  {
    "name": "シルクハット川崎ダイス",
    "operation_time": "9:00～24:45",
    "holiday": "無し",
    "latitude": "35.5314121",
    "longitude": "139.7002166",
    "tel": "",
    "address": "川崎市川崎区駅前本町8ダイスビルB2F",
    "access": "JR川崎駅アゼリア地下街と直結、京急川崎駅中央口徒歩1分",
    "games": [
      "麻雀格闘倶楽部(ﾊｲｸﾞﾚｰﾄﾞﾓﾃﾞﾙ)"
    ]
  },
  {
    "name": "ピンクパンサー 水戸赤塚店",
    "operation_time": "10:00～24:00",
    "holiday": "無し",
    "latitude": "36.3807337",
    "longitude": "140.4136026",
    "tel": "029-309-1983",
    "address": "水戸市河和田1-1",
    "access": "JR水戸線 赤塚駅徒歩5分 フレスポ赤塚内",
    "games": [
      "麻雀格闘倶楽部(ﾊｲｸﾞﾚｰﾄﾞﾓﾃﾞﾙ)"
    ]
  },
  {
    "name": "シルクハット伊勢佐木町",
    "operation_time": "9:00～23:45",
    "holiday": "無し",
    "latitude": "35.44281185",
    "longitude": "139.629987",
    "tel": "",
    "address": "横浜市中区伊勢佐木町3-96日活会館ビル3F",
    "access": "JR関内駅北口より徒歩7分・京急線日ノ出町より徒歩6分・横浜市営地下鉄ブルーライン伊勢佐木長者町駅より徒歩4分",
    "games": [
      "麻雀格闘倶楽部(ﾊｲｸﾞﾚｰﾄﾞﾓﾃﾞﾙ)"
    ]
  },
  {
    "name": "AMFマーズ",
    "operation_time": "8:30～翌1:00",
    "holiday": "無し",
    "latitude": "35.44284793",
    "longitude": "139.6311041",
    "tel": "045-243-6033",
    "address": "横浜市中区長者町6-106",
    "access": "JR「関内駅」下車徒歩3分",
    "games": [
      "麻雀格闘倶楽部(ﾊｲｸﾞﾚｰﾄﾞﾓﾃﾞﾙ)"
    ]
  },
  {
    "name": "川崎グランドボウル",
    "operation_time": "",
    "holiday": "",
    "latitude": "35.527799",
    "longitude": "139.706708",
    "tel": "044-244-2281",
    "address": "川崎市川崎区宮前町11-14",
    "access": "",
    "games": [
      "麻雀格闘倶楽部(ﾊｲｸﾞﾚｰﾄﾞﾓﾃﾞﾙ)"
    ]
  },
  {
    "name": "ラウンドワン南砂店",
    "operation_time": "",
    "holiday": "",
    "latitude": "35.67184786",
    "longitude": "139.8361845",
    "tel": "03-5617-6911",
    "address": "江東区南砂6-7-15トピレックプラザ4F",
    "access": "",
    "games": [
      "麻雀格闘倶楽部(ﾊｲｸﾞﾚｰﾄﾞﾓﾃﾞﾙ)"
    ]
  },
  {
    "name": "江戸川ヤングボウル",
    "operation_time": "一部24時間",
    "holiday": "無し",
    "latitude": "35.71124527",
    "longitude": "139.8694303",
    "tel": "03-3651-1100",
    "address": "江戸川区中央4-22-25",
    "access": "江戸川区文化センター隣",
    "games": [
      "麻雀格闘倶楽部(ﾊｲｸﾞﾚｰﾄﾞﾓﾃﾞﾙ)"
    ]
  },
  {
    "name": "GiGO八柱",
    "operation_time": "",
    "holiday": "",
    "latitude": "35.79133049",
    "longitude": "139.937777",
    "tel": "047-392-4661",
    "address": "松戸市日暮1-1-1八柱駅第2ビル2F",
    "access": "",
    "games": [
      "麻雀格闘倶楽部(ﾊｲｸﾞﾚｰﾄﾞﾓﾃﾞﾙ)"
    ]
  },
  {
    "name": "ピンクパンサー土浦店",
    "operation_time": "",
    "holiday": "",
    "latitude": "36.106571",
    "longitude": "140.215204",
    "tel": "029-886-6467",
    "address": "土浦市木田余4585-3",
    "access": "",
    "games": [
      "麻雀格闘倶楽部(ﾊｲｸﾞﾚｰﾄﾞﾓﾃﾞﾙ)"
    ]
  },
  {
    "name": "ラウンドワン川崎大師店",
    "operation_time": "",
    "holiday": "",
    "latitude": "35.53846653",
    "longitude": "139.741634",
    "tel": "044-270-1541",
    "address": "川崎市川崎区殿町1-5-1",
    "access": "",
    "games": [
      "麻雀格闘倶楽部(ﾊｲｸﾞﾚｰﾄﾞﾓﾃﾞﾙ)"
    ]
  },
  {
    "name": "ゲームパニックつくば",
    "operation_time": "",
    "holiday": "",
    "latitude": "36.04632758",
    "longitude": "140.1679958",
    "tel": "080-3350-1839",
    "address": "土浦市中村東1-1-1",
    "access": "",
    "games": [
      "麻雀格闘倶楽部(ﾊｲｸﾞﾚｰﾄﾞﾓﾃﾞﾙ)"
    ]
  },
  {
    "name": "GiGO水戸南",
    "operation_time": "",
    "holiday": "",
    "latitude": "36.350325",
    "longitude": "140.443003",
    "tel": "029-244-1045",
    "address": "水戸市千波町2017-1",
    "access": "",
    "games": [
      "麻雀格闘倶楽部(ﾊｲｸﾞﾚｰﾄﾞﾓﾃﾞﾙ)"
    ]
  },
  {
    "name": "ラウンドワンアリオ柏店",
    "operation_time": "",
    "holiday": "",
    "latitude": "35.832403",
    "longitude": "140.012023",
    "tel": "04-7190-1201",
    "address": "柏市大島田1-6-1セブンパークアリオ柏 1070",
    "access": "",
    "games": [
      "麻雀格闘倶楽部(ﾊｲｸﾞﾚｰﾄﾞﾓﾃﾞﾙ)"
    ]
  },
  {
    "name": "オアジ水戸店",
    "operation_time": "",
    "holiday": "",
    "latitude": "36.36950989",
    "longitude": "140.4744421",
    "tel": "029-222-5588",
    "address": "水戸市宮町1-7-44",
    "access": "",
    "games": [
      "麻雀格闘倶楽部(ﾊｲｸﾞﾚｰﾄﾞﾓﾃﾞﾙ)"
    ]
  },
  {
    "name": "スタジオプリモ本八幡店",
    "operation_time": "",
    "holiday": "",
    "latitude": "35.72122007",
    "longitude": "139.9274269",
    "tel": "047-711-3534",
    "address": "市川市八幡2-15-10パティオ本八幡5F",
    "access": "",
    "games": [
      "麻雀格闘倶楽部(ﾊｲｸﾞﾚｰﾄﾞﾓﾃﾞﾙ)"
    ]
  },
  {
    "name": "ゲームメガ日立店",
    "operation_time": "10:00～24:00",
    "holiday": "無し",
    "latitude": "36.54818909",
    "longitude": "140.6305166",
    "tel": "0294-32-1983",
    "address": "日立市東多賀町5-10-10",
    "access": "常陸多賀駅徒歩5分",
    "games": [
      "麻雀格闘倶楽部(ﾊｲｸﾞﾚｰﾄﾞﾓﾃﾞﾙ)"
    ]
  },
  {
    "name": "大慶園",
    "operation_time": "一部24時間営業",
    "holiday": "無し",
    "latitude": "35.76304297",
    "longitude": "139.96933",
    "tel": "047-337-5001",
    "address": "市川市大町359",
    "access": "JR市川大野駅下車 市川植物園行きバス乗車 市川斎場前下車徒歩10分・北総線大町駅から車5分",
    "games": [
      "麻雀格闘倶楽部(ﾊｲｸﾞﾚｰﾄﾞﾓﾃﾞﾙ)"
    ]
  },
  {
    "name": "ラウンドワン市川鬼高店",
    "operation_time": "",
    "holiday": "",
    "latitude": "35.711239",
    "longitude": "139.927465",
    "tel": "047-320-3801",
    "address": "市川市鬼高4-1-3",
    "access": "",
    "games": [
      "麻雀格闘倶楽部(ﾊｲｸﾞﾚｰﾄﾞﾓﾃﾞﾙ)"
    ]
  },
  {
    "name": "ゲームプラザセントラル浦安店",
    "operation_time": "10:00～24:00",
    "holiday": "無し",
    "latitude": "35.66516962",
    "longitude": "139.8933569",
    "tel": "0473-55-2447",
    "address": "浦安市北栄1-16-15",
    "access": "地下鉄東西線浦安駅前",
    "games": [
      "麻雀格闘倶楽部(ﾊｲｸﾞﾚｰﾄﾞﾓﾃﾞﾙ)"
    ]
  },
  {
    "name": "タイトーステーションイオンタウン水戸南店",
    "operation_time": "",
    "holiday": "",
    "latitude": "36.310917",
    "longitude": "140.442207",
    "tel": "029-297-8081",
    "address": "東茨城郡茨城町長岡3480-101イオンタウン水戸南ショッピングC",
    "access": "",
    "games": [
      "麻雀格闘倶楽部(ﾊｲｸﾞﾚｰﾄﾞﾓﾃﾞﾙ)"
    ]
  },
  {
    "name": "タイトーFステーション市川妙典店",
    "operation_time": "施設の営業時間に準じる",
    "holiday": "施設の営業日に準じる",
    "latitude": "35.69246485",
    "longitude": "139.9267286",
    "tel": "047-318-3933",
    "address": "市川市妙典4-1-1イオン市川妙典店2番街2F",
    "access": "",
    "games": [
      "麻雀格闘倶楽部(ﾊｲｸﾞﾚｰﾄﾞﾓﾃﾞﾙ)"
    ]
  },
  {
    "name": "アミューズビバ",
    "operation_time": "",
    "holiday": "",
    "latitude": "36.40636031",
    "longitude": "140.5317325",
    "tel": "029-274-7311",
    "address": "ひたちなか市東大島2-11-11-1Fゲームコーナー",
    "access": "勝田駅東口より北へ1km",
    "games": [
      "麻雀格闘倶楽部(ﾊｲｸﾞﾚｰﾄﾞﾓﾃﾞﾙ)"
    ]
  },
  {
    "name": "ゲームメガ水戸けやき台店",
    "operation_time": "10:00～24:00",
    "holiday": "無し",
    "latitude": "36.33805576",
    "longitude": "140.4832773",
    "tel": "029-247-1983",
    "address": "水戸市酒門町3276-1",
    "access": "50号バイパス沿い",
    "games": [
      "麻雀格闘倶楽部(ﾊｲｸﾞﾚｰﾄﾞﾓﾃﾞﾙ)"
    ]
  },
  {
    "name": "GiGOイオン新浦安ｼｮｯﾋﾟﾝｸﾞｾﾝﾀｰ",
    "operation_time": "9:00～24:00",
    "holiday": "無し",
    "latitude": "35.64896456",
    "longitude": "139.9148303",
    "tel": "070-1201-3891",
    "address": "浦安市入船1-4-1イオン新浦安4F",
    "access": "JR京葉線新浦安駅より徒歩5分 ダイエーショッパーズプラザ4F",
    "games": [
      "麻雀格闘倶楽部(ﾊｲｸﾞﾚｰﾄﾞﾓﾃﾞﾙ)"
    ]
  },
  {
    "name": "アドアーズ船橋店",
    "operation_time": "10:00～23:45",
    "holiday": "",
    "latitude": "35.700449",
    "longitude": "139.984231",
    "tel": "047-411-3337",
    "address": "船橋市本町1-31-26セブン船橋B1-3F",
    "access": "",
    "games": [
      "麻雀格闘倶楽部(ﾊｲｸﾞﾚｰﾄﾞﾓﾃﾞﾙ)"
    ]
  },
  {
    "name": "タイトーステーション船橋店",
    "operation_time": "",
    "holiday": "",
    "latitude": "35.699888",
    "longitude": "139.98597",
    "tel": "047-436-8135",
    "address": "船橋市本町1-6-1",
    "access": "",
    "games": [
      "麻雀格闘倶楽部(ﾊｲｸﾞﾚｰﾄﾞﾓﾃﾞﾙ)"
    ]
  },
  {
    "name": "テクモピア船橋南口店",
    "operation_time": "",
    "holiday": "",
    "latitude": "35.69908",
    "longitude": "139.98582",
    "tel": "047-401-4322",
    "address": "船橋市本町1-7-6ドリーム船橋ビル3F",
    "access": "",
    "games": [
      "麻雀格闘倶楽部(ﾊｲｸﾞﾚｰﾄﾞﾓﾃﾞﾙ)"
    ]
  },
  {
    "name": "サイバック龍ヶ崎店",
    "operation_time": "一部24時間営業",
    "holiday": "",
    "latitude": "35.938731",
    "longitude": "140.195155",
    "tel": "0297-64-0255",
    "address": "龍ヶ崎市藤ヶ丘4-2-2",
    "access": "",
    "games": [
      "麻雀格闘倶楽部(ﾊｲｸﾞﾚｰﾄﾞﾓﾃﾞﾙ)"
    ]
  },
  {
    "name": "アミューズメントエース津田沼",
    "operation_time": "9:00～24:00",
    "holiday": "無し",
    "latitude": "35.69228053",
    "longitude": "140.0201572",
    "tel": "047-475-8918",
    "address": "船橋市前原西2-15-1ファミービル1-3F",
    "access": "JR「津田沼駅」下車北口より徒歩1分",
    "games": [
      "麻雀格闘倶楽部(ﾊｲｸﾞﾚｰﾄﾞﾓﾃﾞﾙ)"
    ]
  },
  {
    "name": "シルクハット津田沼",
    "operation_time": "9:00～23:45",
    "holiday": "無し",
    "latitude": "35.69040687",
    "longitude": "140.0221583",
    "tel": "",
    "address": "習志野市津田沼1-2-1十三ビルB1F",
    "access": "JR津田沼駅、京成新津田沼駅徒歩1分",
    "games": [
      "麻雀格闘倶楽部(ﾊｲｸﾞﾚｰﾄﾞﾓﾃﾞﾙ)"
    ]
  },
  {
    "name": "GiGOひたちなか",
    "operation_time": "",
    "holiday": "",
    "latitude": "36.34756197",
    "longitude": "140.5803556",
    "tel": "070-1449-2941",
    "address": "ひたちなか市田中後40-11",
    "access": "",
    "games": [
      "麻雀格闘倶楽部(ﾊｲｸﾞﾚｰﾄﾞﾓﾃﾞﾙ)"
    ]
  },
  {
    "name": "キャッツアイ八千代店",
    "operation_time": "日～木・祝日:10:00～翌1:00  金・土・祝前日:10:00～翌2:00",
    "holiday": "",
    "latitude": "35.73361854",
    "longitude": "140.0724826",
    "tel": "047-480-0231",
    "address": "八千代市緑が丘西2-13-3ism緑が丘内",
    "access": "",
    "games": [
      "麻雀格闘倶楽部(ﾊｲｸﾞﾚｰﾄﾞﾓﾃﾞﾙ)"
    ]
  },
  {
    "name": "ラウンドワン習志野店",
    "operation_time": "",
    "holiday": "",
    "latitude": "35.660295",
    "longitude": "140.022576",
    "tel": "047-408-1901",
    "address": "習志野市芝園1-4-5",
    "access": "",
    "games": [
      "麻雀格闘倶楽部(ﾊｲｸﾞﾚｰﾄﾞﾓﾃﾞﾙ)"
    ]
  },
  {
    "name": "ラッキー佐倉店",
    "operation_time": "10:00～23:45",
    "holiday": "無し",
    "latitude": "35.71839979",
    "longitude": "140.1362206",
    "tel": "043-460-5165",
    "address": "佐倉市井野1475",
    "access": "京成線勝田台駅下車徒歩10分 国道296号沿い",
    "games": [
      "麻雀格闘倶楽部(ﾊｲｸﾞﾚｰﾄﾞﾓﾃﾞﾙ)"
    ]
  },
  {
    "name": "スポーツウェーブ鉄腕24稲毛長沼店",
    "operation_time": "一部24時間営業",
    "holiday": "無し",
    "latitude": "35.66179317",
    "longitude": "140.1264239",
    "tel": "043-215-5560",
    "address": "千葉市稲毛区長沼原町697",
    "access": "東関東自動車道 千葉北ICから約5分 千葉総合運動場そば",
    "games": [
      "麻雀格闘倶楽部(ﾊｲｸﾞﾚｰﾄﾞﾓﾃﾞﾙ)"
    ]
  },
  {
    "name": "イスカンダル木更津店",
    "operation_time": "10:00～24:00",
    "holiday": "無し",
    "latitude": "35.36956684",
    "longitude": "139.9172944",
    "tel": "0120-010-267",
    "address": "木更津市潮見4-1-2",
    "access": "木更津市役所より車で1分",
    "games": [
      "麻雀格闘倶楽部(ﾊｲｸﾞﾚｰﾄﾞﾓﾃﾞﾙ)"
    ]
  },
  {
    "name": "ラッキー中央店(フェリシダ)",
    "operation_time": "9:00～24:50",
    "holiday": "無し",
    "latitude": "35.61028144",
    "longitude": "140.1182438",
    "tel": "043-222-5610",
    "address": "千葉市中央区富士見2-8-1",
    "access": "JR千葉駅より徒歩5分",
    "games": [
      "麻雀格闘倶楽部(ﾊｲｸﾞﾚｰﾄﾞﾓﾃﾞﾙ)"
    ]
  },
  {
    "name": "ゲームチャリオット五井店",
    "operation_time": "10:00～24:00",
    "holiday": "無し",
    "latitude": "35.51363106",
    "longitude": "140.0899562",
    "tel": "0436-23-5533",
    "address": "市原市五井中央西2-1-2",
    "access": "JR五井駅西口駅前",
    "games": [
      "麻雀格闘倶楽部(ﾊｲｸﾞﾚｰﾄﾞﾓﾃﾞﾙ)"
    ]
  },
  {
    "name": "君津の湯",
    "operation_time": "",
    "holiday": "",
    "latitude": "35.31457044",
    "longitude": "139.927681",
    "tel": "0439-57-2641",
    "address": "君津市外箕輪154",
    "access": "",
    "games": [
      "麻雀格闘倶楽部(ﾊｲｸﾞﾚｰﾄﾞﾓﾃﾞﾙ)"
    ]
  },
  {
    "name": "スポーツウェーブ鉄腕24浜野店",
    "operation_time": "一部24時間営業",
    "holiday": "無し",
    "latitude": "35.55423187",
    "longitude": "140.1264305",
    "tel": "043-300-8033",
    "address": "千葉市中央区浜野町1025-59",
    "access": "館山自動車道蘇我ICより車で8分",
    "games": [
      "麻雀格闘倶楽部(ﾊｲｸﾞﾚｰﾄﾞﾓﾃﾞﾙ)"
    ]
  },
  {
    "name": "ラウンドワン市原店",
    "operation_time": "",
    "holiday": "",
    "latitude": "35.54749256",
    "longitude": "140.1233239",
    "tel": "0436-44-8801",
    "address": "市原市八幡北町3-5-1",
    "access": "",
    "games": [
      "麻雀格闘倶楽部(ﾊｲｸﾞﾚｰﾄﾞﾓﾃﾞﾙ)"
    ]
  },
  {
    "name": "ゲームチャリオット辰巳店",
    "operation_time": "10:00～24:00",
    "holiday": "無し",
    "latitude": "35.52471801",
    "longitude": "140.121946",
    "tel": "0436-41-9211",
    "address": "市原市市原500-1",
    "access": "館山自動車道蘇我ICより車で10分、国道297号線沿い",
    "games": [
      "麻雀格闘倶楽部(ﾊｲｸﾞﾚｰﾄﾞﾓﾃﾞﾙ)"
    ]
  },
  {
    "name": "フリスポ佐原",
    "operation_time": "",
    "holiday": "",
    "latitude": "35.90115035",
    "longitude": "140.493442",
    "tel": "0478-54-6160",
    "address": "香取市佐原イ-4200",
    "access": "",
    "games": [
      "麻雀格闘倶楽部(ﾊｲｸﾞﾚｰﾄﾞﾓﾃﾞﾙ)"
    ]
  },
  {
    "name": "千葉レジャーランド成東店",
    "operation_time": "一部24時間営業",
    "holiday": "無し",
    "latitude": "35.58828462",
    "longitude": "140.3904243",
    "tel": "047-580-1777",
    "address": "山武市姫島111-1",
    "access": "国道126号線成東町姫島地内ローソン奥",
    "games": [
      "麻雀格闘倶楽部(ﾊｲｸﾞﾚｰﾄﾞﾓﾃﾞﾙ)"
    ]
  },
  {
    "name": "タイトーステーション旭サンモール店",
    "operation_time": "9:00～24:00",
    "holiday": "無し",
    "latitude": "35.725157",
    "longitude": "140.658686",
    "tel": "0479-62-5215",
    "address": "旭市イ-2676-1サンモール3F",
    "access": "旭駅から歩いて5分。 イオン、サンモールの看板が目印",
    "games": [
      "麻雀格闘倶楽部(ﾊｲｸﾞﾚｰﾄﾞﾓﾃﾞﾙ)"
    ]
  }
]