[
  {
    "name": "三冠王",
    "operation_time": "10:00～24:00",
    "holiday": "無し",
    "latitude": "33.19079873",
    "longitude": "129.6528712",
    "tel": "0956-47-2141",
    "address": "佐世保市相浦町2689-1",
    "access": "松浦電鉄「相浦」下車車10分ほど。",
    "games": [
      "ノスタルジア"
    ]
  },
  {
    "name": "楽市楽座イオンモール福岡伊都店",
    "operation_time": "10:00～22:00",
    "holiday": "施設の営業日に準じる",
    "latitude": "33.577027",
    "longitude": "130.256399",
    "tel": "092-805-8900",
    "address": "福岡市西区北原1-3-1イオン伊都ショッピンクセンター別館",
    "access": "JR筑肥線 九大学研都市駅 南口すぐ",
    "games": [
      "ノスタルジア"
    ]
  },
  {
    "name": "GiGO武雄",
    "operation_time": "",
    "holiday": "",
    "latitude": "33.19933861",
    "longitude": "130.0346407",
    "tel": "0954-22-2087",
    "address": "武雄市武雄町大字富岡12517-1",
    "access": "",
    "games": [
      "ノスタルジア"
    ]
  },
  {
    "name": "GiGO福岡天神",
    "operation_time": "",
    "holiday": "",
    "latitude": "33.589905",
    "longitude": "130.396633",
    "tel": "092-771-8121",
    "address": "福岡市中央区天神2-7-6天神DADAビル",
    "access": "",
    "games": [
      "ノスタルジア"
    ]
  },
  {
    "name": "楽市街道箱崎店2F",
    "operation_time": "10:00～27:00",
    "holiday": "無し",
    "latitude": "33.62410817",
    "longitude": "130.4195897",
    "tel": "092-642-0760",
    "address": "福岡市東区箱崎5-1-8楽市街道箱崎店内2F",
    "access": "",
    "games": [
      "ノスタルジア"
    ]
  },
  {
    "name": "遊道楽 嘉瀬店",
    "operation_time": "11:00～24:00",
    "holiday": "無し",
    "latitude": "33.24215325",
    "longitude": "130.2565663",
    "tel": "0952-40-0952",
    "address": "佐賀市嘉瀬町大字中原2488-1",
    "access": "207号線沿い",
    "games": [
      "ノスタルジア"
    ]
  },
  {
    "name": "ラウンドワン大野城店",
    "operation_time": "",
    "holiday": "",
    "latitude": "33.54646948",
    "longitude": "130.4822214",
    "tel": "092-504-7411",
    "address": "大野城市御笠川1-18-16",
    "access": "",
    "games": [
      "ノスタルジア"
    ]
  },
  {
    "name": "楽市楽座黒崎店",
    "operation_time": "10:00～24:00",
    "holiday": "無し",
    "latitude": "33.86569306",
    "longitude": "130.7560829",
    "tel": "093-621-4800",
    "address": "北九州市八幡西区桜ヶ丘町1-3フレスポ黒崎2F",
    "access": "JR黒崎駅近く国道3号線沿い",
    "games": [
      "ノスタルジア"
    ]
  },
  {
    "name": "小倉メトロポリス店",
    "operation_time": "平日:10:00～23:50 土日祝前日9:00～23:50",
    "holiday": "無し",
    "latitude": "33.89633237",
    "longitude": "130.8596114",
    "tel": "093-581-5684",
    "address": "北九州市小倉北区西港町27-5",
    "access": "JR小倉駅 車で10分",
    "games": [
      "ノスタルジア"
    ]
  },
  {
    "name": "遊道楽新合川",
    "operation_time": "10:00～24:00",
    "holiday": "無し",
    "latitude": "33.32176241",
    "longitude": "130.541007",
    "tel": "0942-45-3335",
    "address": "久留米市新合川1-6-7",
    "access": "国道210号線バイパス沿い",
    "games": [
      "ノスタルジア"
    ]
  },
  {
    "name": "PEP魚町",
    "operation_time": "10:00～翌1:00",
    "holiday": "無し",
    "latitude": "33.88396547",
    "longitude": "130.880026",
    "tel": "093-513-1511",
    "address": "北九州市小倉北区魚町2-4-20",
    "access": "モノレール平和通り駅徒歩1分",
    "games": [
      "ノスタルジア"
    ]
  },
  {
    "name": "G-STAGE小倉店",
    "operation_time": "10:00～20:00",
    "holiday": "無し",
    "latitude": "33.88758128",
    "longitude": "130.8847829",
    "tel": "093-551-3133",
    "address": "北九州市小倉北区浅野2-14-5",
    "access": "小倉駅前あるあるシティ2F",
    "games": [
      "ノスタルジア"
    ]
  },
  {
    "name": "パスカワールドグリーンランド",
    "operation_time": "10:00～翌3:00",
    "holiday": "無し",
    "latitude": "32.98790587",
    "longitude": "130.4711246",
    "tel": "0968-69-3001",
    "address": "荒尾市本井手1574-54",
    "access": "三井グリーンランドウルトラマンランド横",
    "games": [
      "ノスタルジア"
    ]
  },
  {
    "name": "楽市楽座行橋店",
    "operation_time": "10:00～24:00",
    "holiday": "",
    "latitude": "33.717125",
    "longitude": "130.971633",
    "tel": "0930-25-3450",
    "address": "行橋市西泉6-1-1コスタ行橋アミューズ棟2F",
    "access": "",
    "games": [
      "ノスタルジア"
    ]
  },
  {
    "name": "G-pala日田店",
    "operation_time": "10:00～24:00",
    "holiday": "無し",
    "latitude": "33.32522467",
    "longitude": "130.9114515",
    "tel": "0973-25-5262",
    "address": "日田市友田997-1",
    "access": "",
    "games": [
      "ノスタルジア"
    ]
  },
  {
    "name": "GiGOイオンタウン小郡",
    "operation_time": "",
    "holiday": "",
    "latitude": "34.08701563",
    "longitude": "131.3986952",
    "tel": "083-974-5231",
    "address": "山口市小郡前田町3-6イオンタウン小郡内",
    "access": "",
    "games": [
      "ノスタルジア"
    ]
  },
  {
    "name": "ラウンドワン熊本店",
    "operation_time": "",
    "holiday": "",
    "latitude": "32.78499883",
    "longitude": "130.6775647",
    "tel": "096-325-7200",
    "address": "熊本市西区春日7-25-15",
    "access": "",
    "games": [
      "ノスタルジア"
    ]
  },
  {
    "name": "ユーズランド三光店",
    "operation_time": "10:00～21:00",
    "holiday": "",
    "latitude": "33.559002",
    "longitude": "131.192857",
    "tel": "0979-43-6562",
    "address": "中津市三光佐知1032イオン三光SC2F",
    "access": "",
    "games": [
      "ノスタルジア"
    ]
  },
  {
    "name": "タイトーFステーションニシムタ出水",
    "operation_time": "",
    "holiday": "",
    "latitude": "32.106272",
    "longitude": "130.345224",
    "tel": "0996-68-8150",
    "address": "出水市六月田町347",
    "access": "",
    "games": [
      "ノスタルジア"
    ]
  },
  {
    "name": "PALO防府",
    "operation_time": "",
    "holiday": "",
    "latitude": "34.0522015",
    "longitude": "131.5685841",
    "tel": "070-3100-3731",
    "address": "防府市中央町1-3イオン防府店3F",
    "access": "",
    "games": [
      "ノスタルジア"
    ]
  },
  {
    "name": "モーリーファンタジー那覇",
    "operation_time": "10:00～22:00",
    "holiday": "無し",
    "latitude": "26.19689585",
    "longitude": "127.6658336",
    "tel": "070-3100-5314",
    "address": "那覇市金城5-10-2イオン那覇3F",
    "access": "モノレール 小禄駅 正面 ジャスコ那覇店内3F",
    "games": [
      "ノスタルジア"
    ]
  },
  {
    "name": "ラウンドワン沖縄･宜野湾店",
    "operation_time": "",
    "holiday": "",
    "latitude": "26.27580261",
    "longitude": "127.7310389",
    "tel": "098-870-2110",
    "address": "宜野湾市真志喜3-28-8",
    "access": "",
    "games": [
      "ノスタルジア"
    ]
  },
  {
    "name": "GiGO別府",
    "operation_time": "",
    "holiday": "",
    "latitude": "33.29561901",
    "longitude": "131.5030598",
    "tel": "0977-25-3206",
    "address": "別府市餅ケ浜町161-2",
    "access": "",
    "games": [
      "ノスタルジア"
    ]
  },
  {
    "name": "ラウンドワン沖縄･南風原店",
    "operation_time": "",
    "holiday": "",
    "latitude": "26.19509176",
    "longitude": "127.7210653",
    "tel": "098-940-6670",
    "address": "島尻郡南風原町字兼城下茂原552",
    "access": "",
    "games": [
      "ノスタルジア"
    ]
  },
  {
    "name": "ラウンドワン鹿児島宇宿店",
    "operation_time": "",
    "holiday": "",
    "latitude": "31.54388304",
    "longitude": "130.5427759",
    "tel": "099-284-0655",
    "address": "鹿児島市宇宿2-2-2",
    "access": "",
    "games": [
      "ノスタルジア"
    ]
  },
  {
    "name": "アミューズメントスペース遊ランド稚内店",
    "operation_time": "",
    "holiday": "",
    "latitude": "45.40077226",
    "longitude": "141.6807113",
    "tel": "0162-22-2233",
    "address": "稚内市港5-8-15",
    "access": "",
    "games": [
      "ノスタルジア"
    ]
  },
  {
    "name": "タイトーFステーションセントポルタ大分店",
    "operation_time": "",
    "holiday": "",
    "latitude": "33.235334",
    "longitude": "131.606448",
    "tel": "097-533-2716",
    "address": "大分市中央町2-1-1",
    "access": "",
    "games": [
      "ノスタルジア"
    ]
  },
  {
    "name": "GiGO松江",
    "operation_time": "",
    "holiday": "",
    "latitude": "35.45018",
    "longitude": "133.047767",
    "tel": "0852-23-2231",
    "address": "松江市嫁島町12-15",
    "access": "",
    "games": [
      "ノスタルジア"
    ]
  },
  {
    "name": "スペースV1廿日市店",
    "operation_time": "10:00～24:00",
    "holiday": "無し",
    "latitude": "34.35185323",
    "longitude": "132.3340207",
    "tel": "0829-34-3311",
    "address": "廿日市市本町4-23",
    "access": "山陽本線廿日市駅下車2号線沿い東へ徒歩15分",
    "games": [
      "ノスタルジア"
    ]
  },
  {
    "name": "PALO松江",
    "operation_time": "",
    "holiday": "",
    "latitude": "35.4639773",
    "longitude": "133.0683985",
    "tel": "070-3100-4323",
    "address": "松江市東朝日町151イオン松江3F",
    "access": "",
    "games": [
      "ノスタルジア"
    ]
  },
  {
    "name": "GiGO高城",
    "operation_time": "",
    "holiday": "",
    "latitude": "33.24179967",
    "longitude": "131.6373957",
    "tel": "0975-56-9072",
    "address": "大分市牧1-161-8",
    "access": "",
    "games": [
      "ノスタルジア"
    ]
  },
  {
    "name": "GiGOアルパーク北棟",
    "operation_time": "",
    "holiday": "",
    "latitude": "34.37630292",
    "longitude": "132.3950257",
    "tel": "090-9155-1362",
    "address": "広島市西区草津南4-7-1アルパーク北棟2F",
    "access": "",
    "games": [
      "ノスタルジア"
    ]
  },
  {
    "name": "ふぇすたらんど可部店",
    "operation_time": "10:00～20:00",
    "holiday": "無し",
    "latitude": "34.523539",
    "longitude": "132.51202",
    "tel": "082-815-7313",
    "address": "広島市安佐北区可部7-4-13山陽マルナカ可部店2F",
    "access": "可部駅広電バス「上根・吉田線」可部駅前より乗車、可部上市停留所より徒歩3分",
    "games": [
      "ノスタルジア"
    ]
  },
  {
    "name": "モーリーファンタジーf広島祇園",
    "operation_time": "",
    "holiday": "",
    "latitude": "34.443849",
    "longitude": "132.461514",
    "tel": "070-3100-4142",
    "address": "広島市安佐南区祇園3-2-1イオンモール広島祇園店3F",
    "access": "",
    "games": [
      "ノスタルジア"
    ]
  },
  {
    "name": "タイトーステーション広島紙屋町店",
    "operation_time": "平日10:00～24:00 土日祝9:00～24:00",
    "holiday": "無し",
    "latitude": "34.394034",
    "longitude": "132.456154",
    "tel": "082-544-3961",
    "address": "広島市中区紙屋町2-2-21",
    "access": "広島電鉄 紙屋町西電停より徒歩2分",
    "games": [
      "ノスタルジア"
    ]
  },
  {
    "name": "ラウンドワン広島店",
    "operation_time": "",
    "holiday": "",
    "latitude": "34.39365895",
    "longitude": "132.4600423",
    "tel": "082-545-8910",
    "address": "広島市中区立町3-11",
    "access": "",
    "games": [
      "ノスタルジア"
    ]
  },
  {
    "name": "タイトーステーション広島本通店",
    "operation_time": "10:00～24:00",
    "holiday": "無し",
    "latitude": "34.3929912",
    "longitude": "132.4599026",
    "tel": "082-541-6345",
    "address": "広島市中区本通3-5せらかぐ本通ビル",
    "access": "広島電鉄・立町駅より徒歩5分",
    "games": [
      "ノスタルジア"
    ]
  },
  {
    "name": "ビバーチャ",
    "operation_time": "",
    "holiday": "",
    "latitude": "34.37953351",
    "longitude": "132.4613726",
    "tel": "082-504-8665",
    "address": "広島市中区南竹屋町10-17",
    "access": "",
    "games": [
      "ノスタルジア"
    ]
  },
  {
    "name": "楽市楽座広島店",
    "operation_time": "10:00～21:00",
    "holiday": "",
    "latitude": "34.38537812",
    "longitude": "132.4760483",
    "tel": "082-264-3343",
    "address": "広島市南区段原南1-3-52広島段原ショッピングセンター7F",
    "access": "",
    "games": [
      "ノスタルジア"
    ]
  },
  {
    "name": "PALO境港",
    "operation_time": "",
    "holiday": "",
    "latitude": "35.52243536",
    "longitude": "133.2524414",
    "tel": "070-3100-5063",
    "address": "境港市竹内団地81-3",
    "access": "",
    "games": [
      "ノスタルジア"
    ]
  },
  {
    "name": "GiGO延岡",
    "operation_time": "",
    "holiday": "",
    "latitude": "32.54990417",
    "longitude": "131.6779289",
    "tel": "0982-35-5917",
    "address": "延岡市平原町5-1492-8",
    "access": "",
    "games": [
      "ノスタルジア"
    ]
  },
  {
    "name": "ラウンドワン宮崎店",
    "operation_time": "",
    "holiday": "",
    "latitude": "31.89458335",
    "longitude": "131.4170876",
    "tel": "0985-63-1210",
    "address": "宮崎市中村東3-4-60",
    "access": "",
    "games": [
      "ノスタルジア"
    ]
  },
  {
    "name": "バンバン衣山店",
    "operation_time": "10:00～24:00",
    "holiday": "無し",
    "latitude": "33.85248",
    "longitude": "132.7461968",
    "tel": "089-923-4555",
    "address": "松山市衣山1-248-1",
    "access": "",
    "games": [
      "ノスタルジア"
    ]
  },
  {
    "name": "宮西スタジアム",
    "operation_time": "",
    "holiday": "無し",
    "latitude": "33.848559",
    "longitude": "132.7518258",
    "tel": "089-924-5070",
    "address": "松山市宮西2-4-41",
    "access": "JR松山駅より徒歩15分",
    "games": [
      "ノスタルジア"
    ]
  },
  {
    "name": "アミューズメントパークMGキスケ店",
    "operation_time": "",
    "holiday": "無し",
    "latitude": "33.84135404",
    "longitude": "132.753158",
    "tel": "089-933-2737",
    "address": "松山市宮田町4キスケボール1F内ゲームコーナー",
    "access": "JR松山駅より徒歩3分",
    "games": [
      "ノスタルジア"
    ]
  },
  {
    "name": "GiGO松山",
    "operation_time": "",
    "holiday": "",
    "latitude": "33.8283068",
    "longitude": "132.7864608",
    "tel": "089-935-5414",
    "address": "松山市枝松5-7-32",
    "access": "",
    "games": [
      "ノスタルジア"
    ]
  },
  {
    "name": "アミューズメントパークMG東予店",
    "operation_time": "",
    "holiday": "",
    "latitude": "33.9205621",
    "longitude": "133.0775644",
    "tel": "0898-35-3222",
    "address": "西条市周布715-1フジ東予店 別棟",
    "access": "",
    "games": [
      "ノスタルジア"
    ]
  },
  {
    "name": "ファンタジスタ",
    "operation_time": "12:00～24:00",
    "holiday": "店舗にお問合わせください",
    "latitude": "34.5583269",
    "longitude": "133.6767549",
    "tel": "086-526-0438",
    "address": "倉敷市新倉敷駅前5-194",
    "access": "JR西日本山陽本線「新倉敷」駅から南西に徒歩10分",
    "games": [
      "ノスタルジア"
    ]
  },
  {
    "name": "ドライブイン古城",
    "operation_time": "7:00～24:00",
    "holiday": "無し",
    "latitude": "34.55139486",
    "longitude": "133.7675318",
    "tel": "086-455-5190",
    "address": "倉敷市福田町福田2111-1",
    "access": "早島ICより車で20分",
    "games": [
      "ノスタルジア"
    ]
  },
  {
    "name": "GiGO岡山藤崎",
    "operation_time": "",
    "holiday": "",
    "latitude": "34.60877931",
    "longitude": "133.9765779",
    "tel": "086-274-3801",
    "address": "岡山市中区藤崎599-12",
    "access": "",
    "games": [
      "ノスタルジア"
    ]
  },
  {
    "name": "マックスプラザ善通寺",
    "operation_time": "",
    "holiday": "",
    "latitude": "34.24362494",
    "longitude": "133.7639965",
    "tel": "0877-63-4333",
    "address": "善通寺市中村町1798-2",
    "access": "",
    "games": [
      "ノスタルジア"
    ]
  },
  {
    "name": "ジョイプラザ豊岡店",
    "operation_time": "10:00～22:00 金・土・祝前日10:00～24:00",
    "holiday": "年2回休日有り",
    "latitude": "35.5508426",
    "longitude": "134.8163813",
    "tel": "0796-29-0102",
    "address": "豊岡市加広町7-32コープデイズ豊岡内",
    "access": "",
    "games": [
      "ノスタルジア"
    ]
  },
  {
    "name": "アドアーズ札幌北42条店",
    "operation_time": "10:00～23:00",
    "holiday": "無し",
    "latitude": "43.11197882",
    "longitude": "141.3551118",
    "tel": "011-748-7530",
    "address": "札幌市東区北42条東7-1-1嶋ビル2F",
    "access": "丘珠空港通 ドン・キホーテ2F",
    "games": [
      "ノスタルジア"
    ]
  },
  {
    "name": "ラウンドワン札幌北21条店",
    "operation_time": "",
    "holiday": "",
    "latitude": "43.08681907",
    "longitude": "141.3495671",
    "tel": "011-733-8801",
    "address": "札幌市東区北21条東1-1-21",
    "access": "",
    "games": [
      "ノスタルジア"
    ]
  },
  {
    "name": "ラウンドワン札幌すすきの店",
    "operation_time": "",
    "holiday": "",
    "latitude": "43.05431311",
    "longitude": "141.3540587",
    "tel": "011-520-1022",
    "address": "札幌市中央区南五条西3-6-1札幌東宝公楽ビル",
    "access": "",
    "games": [
      "ノスタルジア"
    ]
  },
  {
    "name": "ラウンドワン高知店",
    "operation_time": "",
    "holiday": "",
    "latitude": "33.55793713",
    "longitude": "133.554676",
    "tel": "088-804-3070",
    "address": "高知市南宝永町4-12",
    "access": "",
    "games": [
      "ノスタルジア"
    ]
  },
  {
    "name": "遊ランド春光店",
    "operation_time": "11:00～翌4:00",
    "holiday": "無し",
    "latitude": "43.798192",
    "longitude": "142.373983",
    "tel": "0166-55-3355",
    "address": "旭川市春光1条7-2-25",
    "access": "JR旭川駅車20分",
    "games": [
      "ノスタルジア"
    ]
  },
  {
    "name": "遊ランド西御料店",
    "operation_time": "平日12:00～翌3:00 金・土・祝前日11:00～翌5:00",
    "holiday": "無し",
    "latitude": "43.723884",
    "longitude": "142.368924",
    "tel": "0166-60-5050",
    "address": "旭川市西御料5条2-64-19",
    "access": "旭川環状線1号から美瑛・富良野方面へお進み下さいませ",
    "games": [
      "ノスタルジア"
    ]
  },
  {
    "name": "アピナ姫路店",
    "operation_time": "",
    "holiday": "",
    "latitude": "34.82687",
    "longitude": "134.7151",
    "tel": "079-222-8811",
    "address": "姫路市東郷町1454-3姫路リオス2F",
    "access": "",
    "games": [
      "ノスタルジア"
    ]
  },
  {
    "name": "タイトーステーション千歳店",
    "operation_time": "10:00-24:00",
    "holiday": "無し",
    "latitude": "42.833396",
    "longitude": "141.6439587",
    "tel": "0123-42-4195",
    "address": "千歳市北栄2-12-5",
    "access": "千歳駅から札幌方面に徒歩10分",
    "games": [
      "ノスタルジア"
    ]
  },
  {
    "name": "ラウンドワン函館店",
    "operation_time": "",
    "holiday": "",
    "latitude": "41.82459206",
    "longitude": "140.7173548",
    "tel": "0138-49-8401",
    "address": "函館市西桔梗町848-11",
    "access": "",
    "games": [
      "ノスタルジア"
    ]
  },
  {
    "name": "ラウンドワン加古川店",
    "operation_time": "",
    "holiday": "",
    "latitude": "34.74708002",
    "longitude": "134.836935",
    "tel": "0794-29-2513",
    "address": "加古川市尾上町安田字小河原325番6号",
    "access": "",
    "games": [
      "ノスタルジア"
    ]
  },
  {
    "name": "ファンタジープラザ苫小牧店",
    "operation_time": "",
    "holiday": "",
    "latitude": "42.64112709",
    "longitude": "141.5953404",
    "tel": "0144-34-4390",
    "address": "苫小牧市木場町1-6-1MEGAドンキホーテ苫小牧店2F",
    "access": "",
    "games": [
      "ノスタルジア"
    ]
  },
  {
    "name": "GiGO明石",
    "operation_time": "10:00～24:00",
    "holiday": "",
    "latitude": "34.72071543",
    "longitude": "134.8974952",
    "tel": "078-941-7676",
    "address": "明石市魚住町清水2464-1ドライブインながさわ内",
    "access": "JR山陽本線 土山駅 より徒歩10分",
    "games": [
      "ノスタルジア"
    ]
  },
  {
    "name": "アポロゲームセンター沖洲店",
    "operation_time": "10:00～24:00",
    "holiday": "無し",
    "latitude": "34.06713618",
    "longitude": "134.5828321",
    "tel": "088-664-0311",
    "address": "徳島市南沖洲1-93",
    "access": "徳島駅より東へ車で約15分",
    "games": [
      "ノスタルジア"
    ]
  },
  {
    "name": "PALO小松島",
    "operation_time": "",
    "holiday": "",
    "latitude": "34.00568188",
    "longitude": "134.5726547",
    "tel": "070-3100-5034",
    "address": "小松島市小松島町字領田20小松島ショッピングプラザルピア1F",
    "access": "",
    "games": [
      "ノスタルジア"
    ]
  },
  {
    "name": "アミューズメント ミール",
    "operation_time": "10:00～24:00",
    "holiday": "無し",
    "latitude": "34.88047252",
    "longitude": "135.2295927",
    "tel": "0795-64-5678",
    "address": "三田市対中町5-21",
    "access": "神戸電鉄三田本町駅下車国道176号線側へ徒歩5分。車の場合はガリバー三田店より176号を三田方面へ、ブックプラザ三田店の向かい。",
    "games": [
      "ノスタルジア"
    ]
  },
  {
    "name": "ベティ",
    "operation_time": "",
    "holiday": "",
    "latitude": "37.06731535",
    "longitude": "136.9070025",
    "tel": "0767-68-6211",
    "address": "七尾市舟尾町ウ-38",
    "access": "国道249号線沿い田鶴浜町地内",
    "games": [
      "ノスタルジア"
    ]
  },
  {
    "name": "アルゴ",
    "operation_time": "11:15～23:30",
    "holiday": "無し",
    "latitude": "34.69392181",
    "longitude": "135.1914556",
    "tel": "078-334-3031",
    "address": "神戸市中央区下山手通1-1-8",
    "access": "JR三ノ宮駅下車徒歩5分生田神社前",
    "games": [
      "ノスタルジア"
    ]
  },
  {
    "name": "遊･スペース マジカル",
    "operation_time": "9:00～24:00",
    "holiday": "無し",
    "latitude": "34.69551577",
    "longitude": "135.1950261",
    "tel": "078-414-8844",
    "address": "神戸市中央区琴ノ緒町5-2-3協律三宮センタービル3F",
    "access": "JR三ノ宮駅下車徒歩5分",
    "games": [
      "ノスタルジア"
    ]
  },
  {
    "name": "バイパスレジャーランド加賀店",
    "operation_time": "一部24時間営業",
    "holiday": "無し",
    "latitude": "36.32515503",
    "longitude": "136.4113746",
    "tel": "0761-74-8007",
    "address": "加賀市箱宮町ヲ1-1",
    "access": "国道8号線加賀産業道路終点近く",
    "games": [
      "ノスタルジア"
    ]
  },
  {
    "name": "バイパスレジャーランド藤江新館",
    "operation_time": "",
    "holiday": "",
    "latitude": "36.58375651",
    "longitude": "136.6206642",
    "tel": "076-268-7518",
    "address": "金沢市藤江南2-105",
    "access": "",
    "games": [
      "ノスタルジア"
    ]
  },
  {
    "name": "GiGO福井",
    "operation_time": "",
    "holiday": "",
    "latitude": "36.073357",
    "longitude": "136.243038",
    "tel": "0776-52-0806",
    "address": "福井市丸山町1-410",
    "access": "",
    "games": [
      "ノスタルジア"
    ]
  },
  {
    "name": "福井レジャーランド板垣店",
    "operation_time": "",
    "holiday": "",
    "latitude": "36.042283",
    "longitude": "136.233748",
    "tel": "0776-33-5510",
    "address": "福井市下馬3-112",
    "access": "",
    "games": [
      "ノスタルジア"
    ]
  },
  {
    "name": "タイトーFステーション鯖江店",
    "operation_time": "",
    "holiday": "",
    "latitude": "35.96799",
    "longitude": "136.18919",
    "tel": "077-851-8850",
    "address": "鯖江市下河端町16字下町16-1アルプラザ鯖江店",
    "access": "",
    "games": [
      "ノスタルジア"
    ]
  },
  {
    "name": "ラウンドワン金沢店",
    "operation_time": "",
    "holiday": "",
    "latitude": "36.54211559",
    "longitude": "136.626054",
    "tel": "076-245-1850",
    "address": "金沢市横川6-120-1",
    "access": "",
    "games": [
      "ノスタルジア"
    ]
  },
  {
    "name": "タイトーステーション金沢店",
    "operation_time": "10:00～24:00 金・土・祝前日10:00～翌1:00",
    "holiday": "無し",
    "latitude": "36.561336",
    "longitude": "136.652994",
    "tel": "0762-65-5316",
    "address": "金沢市片町2-1-7宇都宮片町ビル1F",
    "access": "香林坊バス停より徒歩1分",
    "games": [
      "ノスタルジア"
    ]
  },
  {
    "name": "PALO五所川原",
    "operation_time": "",
    "holiday": "",
    "latitude": "40.80095013",
    "longitude": "140.4614581",
    "tel": "070-3100-5496",
    "address": "五所川原市大字唐笠柳字藤巻641-1",
    "access": "",
    "games": [
      "ノスタルジア"
    ]
  },
  {
    "name": "パルケ上賀茂店",
    "operation_time": "平日12:00～24:00 土11:00～24:00 日12:00～24:00",
    "holiday": "",
    "latitude": "35.06680723",
    "longitude": "135.7462635",
    "tel": "075-711-4622",
    "address": "京都市北区上賀茂西河原町1-1",
    "access": "",
    "games": [
      "ノスタルジア"
    ]
  },
  {
    "name": "あそVIVA阪急茨木店",
    "operation_time": "",
    "holiday": "",
    "latitude": "34.817929",
    "longitude": "135.576325",
    "tel": "072-631-6606",
    "address": "茨木市永代町6-2スポーツプラザ茨木2F",
    "access": "",
    "games": [
      "ノスタルジア"
    ]
  },
  {
    "name": "ラウンドワン東淀川店",
    "operation_time": "",
    "holiday": "",
    "latitude": "34.74289355",
    "longitude": "135.5255278",
    "tel": "06-6160-2221",
    "address": "大阪市東淀川区菅原7-14-29",
    "access": "",
    "games": [
      "ノスタルジア"
    ]
  },
  {
    "name": "ラウンドワン梅田店",
    "operation_time": "",
    "holiday": "",
    "latitude": "34.70337769",
    "longitude": "135.5009178",
    "tel": "06-6312-6800",
    "address": "大阪市北区小松原町4-16",
    "access": "",
    "games": [
      "ノスタルジア"
    ]
  },
  {
    "name": "ゲームパニック堺",
    "operation_time": "10:00～23:45",
    "holiday": "無し",
    "latitude": "34.597817",
    "longitude": "135.447433",
    "tel": "072-224-8295",
    "address": "堺市堺区築港八幡町1-1堺浜シーサイド内堺浜えんため館",
    "access": "南海バス20系統「堺市内北回り」 堺駅西口→堺浜シーサイドステージ約17分 堺東駅→堺浜シーサイドステージ約25分",
    "games": [
      "ノスタルジア"
    ]
  },
  {
    "name": "ザ･インドアゲーム",
    "operation_time": "平日12:00～24:00 土日祝11:00～24:00",
    "holiday": "無し",
    "latitude": "34.72953957",
    "longitude": "135.5440365",
    "tel": "06-6955-4494",
    "address": "大阪市旭区中宮5-6-19",
    "access": "大阪工業大学正門前通り",
    "games": [
      "ノスタルジア"
    ]
  },
  {
    "name": "ラウンドワン千日前店",
    "operation_time": "",
    "holiday": "",
    "latitude": "34.667424",
    "longitude": "135.5026714",
    "tel": "06-4708-2600",
    "address": "大阪市中央区難波1-3-1",
    "access": "",
    "games": [
      "ノスタルジア"
    ]
  },
  {
    "name": "GiGO難波アビオン",
    "operation_time": "",
    "holiday": "",
    "latitude": "34.66278737",
    "longitude": "135.5032116",
    "tel": "070-1458-1437",
    "address": "大阪市浪速区難波中2-3-15MMOビル1-2F",
    "access": "",
    "games": [
      "ノスタルジア"
    ]
  },
  {
    "name": "モーリーファンタジー能代",
    "operation_time": "",
    "holiday": "",
    "latitude": "40.20908577",
    "longitude": "140.0246075",
    "tel": "070-3100-4928",
    "address": "能代市柳町11-1イオン3F",
    "access": "",
    "games": [
      "ノスタルジア"
    ]
  },
  {
    "name": "タイトーステーション大阪日本橋店",
    "operation_time": "10:00～24:00",
    "holiday": "無し",
    "latitude": "34.660362",
    "longitude": "135.506113",
    "tel": "06-6630-7270",
    "address": "大阪市浪速区日本橋4-9-14",
    "access": "地下鉄なんば駅・日本橋駅・恵美須町駅から約7分ほど。",
    "games": [
      "ノスタルジア"
    ]
  },
  {
    "name": "ラウンドワン京都河原町店",
    "operation_time": "",
    "holiday": "",
    "latitude": "35.00699573",
    "longitude": "135.7685149",
    "tel": "075-213-8400",
    "address": "京都市中京区河原町通り三条下ル山崎町250",
    "access": "",
    "games": [
      "ノスタルジア"
    ]
  },
  {
    "name": "ラウンドワン守口店",
    "operation_time": "",
    "holiday": "",
    "latitude": "34.7562488",
    "longitude": "135.5886793",
    "tel": "06-6907-9270",
    "address": "守口市佐太東町2-6-14ジャガーグリーン2F",
    "access": "",
    "games": [
      "ノスタルジア"
    ]
  },
  {
    "name": "GiGOイオンモール日根野",
    "operation_time": "",
    "holiday": "",
    "latitude": "34.393093",
    "longitude": "135.333584",
    "tel": "080-7363-8474",
    "address": "泉佐野市日根野2496-1イオンモール日根野2F",
    "access": "",
    "games": [
      "ノスタルジア"
    ]
  },
  {
    "name": "GiGO今福",
    "operation_time": "",
    "holiday": "",
    "latitude": "34.70112",
    "longitude": "135.55743",
    "tel": "06-6931-1875",
    "address": "大阪市城東区今福東1-9-34",
    "access": "",
    "games": [
      "ノスタルジア"
    ]
  },
  {
    "name": "ラウンドワン岸和田店",
    "operation_time": "",
    "holiday": "",
    "latitude": "34.45649962",
    "longitude": "135.3885278",
    "tel": "072-429-1100",
    "address": "岸和田市八阪町2-11-1",
    "access": "",
    "games": [
      "ノスタルジア"
    ]
  },
  {
    "name": "YAZ寝屋川店",
    "operation_time": "",
    "holiday": "",
    "latitude": "34.78044073",
    "longitude": "135.6193889",
    "tel": "072-830-7755",
    "address": "寝屋川市石津中町25-26",
    "access": "",
    "games": [
      "ノスタルジア"
    ]
  },
  {
    "name": "GiGO布施",
    "operation_time": "",
    "holiday": "",
    "latitude": "34.66416946",
    "longitude": "135.5628455",
    "tel": "06-6783-6999",
    "address": "東大阪市長堂1-1-1ロンモール布施内",
    "access": "",
    "games": [
      "ノスタルジア"
    ]
  },
  {
    "name": "GiGO枚方",
    "operation_time": "",
    "holiday": "",
    "latitude": "34.81956439",
    "longitude": "135.675398",
    "tel": "072-898-9019",
    "address": "枚方市須山町83-1サンシャインプラザ枚方内",
    "access": "",
    "games": [
      "ノスタルジア"
    ]
  },
  {
    "name": "ラウンドワン堺中央環状店",
    "operation_time": "",
    "holiday": "",
    "latitude": "34.55707895",
    "longitude": "135.5362412",
    "tel": "072-253-9559",
    "address": "堺市東区石原町2-241",
    "access": "",
    "games": [
      "ノスタルジア"
    ]
  },
  {
    "name": "ラウンドワン東大阪店",
    "operation_time": "",
    "holiday": "",
    "latitude": "34.6531932",
    "longitude": "135.60637",
    "tel": "06-6224-1700",
    "address": "東大阪市若江南町1-2-12",
    "access": "",
    "games": [
      "ノスタルジア"
    ]
  },
  {
    "name": "ラウンドワン浜大津アーカス店",
    "operation_time": "",
    "holiday": "",
    "latitude": "35.010557",
    "longitude": "135.866804",
    "tel": "077-526-8722",
    "address": "大津市浜町2-1浜大津アーカス4F",
    "access": "",
    "games": [
      "ノスタルジア"
    ]
  },
  {
    "name": "トヤマレジャーランド呉羽店",
    "operation_time": "一部24時間営業",
    "holiday": "無し",
    "latitude": "36.71545083",
    "longitude": "137.1579046",
    "tel": "076-434-5336",
    "address": "富山市高木字貝塚2054",
    "access": "県道44号線沿い呉羽本町交差点を富山方面方向に車で3分",
    "games": [
      "ノスタルジア"
    ]
  },
  {
    "name": "滋賀レジャーランド大津店",
    "operation_time": "",
    "holiday": "",
    "latitude": "35.003875",
    "longitude": "135.883431",
    "tel": "077-548-7851",
    "address": "大津市におの浜3-1-43",
    "access": "",
    "games": [
      "ノスタルジア"
    ]
  },
  {
    "name": "ラウンドワン青森店",
    "operation_time": "",
    "holiday": "",
    "latitude": "40.79867718",
    "longitude": "140.7483213",
    "tel": "017-762-3591",
    "address": "青森市浜田3-1-1",
    "access": "",
    "games": [
      "ノスタルジア"
    ]
  },
  {
    "name": "アピナ富山豊田店",
    "operation_time": "10:00～24:00",
    "holiday": "無し",
    "latitude": "36.7211336",
    "longitude": "137.2352552",
    "tel": "076-433-3355",
    "address": "富山市豊田町2-12-66",
    "access": "国道8号線豊田東交差点近く",
    "games": [
      "ノスタルジア"
    ]
  },
  {
    "name": "エースレーン守山",
    "operation_time": "10:00～24:00",
    "holiday": "無し",
    "latitude": "35.06802993",
    "longitude": "135.9957195",
    "tel": "077-514-2455",
    "address": "守山市播磨田町231-4ACT守山3番館内",
    "access": "名神高速道栗東IC出て国道8号線彦根方面向かい辻交差点左折し15分 JR守山駅よりタクシー5分",
    "games": [
      "ノスタルジア"
    ]
  },
  {
    "name": "アピナ富山南店",
    "operation_time": "10:00～24:00",
    "holiday": "無し",
    "latitude": "36.665007",
    "longitude": "137.217248",
    "tel": "076-461-6644",
    "address": "富山市堀川町355-3",
    "access": "富山マイプラザ店内",
    "games": [
      "ノスタルジア"
    ]
  },
  {
    "name": "アピナ富山新庄店",
    "operation_time": "10:00～24:00",
    "holiday": "無し",
    "latitude": "36.69533117",
    "longitude": "137.2480753",
    "tel": "076-491-7700",
    "address": "富山市荒川3-2-12",
    "access": "",
    "games": [
      "ノスタルジア"
    ]
  },
  {
    "name": "ゲームスポットアップル",
    "operation_time": "",
    "holiday": "",
    "latitude": "36.8255737",
    "longitude": "137.4142933",
    "tel": "0765-24-7740",
    "address": "魚津市吉島2-407-1",
    "access": "",
    "games": [
      "ノスタルジア"
    ]
  },
  {
    "name": "ラウンドワン奈良ミナーラ店",
    "operation_time": "",
    "holiday": "",
    "latitude": "34.685231",
    "longitude": "135.802224",
    "tel": "0742-32-3900",
    "address": "奈良市二条大路南1-3-1ミ･ナーラ5F",
    "access": "",
    "games": [
      "ノスタルジア"
    ]
  },
  {
    "name": "キッズサーカス奈良柏木店",
    "operation_time": "",
    "holiday": "",
    "latitude": "34.67167",
    "longitude": "135.799186",
    "tel": "0742-93-4464",
    "address": "奈良市柏木町456-1",
    "access": "",
    "games": [
      "ノスタルジア"
    ]
  },
  {
    "name": "アミューズメントCUE奈良三条店",
    "operation_time": "10:00～24:00",
    "holiday": "無し",
    "latitude": "34.68177805",
    "longitude": "135.8221257",
    "tel": "0742-25-5115",
    "address": "奈良市三条町478-1",
    "access": "JR奈良駅から三条通りを東へすぐ",
    "games": [
      "ノスタルジア"
    ]
  },
  {
    "name": "彦根パスカ",
    "operation_time": "13:00～24:00",
    "holiday": "無し",
    "latitude": "35.25868777",
    "longitude": "136.2653241",
    "tel": "070-3166-4833",
    "address": "彦根市西沼波町166",
    "access": "近江鉄道ひこね芹川駅下車徒歩10分",
    "games": [
      "ノスタルジア"
    ]
  },
  {
    "name": "GiGOドリームタウン白樺",
    "operation_time": "9:00～翌3:00",
    "holiday": "無し",
    "latitude": "42.91947724",
    "longitude": "143.174195",
    "tel": "080-7422-4566",
    "address": "帯広市白樺16条西2ドリームタウン白樺内",
    "access": "ドリームタウン白樺内",
    "games": [
      "ノスタルジア"
    ]
  },
  {
    "name": "GiGO秋田",
    "operation_time": "",
    "holiday": "",
    "latitude": "39.7042341",
    "longitude": "140.1035537",
    "tel": "018-864-8421",
    "address": "秋田市茨島1-1-16",
    "access": "",
    "games": [
      "ノスタルジア"
    ]
  },
  {
    "name": "ラウンドワン秋田店",
    "operation_time": "",
    "holiday": "",
    "latitude": "39.70235247",
    "longitude": "140.1092394",
    "tel": "018-896-6711",
    "address": "秋田市卸町1-1-2",
    "access": "",
    "games": [
      "ノスタルジア"
    ]
  },
  {
    "name": "ドリーム キャンディ",
    "operation_time": "一部24時間",
    "holiday": "無し",
    "latitude": "34.775269",
    "longitude": "136.122796",
    "tel": "0595-26-7568",
    "address": "伊賀市小田町711-1",
    "access": "西大手駅から約13分",
    "games": [
      "ノスタルジア"
    ]
  },
  {
    "name": "アピナ本巣店",
    "operation_time": "",
    "holiday": "",
    "latitude": "35.43269599",
    "longitude": "136.6400994",
    "tel": "058-323-3311",
    "address": "本巣市政田字下西浦1986イオンタウン本巣内",
    "access": "",
    "games": [
      "ノスタルジア"
    ]
  },
  {
    "name": "ラウンドワンモレラ岐阜店",
    "operation_time": "",
    "holiday": "",
    "latitude": "35.455121",
    "longitude": "136.672955",
    "tel": "058-323-6600",
    "address": "本巣市三橋1100",
    "access": "",
    "games": [
      "ノスタルジア"
    ]
  },
  {
    "name": "大垣メトロポリス",
    "operation_time": "10:00～24:00",
    "holiday": "無し",
    "latitude": "35.36694278",
    "longitude": "136.6291725",
    "tel": "0584-75-5734",
    "address": "大垣市三塚町字西沼523-1",
    "access": "",
    "games": [
      "ノスタルジア"
    ]
  },
  {
    "name": "GiGO名張",
    "operation_time": "",
    "holiday": "",
    "latitude": "34.62355779",
    "longitude": "136.1036705",
    "tel": "0595-62-1008",
    "address": "名張市希央台3-15",
    "access": "",
    "games": [
      "ノスタルジア"
    ]
  },
  {
    "name": "GiGO高山",
    "operation_time": "",
    "holiday": "",
    "latitude": "36.142672",
    "longitude": "137.243637",
    "tel": "0577-35-5077",
    "address": "高山市上岡本町7-7",
    "access": "",
    "games": [
      "ノスタルジア"
    ]
  },
  {
    "name": "岐阜レジャーランド穂積店",
    "operation_time": "7:00～24:00",
    "holiday": "無し",
    "latitude": "35.38432479",
    "longitude": "136.6846653",
    "tel": "058-326-1133",
    "address": "瑞穂市稲里630",
    "access": "国道21号線沿い瑞穂市野田新田交差点近く",
    "games": [
      "ノスタルジア"
    ]
  },
  {
    "name": "モーリーファンタジー本荘",
    "operation_time": "",
    "holiday": "",
    "latitude": "39.39161012",
    "longitude": "140.026304",
    "tel": "080-3476-8892",
    "address": "由利本荘市石脇字田中138イオンスーパーセンター本荘店1F",
    "access": "",
    "games": [
      "ノスタルジア"
    ]
  },
  {
    "name": "A.Cグランド",
    "operation_time": "9:00～24:00",
    "holiday": "無し",
    "latitude": "35.38308553",
    "longitude": "136.7461998",
    "tel": "058-275-0351",
    "address": "岐阜市茜部大川1-77",
    "access": "名鉄新岐阜駅15分",
    "games": [
      "ノスタルジア"
    ]
  },
  {
    "name": "GiGOマーゴ関",
    "operation_time": "",
    "holiday": "",
    "latitude": "35.479716",
    "longitude": "136.900472",
    "tel": "0575-23-6617",
    "address": "関市倉知516マーゴシネマ館2F",
    "access": "",
    "games": [
      "ノスタルジア"
    ]
  },
  {
    "name": "タイトーFステーション上越店",
    "operation_time": "",
    "holiday": "",
    "latitude": "37.148097",
    "longitude": "138.259034",
    "tel": "025-530-7115",
    "address": "上越市富岡3524J-maxシアター内1F",
    "access": "J-MAXシアター1F",
    "games": [
      "ノスタルジア"
    ]
  },
  {
    "name": "GiGO生桑",
    "operation_time": "",
    "holiday": "",
    "latitude": "34.986457",
    "longitude": "136.601599",
    "tel": "059-332-9988",
    "address": "四日市市生桑町299-1",
    "access": "",
    "games": [
      "ノスタルジア"
    ]
  },
  {
    "name": "アピナ鈴鹿店",
    "operation_time": "店舗に直接お問い合わせください",
    "holiday": "店舗に直接お問い合わせください",
    "latitude": "34.871989",
    "longitude": "136.527078",
    "tel": "059-375-3739",
    "address": "鈴鹿市庄野羽山4-20-1イオンタウン鈴鹿2F",
    "access": "イオンタウン鈴鹿2階",
    "games": [
      "ノスタルジア"
    ]
  },
  {
    "name": "楽市楽座イオンモール扶桑店",
    "operation_time": "10:00～21:00",
    "holiday": "無し",
    "latitude": "35.36209526",
    "longitude": "136.8990146",
    "tel": "0587-93-7132",
    "address": "丹羽郡扶桑町南山名字高塚5イオンモール扶桑2F",
    "access": "名鉄犬山線「扶桑駅」より車で10分。イオン扶桑店2F。",
    "games": [
      "ノスタルジア"
    ]
  },
  {
    "name": "ユーズランド下田店",
    "operation_time": "10:00～21:00",
    "holiday": "無し",
    "latitude": "40.60188383",
    "longitude": "141.4176032",
    "tel": "0178-50-3237",
    "address": "上北郡おいらせ町中野平40-1イオンモール下田1F",
    "access": "イオン下田SC1・2FJR下田駅よりバスで10分八戸市より車で約15km、三沢市より車で約15km",
    "games": [
      "ノスタルジア"
    ]
  },
  {
    "name": "アピナ四日市店",
    "operation_time": "",
    "holiday": "",
    "latitude": "34.94000426",
    "longitude": "136.6070666",
    "tel": "059-349-5011",
    "address": "四日市市泊小柳町4-34",
    "access": "",
    "games": [
      "ノスタルジア"
    ]
  },
  {
    "name": "GiGO久居",
    "operation_time": "",
    "holiday": "",
    "latitude": "34.68401431",
    "longitude": "136.4667248",
    "tel": "059-254-6181",
    "address": "津市久居明神町字風早2534-1",
    "access": "",
    "games": [
      "ノスタルジア"
    ]
  },
  {
    "name": "ラウンドワン新潟店",
    "operation_time": "",
    "holiday": "",
    "latitude": "37.88807436",
    "longitude": "139.0177537",
    "tel": "025-280-1322",
    "address": "新潟市中央区美咲町2-1-38",
    "access": "",
    "games": [
      "ノスタルジア"
    ]
  },
  {
    "name": "プレイハウスエリナ",
    "operation_time": "",
    "holiday": "",
    "latitude": "37.71741366",
    "longitude": "138.8908286",
    "tel": "0256-82-4541",
    "address": "新潟市西蒲区津雲田640",
    "access": "JR「岩室駅」より車で5分。駅より国道116号を南下し国道沿い右側。",
    "games": [
      "ノスタルジア"
    ]
  },
  {
    "name": "GiGO春日井",
    "operation_time": "",
    "holiday": "",
    "latitude": "35.26954",
    "longitude": "136.96052",
    "tel": "0568-89-3081",
    "address": "春日井市岩野町4180",
    "access": "",
    "games": [
      "ノスタルジア"
    ]
  },
  {
    "name": "GiGOマーケットスクエアささしま",
    "operation_time": "",
    "holiday": "",
    "latitude": "35.162736",
    "longitude": "136.884929",
    "tel": "070-1458-1766",
    "address": "名古屋市中村区平池町4-60-14",
    "access": "",
    "games": [
      "ノスタルジア"
    ]
  },
  {
    "name": "アピナ鶴岡店",
    "operation_time": "",
    "holiday": "",
    "latitude": "38.75839782",
    "longitude": "139.8439993",
    "tel": "0235-29-1141",
    "address": "鶴岡市文下字広野1-1",
    "access": "",
    "games": [
      "ノスタルジア"
    ]
  },
  {
    "name": "ファンタジードーム八戸店",
    "operation_time": "10:00～20:00",
    "holiday": "無し",
    "latitude": "40.5217548",
    "longitude": "141.5034775",
    "tel": "0178-47-1370",
    "address": "八戸市江陽2-14-1ラピア八戸別棟",
    "access": "長崎屋八戸店内",
    "games": [
      "ノスタルジア"
    ]
  },
  {
    "name": "キングジョイ",
    "operation_time": "9:00～24:00",
    "holiday": "無し",
    "latitude": "35.16797694",
    "longitude": "136.9050444",
    "tel": "052-241-9515",
    "address": "名古屋市中区栄3-3-32",
    "access": "地下鉄栄駅徒歩3分",
    "games": [
      "ノスタルジア"
    ]
  },
  {
    "name": "スイーツ･ハートイオン春日井店",
    "operation_time": "",
    "holiday": "",
    "latitude": "35.237945",
    "longitude": "136.962431",
    "tel": "0568-41-9409",
    "address": "春日井市柏井町4-17イオン春日井店内4F",
    "access": "",
    "games": [
      "ノスタルジア"
    ]
  },
  {
    "name": "モーリーファンタジーf新潟亀田インター",
    "operation_time": "9:00～22:00",
    "holiday": "無し",
    "latitude": "37.87624975",
    "longitude": "139.0816577",
    "tel": "070-3100-4212",
    "address": "新潟市江南区下早通柳田1-1-1イオンモール新潟亀田インター2F",
    "access": "新潟亀田ICから約5分。 JR新潟駅から約4キロ、JR亀田駅から約2.5キロ",
    "games": [
      "ノスタルジア"
    ]
  },
  {
    "name": "ゲームパニック大須",
    "operation_time": "",
    "holiday": "",
    "latitude": "35.16021164",
    "longitude": "136.9053459",
    "tel": "052-228-2407",
    "address": "名古屋市中区大須3-30-93メガタウンB1F",
    "access": "",
    "games": [
      "ノスタルジア"
    ]
  },
  {
    "name": "タイトーステーションフェドラ大須店",
    "operation_time": "10:00～24:00",
    "holiday": "無し",
    "latitude": "35.15945319",
    "longitude": "136.9054236",
    "tel": "052-242-2011",
    "address": "名古屋市中区大須3-30-31萬松寺駐車場ビル1F･2F",
    "access": "地下鉄名城線上前津駅より徒歩1分",
    "games": [
      "ノスタルジア"
    ]
  },
  {
    "name": "コムテックスクウェア金山",
    "operation_time": "9:00～24:00",
    "holiday": "",
    "latitude": "35.14401179",
    "longitude": "136.8999767",
    "tel": "052-321-5601",
    "address": "名古屋市中区金山1-16-8",
    "access": "名鉄金山駅徒歩3分",
    "games": [
      "ノスタルジア"
    ]
  },
  {
    "name": "名古屋レジャーランド内田橋店",
    "operation_time": "一部24時間営業",
    "holiday": "無し",
    "latitude": "35.1137072",
    "longitude": "136.9098069",
    "tel": "052-694-6051",
    "address": "名古屋市南区内田橋2-26-22",
    "access": "名鉄常滑線豊田本町駅近く",
    "games": [
      "ノスタルジア"
    ]
  },
  {
    "name": "ゲームチャオ松阪店",
    "operation_time": "10:00～24:00",
    "holiday": "無し",
    "latitude": "34.58867016",
    "longitude": "136.5257638",
    "tel": "0598-53-3918",
    "address": "松阪市船江町782",
    "access": "国道42号線沿い、松阪駅から車で5分",
    "games": [
      "ノスタルジア"
    ]
  },
  {
    "name": "GiGOアドバンスモール松阪",
    "operation_time": "",
    "holiday": "",
    "latitude": "34.553832",
    "longitude": "136.514666",
    "tel": "0598-21-5460",
    "address": "松阪市田村町235-1",
    "access": "",
    "games": [
      "ノスタルジア"
    ]
  },
  {
    "name": "ポート24八事店",
    "operation_time": "09:00～24:00",
    "holiday": "無休",
    "latitude": "35.1371687",
    "longitude": "136.964233",
    "tel": "052-834-9200",
    "address": "名古屋市昭和区広路町字北石坂102-4",
    "access": "地下鉄 八事駅  1分",
    "games": [
      "ノスタルジア"
    ]
  },
  {
    "name": "アピナ長岡店",
    "operation_time": "10:00～24:00",
    "holiday": "無し",
    "latitude": "37.45794202",
    "longitude": "138.8125194",
    "tel": "0258-22-5510",
    "address": "長岡市堺東町22",
    "access": "国道8号線長岡バイパス堺交差点近く",
    "games": [
      "ノスタルジア"
    ]
  },
  {
    "name": "GiGO東名ボール",
    "operation_time": "",
    "holiday": "",
    "latitude": "35.209234",
    "longitude": "137.062873",
    "tel": "070-1459-2466",
    "address": "瀬戸市西原町2-114",
    "access": "",
    "games": [
      "ノスタルジア"
    ]
  },
  {
    "name": "ゲームパニック大高",
    "operation_time": "9:00～23:45",
    "holiday": "無し",
    "latitude": "35.04850561",
    "longitude": "136.9496236",
    "tel": "052-625-5360",
    "address": "名古屋市緑区忠治山201グランドボウルB2F",
    "access": "国道23号線大高町共和IC側道グランドボウルB2階",
    "games": [
      "ノスタルジア"
    ]
  },
  {
    "name": "GiGO豊科",
    "operation_time": "",
    "holiday": "",
    "latitude": "36.303116",
    "longitude": "137.922728",
    "tel": "0263-73-6767",
    "address": "安曇野市豊科南穂高1115",
    "access": "",
    "games": [
      "ノスタルジア"
    ]
  },
  {
    "name": "アピナ大橋店",
    "operation_time": "10:00～24:00",
    "holiday": "無し",
    "latitude": "36.6265199",
    "longitude": "138.2003591",
    "tel": "026-225-8765",
    "address": "長野市若里7-9-12",
    "access": "R18号長野大橋北側",
    "games": [
      "ノスタルジア"
    ]
  },
  {
    "name": "ラウンドワン長野店",
    "operation_time": "",
    "holiday": "",
    "latitude": "36.65105714",
    "longitude": "138.225192",
    "tel": "026-254-5801",
    "address": "長野市大字東和田827-6",
    "access": "",
    "games": [
      "ノスタルジア"
    ]
  },
  {
    "name": "M'sPARK刈谷店",
    "operation_time": "10:00～24:00",
    "holiday": "無し",
    "latitude": "35.00549344",
    "longitude": "137.0014494",
    "tel": "0566-27-5822",
    "address": "刈谷市稲場町3-206",
    "access": "155号沿い",
    "games": [
      "ノスタルジア"
    ]
  },
  {
    "name": "半田メトロポリス",
    "operation_time": "平日10:00～23:50 土日祝日前 9:00～23:50",
    "holiday": "無し",
    "latitude": "34.87469206",
    "longitude": "136.9217723",
    "tel": "0569-24-5226",
    "address": "半田市旭町3-11-1半田コロナワールド内2F",
    "access": "JR武豊線東成岩駅より徒歩1分",
    "games": [
      "ノスタルジア"
    ]
  },
  {
    "name": "トムソーヤのなかまたち湯沢店",
    "operation_time": "",
    "holiday": "",
    "latitude": "39.150546",
    "longitude": "140.469263",
    "tel": "0183-72-2811",
    "address": "湯沢市字上荻生田162イオンスーパーセンター湯沢店内",
    "access": "",
    "games": [
      "ノスタルジア"
    ]
  },
  {
    "name": "アピナ松本",
    "operation_time": "10:00～24:00",
    "holiday": "無し",
    "latitude": "36.21052692",
    "longitude": "137.9610526",
    "tel": "0263-24-1133",
    "address": "松本市双葉19-10",
    "access": "国道19号線沿い、イトーヨーカドーそば",
    "games": [
      "ノスタルジア"
    ]
  },
  {
    "name": "GiGO伊勢",
    "operation_time": "",
    "holiday": "",
    "latitude": "34.492142",
    "longitude": "136.678061",
    "tel": "0596-21-1243",
    "address": "伊勢市中須町666",
    "access": "",
    "games": [
      "ノスタルジア"
    ]
  },
  {
    "name": "HapipiLand十日町店",
    "operation_time": "",
    "holiday": "",
    "latitude": "37.13648",
    "longitude": "138.7456",
    "tel": "080-7143-5507",
    "address": "十日町市丑735-1",
    "access": "",
    "games": [
      "ノスタルジア"
    ]
  },
  {
    "name": "GiGO豊田",
    "operation_time": "",
    "holiday": "",
    "latitude": "35.067883",
    "longitude": "137.123797",
    "tel": "0565-26-6777",
    "address": "豊田市深田町1-65-1",
    "access": "",
    "games": [
      "ノスタルジア"
    ]
  },
  {
    "name": "M'Sパーク豊田店",
    "operation_time": "一部24時間営業",
    "holiday": "",
    "latitude": "35.0565113",
    "longitude": "137.1404324",
    "tel": "0565-71-0027",
    "address": "豊田市寿町3-10-11",
    "access": "愛知環状鉄道三河豊田駅10分。名鉄三河線土橋駅より徒歩10分。",
    "games": [
      "ノスタルジア"
    ]
  },
  {
    "name": "GiGO安城",
    "operation_time": "",
    "holiday": "",
    "latitude": "34.94737219",
    "longitude": "137.0732623",
    "tel": "0566-77-2020",
    "address": "安城市百石町2-35-13",
    "access": "",
    "games": [
      "ノスタルジア"
    ]
  },
  {
    "name": "アピナ上田店",
    "operation_time": "",
    "holiday": "",
    "latitude": "36.416102",
    "longitude": "138.223307",
    "tel": "0268-75-8055",
    "address": "上田市秋和359-1",
    "access": "",
    "games": [
      "ノスタルジア"
    ]
  },
  {
    "name": "安城メトロポリス",
    "operation_time": "平日10:00～24:00、土日祝日9:00～24:00",
    "holiday": "無し",
    "latitude": "34.95485697",
    "longitude": "137.0975854",
    "tel": "0566-74-8238",
    "address": "安城市浜富町6-8",
    "access": "JR東海道本線安城駅より車で3分・徒歩10分",
    "games": [
      "ノスタルジア"
    ]
  },
  {
    "name": "ラウンドワン盛岡店",
    "operation_time": "",
    "holiday": "",
    "latitude": "39.70035197",
    "longitude": "141.133077",
    "tel": "019-654-9011",
    "address": "盛岡市盛岡駅西通2-10-35",
    "access": "",
    "games": [
      "ノスタルジア"
    ]
  },
  {
    "name": "GiGO上田",
    "operation_time": "",
    "holiday": "",
    "latitude": "36.412767",
    "longitude": "138.26195",
    "tel": "0268-27-5777",
    "address": "上田市大字上田1847-1",
    "access": "",
    "games": [
      "ノスタルジア"
    ]
  },
  {
    "name": "ADXマミー岡崎店",
    "operation_time": "",
    "holiday": "",
    "latitude": "34.97692806",
    "longitude": "137.161659",
    "tel": "0564-83-6262",
    "address": "岡崎市井田新町6-1",
    "access": "",
    "games": [
      "ノスタルジア"
    ]
  },
  {
    "name": "GiGO北岡崎",
    "operation_time": "9:00～24:00",
    "holiday": "無し",
    "latitude": "34.97365547",
    "longitude": "137.1600268",
    "tel": "070-1393-5583",
    "address": "岡崎市錦町2-4",
    "access": "国道248号線沿い、愛知環状線北岡崎駅から徒歩3分",
    "games": [
      "ノスタルジア"
    ]
  },
  {
    "name": "GiGO岡谷",
    "operation_time": "",
    "holiday": "",
    "latitude": "36.065152",
    "longitude": "138.05305",
    "tel": "0266-22-9191",
    "address": "岡谷市塚間町2-1-21",
    "access": "",
    "games": [
      "ノスタルジア"
    ]
  },
  {
    "name": "プレイゾーンバンブー",
    "operation_time": "11:00～24:00",
    "holiday": "無し",
    "latitude": "37.051028",
    "longitude": "138.868007",
    "tel": "025-782-5277",
    "address": "南魚沼市竹俣60-6",
    "access": "JR「六日町」より車で5分。国道17号線沿い。",
    "games": [
      "ノスタルジア"
    ]
  },
  {
    "name": "アピナ伊那店",
    "operation_time": "10:00～24:00",
    "holiday": "無し",
    "latitude": "35.83291352",
    "longitude": "137.950739",
    "tel": "0265-74-8885",
    "address": "伊那市西町5093",
    "access": "アピタ伊那店さんそばエンジョイナ内",
    "games": [
      "ノスタルジア"
    ]
  },
  {
    "name": "アピナ飯田店",
    "operation_time": "10:00～24:00",
    "holiday": "無し",
    "latitude": "35.52993571",
    "longitude": "137.8596325",
    "tel": "026-559-7711",
    "address": "飯田市座光寺3728-1",
    "access": "国道153号線座光寺交差点近く",
    "games": [
      "ノスタルジア"
    ]
  },
  {
    "name": "アピナ佐久インター店",
    "operation_time": "10:00～24:00",
    "holiday": "無し",
    "latitude": "36.284455",
    "longitude": "138.482344",
    "tel": "026-778-3399",
    "address": "佐久市岩村田北1-13-1",
    "access": "佐久インター近く",
    "games": [
      "ノスタルジア"
    ]
  },
  {
    "name": "豊川メトロポリス",
    "operation_time": "平日10:00～24:00 土日9:00～24:00",
    "holiday": "無し",
    "latitude": "34.80229218",
    "longitude": "137.3847976",
    "tel": "0533-85-6540",
    "address": "豊川市下長山町上アライ14-1",
    "access": "東名高速豊川インター南・国道151号線・城下交差点東へ500m",
    "games": [
      "ノスタルジア"
    ]
  },
  {
    "name": "GiGO天童",
    "operation_time": "10:00～24:00",
    "holiday": "無し",
    "latitude": "38.34302924",
    "longitude": "140.3739732",
    "tel": "023-656-9370",
    "address": "天童市南町1-5-26",
    "access": "JR「天童駅」より車で10分。国道13号線を南下し国道沿い左側。",
    "games": [
      "ノスタルジア"
    ]
  },
  {
    "name": "テクノワールド",
    "operation_time": "店舗にてご確認ください",
    "holiday": "無し",
    "latitude": "39.179225",
    "longitude": "141.162155",
    "tel": "0197-47-3619",
    "address": "奥州市江刺愛宕梁川127-1",
    "access": "",
    "games": [
      "ノスタルジア"
    ]
  },
  {
    "name": "ゲームゾーントレジャー北町店",
    "operation_time": "",
    "holiday": "",
    "latitude": "38.268738",
    "longitude": "140.329329",
    "tel": "023-682-3356",
    "address": "山形市北町2-2-45山形ファミリーボウル内",
    "access": "",
    "games": [
      "ノスタルジア"
    ]
  },
  {
    "name": "ラウンドワン豊橋店",
    "operation_time": "",
    "holiday": "",
    "latitude": "34.7239242",
    "longitude": "137.4323261",
    "tel": "0532-65-2212",
    "address": "豊橋市大岩町字岩田27-2",
    "access": "",
    "games": [
      "ノスタルジア"
    ]
  },
  {
    "name": "GiGO米沢",
    "operation_time": "",
    "holiday": "",
    "latitude": "37.91095607",
    "longitude": "140.133677",
    "tel": "0238-24-0666",
    "address": "米沢市大字花沢字タナコ原177",
    "access": "",
    "games": [
      "ノスタルジア"
    ]
  },
  {
    "name": "GiGO沼田",
    "operation_time": "",
    "holiday": "",
    "latitude": "36.65676258",
    "longitude": "139.078119",
    "tel": "0278-22-9101",
    "address": "沼田市下久屋町1100-1",
    "access": "",
    "games": [
      "ノスタルジア"
    ]
  },
  {
    "name": "群馬レジャーランド渋川店",
    "operation_time": "",
    "holiday": "",
    "latitude": "36.4742053",
    "longitude": "139.0154654",
    "tel": "0279-25-0718",
    "address": "渋川市八木原1364",
    "access": "",
    "games": [
      "ノスタルジア"
    ]
  },
  {
    "name": "GiGO会津若松",
    "operation_time": "9:00～24:00",
    "holiday": "無し",
    "latitude": "37.51832577",
    "longitude": "139.9222191",
    "tel": "0242-37-0777",
    "address": "会津若松市町北町上荒久田字宮下142",
    "access": "磐越道会津若松IC側",
    "games": [
      "ノスタルジア"
    ]
  },
  {
    "name": "ポート24浜松店",
    "operation_time": "10:00～24:00",
    "holiday": "無休",
    "latitude": "34.68017431",
    "longitude": "137.6443768",
    "tel": "053-440-5588",
    "address": "浜松市中央区坪井町4183",
    "access": "東名高速浜松西ICから車で15分",
    "games": [
      "ノスタルジア"
    ]
  },
  {
    "name": "タイトーステーション新浜松ザザシティ店",
    "operation_time": "10:00～20:00",
    "holiday": "ザザシティ休館日",
    "latitude": "34.705137",
    "longitude": "137.729441",
    "tel": "053-413-5256",
    "address": "浜松市中央区鍛冶町15ザザシティ浜松西館2F",
    "access": "JR「浜松駅」・遠鉄「新浜松駅」から徒歩5分",
    "games": [
      "ノスタルジア"
    ]
  },
  {
    "name": "群馬レジャーランド高崎駅東口店",
    "operation_time": "一部24時間営業",
    "holiday": "無し",
    "latitude": "36.32992086",
    "longitude": "139.0128661",
    "tel": "027-330-3002",
    "address": "高崎市江木町333-1高崎EXビル2F",
    "access": "JR高崎駅東口徒歩10分",
    "games": [
      "ノスタルジア"
    ]
  },
  {
    "name": "マトリクス前橋店",
    "operation_time": "10:00～24:00",
    "holiday": "無し",
    "latitude": "36.37294244",
    "longitude": "139.059637",
    "tel": "027-212-3133",
    "address": "前橋市小相木町563-3",
    "access": "県道13号線小相木交差点を高崎方面へ150m",
    "games": [
      "ノスタルジア"
    ]
  },
  {
    "name": "アミュージアム南アルプス店",
    "operation_time": "",
    "holiday": "",
    "latitude": "35.618069",
    "longitude": "138.467232",
    "tel": "055-283-3100",
    "address": "南アルプス市小笠原1423-1トライアル南アルプス店1F",
    "access": "",
    "games": [
      "ノスタルジア"
    ]
  },
  {
    "name": "群馬レジャーランド藤岡店",
    "operation_time": "一部24時間営業",
    "holiday": "",
    "latitude": "36.27426745",
    "longitude": "139.0718857",
    "tel": "0274-40-2371",
    "address": "藤岡市中2002-1",
    "access": "県道13号沿い、上信越道藤岡IC北 カーオプション店『ピット100』2階",
    "games": [
      "ノスタルジア"
    ]
  },
  {
    "name": "GAME BANK",
    "operation_time": "9:00～24:00",
    "holiday": "無し",
    "latitude": "38.352801",
    "longitude": "140.877385",
    "tel": "022-776-5677",
    "address": "仙台市泉区大沢2-5-4",
    "access": "東北自動車道 泉インター直ぐ",
    "games": [
      "ノスタルジア"
    ]
  },
  {
    "name": "アピナ磐田店",
    "operation_time": "",
    "holiday": "",
    "latitude": "34.727905",
    "longitude": "137.877149",
    "tel": "0538-36-2626",
    "address": "磐田市西貝塚横須賀道北3690イオンタウン磐田内",
    "access": "",
    "games": [
      "ノスタルジア"
    ]
  },
  {
    "name": "インターワールド伊勢崎店",
    "operation_time": "10:00～24:00",
    "holiday": "無し",
    "latitude": "36.3315169",
    "longitude": "139.1624928",
    "tel": "0270-25-4338",
    "address": "伊勢崎市宮子町3425-4",
    "access": "関東自動車道駒形ICから5分。伊勢崎オートレース近く",
    "games": [
      "ノスタルジア"
    ]
  },
  {
    "name": "ラウンドワンさいたま･上里店",
    "operation_time": "",
    "holiday": "",
    "latitude": "36.259925",
    "longitude": "139.137383",
    "tel": "0495-35-2201",
    "address": "児玉郡上里町大字金久保字周川394-1",
    "access": "",
    "games": [
      "ノスタルジア"
    ]
  },
  {
    "name": "タイトーステーション仙台クリスロード店",
    "operation_time": "9:00～24:00",
    "holiday": "無し",
    "latitude": "38.261006",
    "longitude": "140.875705",
    "tel": "022-262-2541",
    "address": "仙台市青葉区中央2-3-25",
    "access": "JR仙台駅・地下鉄仙台駅より徒歩8分(ハピナ名掛丁アーケード内)",
    "games": [
      "ノスタルジア"
    ]
  },
  {
    "name": "GiGO仙台",
    "operation_time": "",
    "holiday": "",
    "latitude": "38.26181",
    "longitude": "140.87675",
    "tel": "022-211-1922",
    "address": "仙台市青葉区中央2-5-5三経60ビル",
    "access": "",
    "games": [
      "ノスタルジア"
    ]
  },
  {
    "name": "タイトーステーション仙台ベガロポリス店",
    "operation_time": "10:00～24:00",
    "holiday": "無し",
    "latitude": "38.21973354",
    "longitude": "140.8479417",
    "tel": "022-307-3685",
    "address": "仙台市太白区西多賀5-24-1",
    "access": "国道286号沿い、JR長町駅より車で10分",
    "games": [
      "ノスタルジア"
    ]
  },
  {
    "name": "GiGO掛川",
    "operation_time": "",
    "holiday": "",
    "latitude": "34.77388081",
    "longitude": "137.9853996",
    "tel": "0537-23-9722",
    "address": "掛川市細田248",
    "access": "",
    "games": [
      "ノスタルジア"
    ]
  },
  {
    "name": "GiGOスマーク伊勢崎",
    "operation_time": "",
    "holiday": "",
    "latitude": "36.339538",
    "longitude": "139.231968",
    "tel": "0270-62-3886",
    "address": "伊勢崎市西小保方町368スマーク伊勢崎3F302区画",
    "access": "",
    "games": [
      "ノスタルジア"
    ]
  },
  {
    "name": "ラウンドワン仙台苦竹店",
    "operation_time": "",
    "holiday": "",
    "latitude": "38.26828399",
    "longitude": "140.9172614",
    "tel": "022-788-2581",
    "address": "仙台市宮城野区苦竹1-7-10",
    "access": "",
    "games": [
      "ノスタルジア"
    ]
  },
  {
    "name": "GiGO利府",
    "operation_time": "10:00～24:00",
    "holiday": "無し",
    "latitude": "38.32801132",
    "longitude": "140.9756135",
    "tel": "080-7500-4898",
    "address": "宮城郡利府町加瀬字新前谷地55-1",
    "access": "三陸自動車道 利府中IC下車利府バイパス沿い車で5分",
    "games": [
      "ノスタルジア"
    ]
  },
  {
    "name": "ラウンドワン福島店",
    "operation_time": "",
    "holiday": "",
    "latitude": "37.75259469",
    "longitude": "140.4562354",
    "tel": "024-525-4731",
    "address": "福島市太田町14-18",
    "access": "",
    "games": [
      "ノスタルジア"
    ]
  },
  {
    "name": "ゲームコーナー東部",
    "operation_time": "9:00～24:00",
    "holiday": "無し",
    "latitude": "38.25101621",
    "longitude": "140.9438974",
    "tel": "022-287-5880",
    "address": "仙台市若林区六丁の目中町26-60",
    "access": "六丁目の交差点より多賀城方面へ向かい車で5分。産業通り沿い。",
    "games": [
      "ノスタルジア"
    ]
  },
  {
    "name": "GiGO名取",
    "operation_time": "",
    "holiday": "",
    "latitude": "38.1565798",
    "longitude": "140.8882353",
    "tel": "022-384-8950",
    "address": "名取市飯野坂字土城堀57-1",
    "access": "",
    "games": [
      "ノスタルジア"
    ]
  },
  {
    "name": "GiGO日光",
    "operation_time": "",
    "holiday": "",
    "latitude": "36.74128846",
    "longitude": "139.7101925",
    "tel": "070-1458-5946",
    "address": "日光市芹沼1448-1",
    "access": "",
    "games": [
      "ノスタルジア"
    ]
  },
  {
    "name": "GiGO日和田",
    "operation_time": "",
    "holiday": "",
    "latitude": "37.44821593",
    "longitude": "140.3804189",
    "tel": "070-1458-5583",
    "address": "郡山市日和田町字西中島7-1",
    "access": "",
    "games": [
      "ノスタルジア"
    ]
  },
  {
    "name": "群馬レジャーランド太田店",
    "operation_time": "一部24時間営業",
    "holiday": "無し",
    "latitude": "36.26802219",
    "longitude": "139.3761382",
    "tel": "0276-47-8030",
    "address": "太田市西矢島町162-2",
    "access": "",
    "games": [
      "ノスタルジア"
    ]
  },
  {
    "name": "アピナ太田店",
    "operation_time": "10:00～24:00",
    "holiday": "無し",
    "latitude": "36.28282169",
    "longitude": "139.3983139",
    "tel": "0276-48-1489",
    "address": "太田市内ヶ島町907-1",
    "access": "太田駅より車で5分富士重工近く",
    "games": [
      "ノスタルジア"
    ]
  },
  {
    "name": "ドラマ足利店",
    "operation_time": "10:00～24:00",
    "holiday": "無し",
    "latitude": "36.32220259",
    "longitude": "139.4503607",
    "tel": "0284-73-9559",
    "address": "足利市朝倉町244-1",
    "access": "東武伊勢崎線足利市駅より徒歩10分",
    "games": [
      "ノスタルジア"
    ]
  },
  {
    "name": "ラウンドワン郡山店",
    "operation_time": "",
    "holiday": "",
    "latitude": "37.40229903",
    "longitude": "140.3957065",
    "tel": "024-941-3191",
    "address": "郡山市向河原町4-55",
    "access": "",
    "games": [
      "ノスタルジア"
    ]
  },
  {
    "name": "小川ヤングボウル",
    "operation_time": "",
    "holiday": "",
    "latitude": "36.05027979",
    "longitude": "139.2618425",
    "tel": "0493-72-3666",
    "address": "比企郡小川町大字青山749",
    "access": "",
    "games": [
      "ノスタルジア"
    ]
  },
  {
    "name": "アップルグランリバー 大井川店",
    "operation_time": "10:00～24:00",
    "holiday": "無し",
    "latitude": "34.80971624",
    "longitude": "138.2732243",
    "tel": "054-270-3244",
    "address": "焼津市下江留1327",
    "access": "東名高速道路、吉田ICより車で10分",
    "games": [
      "ノスタルジア"
    ]
  },
  {
    "name": "GiGO西那須野",
    "operation_time": "",
    "holiday": "",
    "latitude": "36.895093",
    "longitude": "139.982317",
    "tel": "0287-37-3077",
    "address": "那須塩原市南郷屋2-106-27",
    "access": "",
    "games": [
      "ノスタルジア"
    ]
  },
  {
    "name": "ゲームスペースA-3",
    "operation_time": "10:00～24:00",
    "holiday": "無し",
    "latitude": "37.12433442",
    "longitude": "140.1824915",
    "tel": "0248-23-3421",
    "address": "西白河郡西郷村豊作西15-16-17",
    "access": "新白河駅高原口より徒歩3分",
    "games": [
      "ノスタルジア"
    ]
  },
  {
    "name": "アピナ焼津店",
    "operation_time": "",
    "holiday": "",
    "latitude": "34.83371431",
    "longitude": "138.3059489",
    "tel": "054-623-8555",
    "address": "焼津市道原585",
    "access": "",
    "games": [
      "ノスタルジア"
    ]
  },
  {
    "name": "ラウンドワン富士店",
    "operation_time": "",
    "holiday": "",
    "latitude": "35.15310644",
    "longitude": "138.6938016",
    "tel": "0545-51-3636",
    "address": "富士市八代町4-15",
    "access": "",
    "games": [
      "ノスタルジア"
    ]
  },
  {
    "name": "アミューズメントヒカリ",
    "operation_time": "",
    "holiday": "",
    "latitude": "36.56004",
    "longitude": "139.88167",
    "tel": "028-632-0382",
    "address": "宇都宮市江野町7-13ヒカリビル1F",
    "access": "",
    "games": [
      "ノスタルジア"
    ]
  },
  {
    "name": "ラウンドワンさいたま･鴻巣店",
    "operation_time": "",
    "holiday": "",
    "latitude": "36.08064011",
    "longitude": "139.4902201",
    "tel": "048-595-2001",
    "address": "鴻巣市箕田3163-7",
    "access": "",
    "games": [
      "ノスタルジア"
    ]
  },
  {
    "name": "ラウンドワン宇都宮店",
    "operation_time": "",
    "holiday": "",
    "latitude": "36.54080987",
    "longitude": "139.8868656",
    "tel": "028-614-8171",
    "address": "宇都宮市江曽島町2072-1",
    "access": "",
    "games": [
      "ノスタルジア"
    ]
  },
  {
    "name": "キャロム 坂戸店",
    "operation_time": "12:00～翌3:00/祝前日、土曜日 午前5:00まで",
    "holiday": "無し",
    "latitude": "35.95251751",
    "longitude": "139.3985348",
    "tel": "0492-84-7821",
    "address": "坂戸市関間2-151-1",
    "access": "西入間警察署裏",
    "games": [
      "ノスタルジア"
    ]
  },
  {
    "name": "GiGO宇都宮",
    "operation_time": "",
    "holiday": "",
    "latitude": "36.558326",
    "longitude": "139.90882",
    "tel": "028-633-6082",
    "address": "宇都宮市東宿郷5-1-7",
    "access": "",
    "games": [
      "ノスタルジア"
    ]
  },
  {
    "name": "キャロム青梅店",
    "operation_time": "10:00～翌5:00",
    "holiday": "",
    "latitude": "35.78660433",
    "longitude": "139.2700032",
    "tel": "0428-23-9208",
    "address": "青梅市千ヶ瀬町4-326-1",
    "access": "",
    "games": [
      "ノスタルジア"
    ]
  },
  {
    "name": "インターパークプラスワン 宇都宮店",
    "operation_time": "9:00～24:00",
    "holiday": "無し",
    "latitude": "36.48822111",
    "longitude": "139.9053211",
    "tel": "028-657-6789",
    "address": "宇都宮市インターパーク6-5-1",
    "access": "国道4号線、北関東自動車道、宇都宮上三川インターインター降りてすぐ",
    "games": [
      "ノスタルジア"
    ]
  },
  {
    "name": "ラウンドワン入間店",
    "operation_time": "",
    "holiday": "",
    "latitude": "35.82812299",
    "longitude": "139.3755366",
    "tel": "042-960-1521",
    "address": "入間市小谷田3-7-25",
    "access": "",
    "games": [
      "ノスタルジア"
    ]
  },
  {
    "name": "モナコ川越店",
    "operation_time": "9:00～24:00",
    "holiday": "無し",
    "latitude": "35.91326113",
    "longitude": "139.483165",
    "tel": "0492-24-2454",
    "address": "川越市新富町2-4-1",
    "access": "東武東上線川越駅徒歩5分",
    "games": [
      "ノスタルジア"
    ]
  },
  {
    "name": "アピナ小山店",
    "operation_time": "10:00～24:00",
    "holiday": "無し",
    "latitude": "36.300419",
    "longitude": "139.809126",
    "tel": "0285-31-0050",
    "address": "小山市駅南町4-27-18",
    "access": "国道50号線沿い駅南町交差点",
    "games": [
      "ノスタルジア"
    ]
  },
  {
    "name": "GiGO小山",
    "operation_time": "",
    "holiday": "",
    "latitude": "36.29908128",
    "longitude": "139.8101531",
    "tel": "0285-28-6281",
    "address": "小山市東城南1-1-18",
    "access": "",
    "games": [
      "ノスタルジア"
    ]
  },
  {
    "name": "GiGO入間",
    "operation_time": "",
    "holiday": "",
    "latitude": "35.81911",
    "longitude": "139.418219",
    "tel": "070-1458-7167",
    "address": "入間市東藤沢2-18",
    "access": "",
    "games": [
      "ノスタルジア"
    ]
  },
  {
    "name": "ゲームパドック プラスワン",
    "operation_time": "9:00～24:00",
    "holiday": "無し",
    "latitude": "36.2067047",
    "longitude": "139.7580433",
    "tel": "0280-98-5161",
    "address": "古河市小堤1916-1",
    "access": "国道125号、古河方面から下妻方面に走行、新幹線のガードをくくって500m左手",
    "games": [
      "ノスタルジア"
    ]
  },
  {
    "name": "沼津バッティングスタジアム",
    "operation_time": "10:00～24:00",
    "holiday": "無し",
    "latitude": "35.12119847",
    "longitude": "138.8770371",
    "tel": "055-923-4199",
    "address": "沼津市岡一色三竹道19-2",
    "access": "",
    "games": [
      "ノスタルジア"
    ]
  },
  {
    "name": "アピナ上尾店",
    "operation_time": "",
    "holiday": "",
    "latitude": "35.987191",
    "longitude": "139.579877",
    "tel": "048-783-4747",
    "address": "上尾市緑丘3-3-11-2プリンセス棟別棟",
    "access": "",
    "games": [
      "ノスタルジア"
    ]
  },
  {
    "name": "ラウンドワンさいたま･栗橋店",
    "operation_time": "",
    "holiday": "",
    "latitude": "36.12348469",
    "longitude": "139.7152159",
    "tel": "0480-55-0831",
    "address": "久喜市小右衛門192-1",
    "access": "",
    "games": [
      "ノスタルジア"
    ]
  },
  {
    "name": "ラウンドワン上尾店",
    "operation_time": "",
    "holiday": "",
    "latitude": "35.98574121",
    "longitude": "139.6078308",
    "tel": "048-778-3411",
    "address": "上尾市大字平塚917-1",
    "access": "",
    "games": [
      "ノスタルジア"
    ]
  },
  {
    "name": "シルクハット八王子",
    "operation_time": "10:00～24:45",
    "holiday": "",
    "latitude": "35.65636374",
    "longitude": "139.3384725",
    "tel": "",
    "address": "八王子市旭町2-5八王子ツインタワービル3F",
    "access": "JR八王子駅前",
    "games": [
      "ノスタルジア"
    ]
  },
  {
    "name": "GiGOサントムーン柿田川",
    "operation_time": "",
    "holiday": "",
    "latitude": "35.109337",
    "longitude": "138.902823",
    "tel": "055-972-5430",
    "address": "駿東郡清水町玉川61-2サントムーン柿田川2F",
    "access": "",
    "games": [
      "ノスタルジア"
    ]
  },
  {
    "name": "アピナ八王子みなみ野店",
    "operation_time": "",
    "holiday": "",
    "latitude": "35.63118314",
    "longitude": "139.3289717",
    "tel": "042-635-3928",
    "address": "八王子市みなみ野1-2-1アクロスモール内3F",
    "access": "",
    "games": [
      "ノスタルジア"
    ]
  },
  {
    "name": "アミューズメントフィールドバイヨン",
    "operation_time": "10:00～24:00",
    "holiday": "無し",
    "latitude": "35.85617882",
    "longitude": "139.522425",
    "tel": "0492-65-1400",
    "address": "ふじみ野市うれし野2-16-1LCモールうれし野2F",
    "access": "東武東上線「ふじみ野」駅徒歩6分ショッピングモールリズム横",
    "games": [
      "ノスタルジア"
    ]
  },
  {
    "name": "ドラマ八王子高倉店",
    "operation_time": "10:00～24:00",
    "holiday": "無し",
    "latitude": "35.66506526",
    "longitude": "139.3664795",
    "tel": "0426-45-7050",
    "address": "八王子市高倉町55-4",
    "access": "国道20号、八王子市高倉町「高倉町西」交差点を日野バイパス豊田方面右手",
    "games": [
      "ノスタルジア"
    ]
  },
  {
    "name": "GiGO所沢",
    "operation_time": "",
    "holiday": "",
    "latitude": "35.78848",
    "longitude": "139.47187",
    "tel": "042-926-9009",
    "address": "所沢市日吉町8-1",
    "access": "",
    "games": [
      "ノスタルジア"
    ]
  },
  {
    "name": "タイトーステーション立川北口店",
    "operation_time": "",
    "holiday": "",
    "latitude": "35.699058",
    "longitude": "139.412162",
    "tel": "042-512-9651",
    "address": "立川市曙町2-4-5OSJ TACHIKAWA2･3F",
    "access": "",
    "games": [
      "ノスタルジア"
    ]
  },
  {
    "name": "ウェアハウス三橋店",
    "operation_time": "一部24時間営業",
    "holiday": "無し",
    "latitude": "35.91589833",
    "longitude": "139.5959286",
    "tel": "048-795-8380",
    "address": "さいたま市西区三橋6-955-1",
    "access": "国道17号バイパス三橋六丁目交差点",
    "games": [
      "ノスタルジア"
    ]
  },
  {
    "name": "アピナ橋本店",
    "operation_time": "10:00～24:00",
    "holiday": "無し",
    "latitude": "35.597682",
    "longitude": "139.337035",
    "tel": "042-703-6033",
    "address": "相模原市緑区西橋本5-1-1ラ･フロール駐車場棟1F",
    "access": "橋本駅から徒歩10分 八王子バイパスから津久井街道へ繋がる側道に入ってすぐ",
    "games": [
      "ノスタルジア"
    ]
  },
  {
    "name": "埼玉スポーツセンター内スクウェアワン サイスポ店",
    "operation_time": "",
    "holiday": "",
    "latitude": "35.823129",
    "longitude": "139.531631",
    "tel": "04-2902-6335",
    "address": "所沢市南永井1116",
    "access": "",
    "games": [
      "ノスタルジア"
    ]
  },
  {
    "name": "CLUB EXA2号館",
    "operation_time": "",
    "holiday": "",
    "latitude": "35.69616819",
    "longitude": "139.429228",
    "tel": "080-1569-7845",
    "address": "立川市羽衣町2-11-2プランドール立川1F",
    "access": "",
    "games": [
      "ノスタルジア"
    ]
  },
  {
    "name": "ビッグボウル杉戸",
    "operation_time": "10:00～翌1:00",
    "holiday": "無し",
    "latitude": "36.04028926",
    "longitude": "139.720837",
    "tel": "0480-34-7870",
    "address": "北葛飾郡杉戸町杉戸2338",
    "access": "東武伊勢崎線東武動物公園駅より徒歩30分 国道4号線沿い",
    "games": [
      "ノスタルジア"
    ]
  },
  {
    "name": "アピナ下館店",
    "operation_time": "10:00～24:00",
    "holiday": "無し",
    "latitude": "36.29325391",
    "longitude": "139.944075",
    "tel": "0296-28-0033",
    "address": "筑西市玉戸1012-3",
    "access": "R50号玉戸信号近く",
    "games": [
      "ノスタルジア"
    ]
  },
  {
    "name": "ラウンドワン大宮店",
    "operation_time": "",
    "holiday": "",
    "latitude": "35.91078012",
    "longitude": "139.6254963",
    "tel": "048-658-5666",
    "address": "さいたま市大宮区宮町4-90-7",
    "access": "",
    "games": [
      "ノスタルジア"
    ]
  },
  {
    "name": "タイトーステーション大宮店",
    "operation_time": "9:00～翌1:00",
    "holiday": "無し",
    "latitude": "35.907441",
    "longitude": "139.625505",
    "tel": "048-782-5461",
    "address": "さいたま市大宮区大門町1-1",
    "access": "大宮駅東口徒歩1分",
    "games": [
      "ノスタルジア"
    ]
  },
  {
    "name": "GiGO相模原",
    "operation_time": "10:00～24:00",
    "holiday": "無し",
    "latitude": "35.57350902",
    "longitude": "139.3710322",
    "tel": "080-7465-6268",
    "address": "相模原市中央区中央2-1-5ムトス内",
    "access": "JR横浜線相模原駅徒歩15分国道16号線近く",
    "games": [
      "ノスタルジア"
    ]
  },
  {
    "name": "タイトーステーション国分寺店",
    "operation_time": "",
    "holiday": "",
    "latitude": "35.701889",
    "longitude": "139.480156",
    "tel": "042-401-0592",
    "address": "国分寺市本町3-5-11",
    "access": "",
    "games": [
      "ノスタルジア"
    ]
  },
  {
    "name": "Amusement&Game MAGHREB",
    "operation_time": "10:00～24:00",
    "holiday": "無し",
    "latitude": "35.624024",
    "longitude": "139.423196",
    "tel": "042-371-5556",
    "address": "多摩市落合1-39-2マグレブビル1F",
    "access": "京王線・小田急線 多摩センター駅 徒歩3分/多摩モノレール多摩センター駅 徒歩1分",
    "games": [
      "ノスタルジア"
    ]
  },
  {
    "name": "ウェアハウス岩槻店",
    "operation_time": "7:00～23:45",
    "holiday": "無し",
    "latitude": "35.94092949",
    "longitude": "139.6859268",
    "tel": "048-758-8755",
    "address": "さいたま市岩槻区加倉3-3-63",
    "access": "岩槻IC降りて直ぐ",
    "games": [
      "ノスタルジア"
    ]
  },
  {
    "name": "ラウンドワン府中本町駅前店",
    "operation_time": "",
    "holiday": "",
    "latitude": "35.667312",
    "longitude": "139.477387",
    "tel": "042-340-4901",
    "address": "府中市本町1-13-3カネタビル",
    "access": "",
    "games": [
      "ノスタルジア"
    ]
  },
  {
    "name": "タイトーステーション小田原店",
    "operation_time": "10:00～24:00",
    "holiday": "無し",
    "latitude": "35.25494514",
    "longitude": "139.1561641",
    "tel": "0465-23-2473",
    "address": "小田原市栄町1-3-12",
    "access": "小田原駅東口を出てすぐ",
    "games": [
      "ノスタルジア"
    ]
  },
  {
    "name": "アミューズメントクラブ浦和",
    "operation_time": "10:00～23:45",
    "holiday": "無し",
    "latitude": "35.86027333",
    "longitude": "139.6535096",
    "tel": "048-814-0200",
    "address": "さいたま市浦和区仲町1-10-7",
    "access": "浦和駅西口徒歩8分",
    "games": [
      "ノスタルジア"
    ]
  },
  {
    "name": "タイトーステーション小田原シティモール店",
    "operation_time": "10:00～24:00",
    "holiday": "無し",
    "latitude": "35.281376",
    "longitude": "139.193786",
    "tel": "0465-45-5052",
    "address": "小田原市前川120小田原シティーモールC棟2F",
    "access": "JR鴨宮駅より、徒歩約20分。",
    "games": [
      "ノスタルジア"
    ]
  },
  {
    "name": "タイトーステーション和光店",
    "operation_time": "10:00～24:00",
    "holiday": "無し",
    "latitude": "35.78667068",
    "longitude": "139.613806",
    "tel": "048-465-7161",
    "address": "和光市丸山台1-4-5",
    "access": "東武東上線・和光市駅より徒歩5分",
    "games": [
      "ノスタルジア"
    ]
  },
  {
    "name": "神奈川レジャーランド厚木店",
    "operation_time": "一部24時間営業",
    "holiday": "無し",
    "latitude": "35.44802433",
    "longitude": "139.3431365",
    "tel": "050-1722-4336",
    "address": "厚木市戸室5-31-1",
    "access": "小田急本厚木駅よりバスにてアンリツ前バス停下車徒歩1分",
    "games": [
      "ノスタルジア"
    ]
  },
  {
    "name": "ユーズランド春日部店",
    "operation_time": "10:00～21:00",
    "holiday": "施設の営業日に準じる",
    "latitude": "35.987895",
    "longitude": "139.788478",
    "tel": "048-745-2501",
    "address": "春日部市下柳420-1イオンモール春日部2F 2037",
    "access": "庄和インターそば",
    "games": [
      "ノスタルジア"
    ]
  },
  {
    "name": "ラウンドワンわらび店",
    "operation_time": "",
    "holiday": "",
    "latitude": "35.83078787",
    "longitude": "139.6742521",
    "tel": "048-447-8080",
    "address": "蕨市北町5-1-6",
    "access": "",
    "games": [
      "ノスタルジア"
    ]
  },
  {
    "name": "GiGO成増",
    "operation_time": "",
    "holiday": "",
    "latitude": "35.7774666",
    "longitude": "139.6312648",
    "tel": "070-1459-3563",
    "address": "板橋区成増2-17-24五曠第6ビルB1F-1F",
    "access": "",
    "games": [
      "ノスタルジア"
    ]
  },
  {
    "name": "GiGO相模大野",
    "operation_time": "",
    "holiday": "",
    "latitude": "35.532177",
    "longitude": "139.436075",
    "tel": "042-741-8195",
    "address": "相模原市南区相模大野3-13-2フレスコビル3F",
    "access": "",
    "games": [
      "ノスタルジア"
    ]
  },
  {
    "name": "GiGOイオンモール浦和美園",
    "operation_time": "9:00～23:00",
    "holiday": "無し",
    "latitude": "35.8909712",
    "longitude": "139.7311429",
    "tel": "080-4831-9105",
    "address": "さいたま市緑区美園5-50-1イオンモール浦和美園2F",
    "access": "イオン浦和美園ショッピングセンター内 2階",
    "games": [
      "ノスタルジア"
    ]
  },
  {
    "name": "ラウンドワン吉祥寺店",
    "operation_time": "",
    "holiday": "",
    "latitude": "35.706276",
    "longitude": "139.580884",
    "tel": "0422-29-1051",
    "address": "武蔵野市吉祥寺本町1-11-22",
    "access": "",
    "games": [
      "ノスタルジア"
    ]
  },
  {
    "name": "タイトーステーション海老名ビナウォーク店",
    "operation_time": "10:00～24:00",
    "holiday": "無し",
    "latitude": "35.452455",
    "longitude": "139.395834",
    "tel": "046-292-5160",
    "address": "海老名市中央1-18-1ビナウォーク6番館2F",
    "access": "JR相模線、相鉄線、小田急線、海老名駅より徒歩5分",
    "games": [
      "ノスタルジア"
    ]
  },
  {
    "name": "アピナ野田七光台店",
    "operation_time": "",
    "holiday": "",
    "latitude": "35.98235422",
    "longitude": "139.8501674",
    "tel": "0471-27-1137",
    "address": "野田市七光台4-2ロックタウン内",
    "access": "",
    "games": [
      "ノスタルジア"
    ]
  },
  {
    "name": "イミグランデ大和店",
    "operation_time": "10:00～24:00",
    "holiday": "無し",
    "latitude": "35.49148588",
    "longitude": "139.4547647",
    "tel": "046-277-8571",
    "address": "大和市鶴間2-12-27",
    "access": "小田急鶴間駅徒歩5分",
    "games": [
      "ノスタルジア"
    ]
  },
  {
    "name": "千葉レジャーランド野田店",
    "operation_time": "一部24時間営業",
    "holiday": "無し",
    "latitude": "35.97154747",
    "longitude": "139.8653487",
    "tel": "04-7120-3535",
    "address": "野田市吉春776-1",
    "access": "国道16号線沿い野田市吉春地内",
    "games": [
      "ノスタルジア"
    ]
  },
  {
    "name": "ゲームシティ川口店",
    "operation_time": "10:00～23:50",
    "holiday": "無し",
    "latitude": "35.80263316",
    "longitude": "139.7255584",
    "tel": "048-250-3855",
    "address": "川口市栄町1-10-5",
    "access": "JR川口駅東口徒歩10分",
    "games": [
      "ノスタルジア"
    ]
  },
  {
    "name": "ゲームW店",
    "operation_time": "10:00～24:00",
    "holiday": "不定休",
    "latitude": "35.72942259",
    "longitude": "139.6828924",
    "tel": "03-5983-7880",
    "address": "豊島区南長崎5-27-6",
    "access": "西武池袋線 東長崎駅より徒歩2分",
    "games": [
      "ノスタルジア"
    ]
  },
  {
    "name": "ゲームサファリ大山",
    "operation_time": "10:00～24:00",
    "holiday": "無し",
    "latitude": "35.74900603",
    "longitude": "139.7022497",
    "tel": "03-5248-4743",
    "address": "板橋区大山東町60-10パチンコやすだ2F",
    "access": "東武東上線大山駅徒歩1分",
    "games": [
      "ノスタルジア"
    ]
  },
  {
    "name": "GiGO川口",
    "operation_time": "",
    "holiday": "",
    "latitude": "35.79475047",
    "longitude": "139.7475357",
    "tel": "048-226-1191",
    "address": "川口市東領家2-2-10",
    "access": "",
    "games": [
      "ノスタルジア"
    ]
  },
  {
    "name": "ウェアハウス入谷店",
    "operation_time": "10:00～24:00",
    "holiday": "無し",
    "latitude": "35.80112943",
    "longitude": "139.760997",
    "tel": "03-3856-5833",
    "address": "足立区入谷7-8-11",
    "access": "足立ICから車で3分",
    "games": [
      "ノスタルジア"
    ]
  },
  {
    "name": "タイトーステーション池袋西口店",
    "operation_time": "",
    "holiday": "",
    "latitude": "35.73058948",
    "longitude": "139.709706",
    "tel": "03-6907-3560",
    "address": "豊島区西池袋1-15-9第一西池ビル",
    "access": "",
    "games": [
      "ノスタルジア"
    ]
  },
  {
    "name": "ラウンドワン池袋店",
    "operation_time": "",
    "holiday": "",
    "latitude": "35.730175",
    "longitude": "139.714846",
    "tel": "03-5928-0221",
    "address": "豊島区東池袋1-14-1池袋スクエア",
    "access": "",
    "games": [
      "ノスタルジア"
    ]
  },
  {
    "name": "GiGO総本店",
    "operation_time": "",
    "holiday": "",
    "latitude": "35.72930775",
    "longitude": "139.7150562",
    "tel": "080-7018-7351",
    "address": "豊島区東池袋1-13-6ロクマルゲート池袋B1F-3F",
    "access": "",
    "games": [
      "ノスタルジア"
    ]
  },
  {
    "name": "東京レジャーランド池袋店",
    "operation_time": "",
    "holiday": "",
    "latitude": "35.73071",
    "longitude": "139.71644",
    "tel": "03-5904-8388",
    "address": "豊島区東池袋1-29-1マルビル池袋2-3F",
    "access": "",
    "games": [
      "ノスタルジア"
    ]
  },
  {
    "name": "タイトーステーション溝の口店",
    "operation_time": "",
    "holiday": "",
    "latitude": "35.600042",
    "longitude": "139.61245",
    "tel": "044-328-9262",
    "address": "川崎市高津区溝口1-11-8",
    "access": "",
    "games": [
      "ノスタルジア"
    ]
  },
  {
    "name": "ゲームパニック新宿歌舞伎町",
    "operation_time": "",
    "holiday": "",
    "latitude": "35.69606337",
    "longitude": "139.7012777",
    "tel": "03-6265-9021",
    "address": "新宿区歌舞伎町1-20-1ヒューマックスパビリオン1-2F",
    "access": "",
    "games": [
      "ノスタルジア"
    ]
  },
  {
    "name": "タイトーステーション新宿南口ゲームワールド店",
    "operation_time": "10:00～25:00",
    "holiday": "無し",
    "latitude": "35.689926",
    "longitude": "139.702372",
    "tel": "03-3226-0395",
    "address": "新宿区新宿3-35-8",
    "access": "JR・新宿駅より徒歩1分",
    "games": [
      "ノスタルジア"
    ]
  },
  {
    "name": "GiGO渋谷宮益坂",
    "operation_time": "",
    "holiday": "",
    "latitude": "35.660097",
    "longitude": "139.702644",
    "tel": "03-3409-4737",
    "address": "渋谷区渋谷1-14-14EST 1F･7F",
    "access": "",
    "games": [
      "ノスタルジア"
    ]
  },
  {
    "name": "ゲームパニック三郷",
    "operation_time": "",
    "holiday": "",
    "latitude": "35.84215546",
    "longitude": "139.8548102",
    "tel": "048-953-8295",
    "address": "三郷市ピアラシティ1-1-200",
    "access": "",
    "games": [
      "ノスタルジア"
    ]
  },
  {
    "name": "GiGO綱島",
    "operation_time": "",
    "holiday": "",
    "latitude": "35.5364623",
    "longitude": "139.6324113",
    "tel": "045-547-1199",
    "address": "横浜市港北区綱島西2-6-29城田ビル3F",
    "access": "",
    "games": [
      "ノスタルジア"
    ]
  },
  {
    "name": "GiGO秋葉原3号館",
    "operation_time": "",
    "holiday": "",
    "latitude": "35.699336",
    "longitude": "139.770908",
    "tel": "03-5297-3601",
    "address": "千代田区外神田1-11-11外神田1丁目ビルディング",
    "access": "",
    "games": [
      "ノスタルジア"
    ]
  },
  {
    "name": "GiGO勿来",
    "operation_time": "",
    "holiday": "",
    "latitude": "36.88914294",
    "longitude": "140.7845719",
    "tel": "0246-65-6000",
    "address": "いわき市勿来町四沢字鍵田13",
    "access": "",
    "games": [
      "ノスタルジア"
    ]
  },
  {
    "name": "ウェアハウス南流山店",
    "operation_time": "10:00～24:00",
    "holiday": "無し",
    "latitude": "35.84020798",
    "longitude": "139.9050111",
    "tel": "04-7159-2351",
    "address": "流山市南流山4-16-6",
    "access": "南流山駅から徒歩3分",
    "games": [
      "ノスタルジア"
    ]
  },
  {
    "name": "ユーズランド水戸内原店",
    "operation_time": "10:00～21:00",
    "holiday": "",
    "latitude": "36.374428",
    "longitude": "140.3590138",
    "tel": "029-259-1218",
    "address": "水戸市内原2-1イオンモール水戸内原2F",
    "access": "",
    "games": [
      "ノスタルジア"
    ]
  },
  {
    "name": "GiGOデイズタウンつくば",
    "operation_time": "10:00～24:00",
    "holiday": "無休",
    "latitude": "36.07768145",
    "longitude": "140.1153322",
    "tel": "070-1459-0875",
    "address": "つくば市竹園1-9-2デイズタウンつくばB1F",
    "access": "つくば駅徒歩5分デイズタウンつくばB1F",
    "games": [
      "ノスタルジア"
    ]
  },
  {
    "name": "嶺宝スポーツセンター",
    "operation_time": "11:00～23:00",
    "holiday": "火曜日",
    "latitude": "36.97400283",
    "longitude": "140.8903913",
    "tel": "0246-58-8093",
    "address": "いわき市小名浜住吉字折返2-2",
    "access": "6号バイパス住吉交差点横",
    "games": [
      "ノスタルジア"
    ]
  },
  {
    "name": "GiGO池上",
    "operation_time": "",
    "holiday": "",
    "latitude": "35.572556",
    "longitude": "139.70208",
    "tel": "03-3752-4159",
    "address": "大田区池上6-2-3松山ビル2F",
    "access": "",
    "games": [
      "ノスタルジア"
    ]
  },
  {
    "name": "タイトーステーション横浜西口五番街店",
    "operation_time": "平日10:00～23:50 土日祝日9:00～23:50",
    "holiday": "無し",
    "latitude": "35.464648",
    "longitude": "139.619593",
    "tel": "045-411-5288",
    "address": "横浜市西区南幸1-12-9",
    "access": "JR・相鉄線・東横線・みなとみらい線 横浜駅より徒歩3分",
    "games": [
      "ノスタルジア"
    ]
  },
  {
    "name": "葛飾ヤングボウル",
    "operation_time": "",
    "holiday": "",
    "latitude": "35.74832547",
    "longitude": "139.8540342",
    "tel": "03-3602-7007",
    "address": "葛飾区青戸5-13-3",
    "access": "",
    "games": [
      "ノスタルジア"
    ]
  },
  {
    "name": "タイトーFステーションオリナス錦糸町店",
    "operation_time": "10:00～23:45",
    "holiday": "無し",
    "latitude": "35.700721",
    "longitude": "139.816024",
    "tel": "03-5610-7376",
    "address": "墨田区太平4-1-2オリナスB1F",
    "access": "JR総武線錦糸町駅北口から徒歩5分",
    "games": [
      "ノスタルジア"
    ]
  },
  {
    "name": "GiGO大森",
    "operation_time": "",
    "holiday": "",
    "latitude": "35.590043",
    "longitude": "139.72823",
    "tel": "03-5709-0669",
    "address": "大田区山王2-1-5大森駅ララビル2F",
    "access": "",
    "games": [
      "ノスタルジア"
    ]
  },
  {
    "name": "namco松戸店",
    "operation_time": "",
    "holiday": "",
    "latitude": "35.783581",
    "longitude": "139.900789",
    "tel": "047-711-7274",
    "address": "松戸市松戸1230-1ピアザ松戸1F",
    "access": "",
    "games": [
      "ノスタルジア"
    ]
  },
  {
    "name": "ゲームガリバー柏",
    "operation_time": "8:30～23:00",
    "holiday": "無し",
    "latitude": "35.86153036",
    "longitude": "139.970926",
    "tel": "04-7164-9818",
    "address": "柏市柏1-1-11ファミリかしわB1F",
    "access": "JR柏駅東口および南口マルイ地下1階",
    "games": [
      "ノスタルジア"
    ]
  },
  {
    "name": "シルクハット川崎ダイス",
    "operation_time": "9:00～24:45",
    "holiday": "無し",
    "latitude": "35.5314121",
    "longitude": "139.7002166",
    "tel": "",
    "address": "川崎市川崎区駅前本町8ダイスビルB2F",
    "access": "JR川崎駅アゼリア地下街と直結、京急川崎駅中央口徒歩1分",
    "games": [
      "ノスタルジア"
    ]
  },
  {
    "name": "AMFマーズ",
    "operation_time": "8:30～翌1:00",
    "holiday": "無し",
    "latitude": "35.44284793",
    "longitude": "139.6311041",
    "tel": "045-243-6033",
    "address": "横浜市中区長者町6-106",
    "access": "JR「関内駅」下車徒歩3分",
    "games": [
      "ノスタルジア"
    ]
  },
  {
    "name": "ラウンドワン南砂店",
    "operation_time": "",
    "holiday": "",
    "latitude": "35.67184786",
    "longitude": "139.8361845",
    "tel": "03-5617-6911",
    "address": "江東区南砂6-7-15トピレックプラザ4F",
    "access": "",
    "games": [
      "ノスタルジア"
    ]
  },
  {
    "name": "GiGO船堀",
    "operation_time": "",
    "holiday": "",
    "latitude": "35.68469819",
    "longitude": "139.8639374",
    "tel": "03-5676-2522",
    "address": "江戸川区船堀1-6-11",
    "access": "",
    "games": [
      "ノスタルジア"
    ]
  },
  {
    "name": "GiGO新杉田",
    "operation_time": "",
    "holiday": "",
    "latitude": "35.38563947",
    "longitude": "139.6189989",
    "tel": "045-772-8230",
    "address": "横浜市磯子区杉田1-1-1らびすた新杉田2F",
    "access": "",
    "games": [
      "ノスタルジア"
    ]
  },
  {
    "name": "ゲームパニックつくば",
    "operation_time": "",
    "holiday": "",
    "latitude": "36.04632758",
    "longitude": "140.1679958",
    "tel": "080-3350-1839",
    "address": "土浦市中村東1-1-1",
    "access": "",
    "games": [
      "ノスタルジア"
    ]
  },
  {
    "name": "GiGO日立",
    "operation_time": "",
    "holiday": "",
    "latitude": "36.62643148",
    "longitude": "140.6697588",
    "tel": "070-1458-5830",
    "address": "日立市田尻町3-26-1",
    "access": "",
    "games": [
      "ノスタルジア"
    ]
  },
  {
    "name": "GiGO石岡",
    "operation_time": "",
    "holiday": "",
    "latitude": "36.198702",
    "longitude": "140.303303",
    "tel": "0299-26-8336",
    "address": "石岡市東大橋中峯1976-1",
    "access": "",
    "games": [
      "ノスタルジア"
    ]
  },
  {
    "name": "GiGO水戸南",
    "operation_time": "",
    "holiday": "",
    "latitude": "36.350325",
    "longitude": "140.443003",
    "tel": "029-244-1045",
    "address": "水戸市千波町2017-1",
    "access": "",
    "games": [
      "ノスタルジア"
    ]
  },
  {
    "name": "GiGO水戸",
    "operation_time": "",
    "holiday": "",
    "latitude": "36.369467",
    "longitude": "140.474532",
    "tel": "029-231-1002",
    "address": "水戸市宮町1-7-44コムボックス310 3F",
    "access": "",
    "games": [
      "ノスタルジア"
    ]
  },
  {
    "name": "スタジオプリモ本八幡店",
    "operation_time": "",
    "holiday": "",
    "latitude": "35.72122007",
    "longitude": "139.9274269",
    "tel": "047-711-3534",
    "address": "市川市八幡2-15-10パティオ本八幡5F",
    "access": "",
    "games": [
      "ノスタルジア"
    ]
  },
  {
    "name": "ゲームメガ日立店",
    "operation_time": "10:00～24:00",
    "holiday": "無し",
    "latitude": "36.54818909",
    "longitude": "140.6305166",
    "tel": "0294-32-1983",
    "address": "日立市東多賀町5-10-10",
    "access": "常陸多賀駅徒歩5分",
    "games": [
      "ノスタルジア"
    ]
  },
  {
    "name": "K-1BOWL",
    "operation_time": "",
    "holiday": "",
    "latitude": "36.513432",
    "longitude": "140.605082",
    "tel": "0294-53-2277",
    "address": "日立市石名坂町2-2-10",
    "access": "",
    "games": [
      "ノスタルジア"
    ]
  },
  {
    "name": "大慶園",
    "operation_time": "一部24時間営業",
    "holiday": "無し",
    "latitude": "35.76304297",
    "longitude": "139.96933",
    "tel": "047-337-5001",
    "address": "市川市大町359",
    "access": "JR市川大野駅下車 市川植物園行きバス乗車 市川斎場前下車徒歩10分・北総線大町駅から車5分",
    "games": [
      "ノスタルジア"
    ]
  },
  {
    "name": "ラウンドワン市川鬼高店",
    "operation_time": "",
    "holiday": "",
    "latitude": "35.711239",
    "longitude": "139.927465",
    "tel": "047-320-3801",
    "address": "市川市鬼高4-1-3",
    "access": "",
    "games": [
      "ノスタルジア"
    ]
  },
  {
    "name": "タイトーFステーション市川妙典店",
    "operation_time": "施設の営業時間に準じる",
    "holiday": "施設の営業日に準じる",
    "latitude": "35.69246485",
    "longitude": "139.9267286",
    "tel": "047-318-3933",
    "address": "市川市妙典4-1-1イオン市川妙典店2番街2F",
    "access": "",
    "games": [
      "ノスタルジア"
    ]
  },
  {
    "name": "アミューズビバ",
    "operation_time": "",
    "holiday": "",
    "latitude": "36.40636031",
    "longitude": "140.5317325",
    "tel": "029-274-7311",
    "address": "ひたちなか市東大島2-11-11-1Fゲームコーナー",
    "access": "勝田駅東口より北へ1km",
    "games": [
      "ノスタルジア"
    ]
  },
  {
    "name": "ゲームメガ水戸けやき台店",
    "operation_time": "10:00～24:00",
    "holiday": "無し",
    "latitude": "36.33805576",
    "longitude": "140.4832773",
    "tel": "029-247-1983",
    "address": "水戸市酒門町3276-1",
    "access": "50号バイパス沿い",
    "games": [
      "ノスタルジア"
    ]
  },
  {
    "name": "アドアーズ船橋店",
    "operation_time": "10:00～23:45",
    "holiday": "",
    "latitude": "35.700449",
    "longitude": "139.984231",
    "tel": "047-411-3337",
    "address": "船橋市本町1-31-26セブン船橋B1-3F",
    "access": "",
    "games": [
      "ノスタルジア"
    ]
  },
  {
    "name": "タイトーステーション船橋店",
    "operation_time": "",
    "holiday": "",
    "latitude": "35.699888",
    "longitude": "139.98597",
    "tel": "047-436-8135",
    "address": "船橋市本町1-6-1",
    "access": "",
    "games": [
      "ノスタルジア"
    ]
  },
  {
    "name": "GiGO龍ヶ崎",
    "operation_time": "",
    "holiday": "",
    "latitude": "35.938535",
    "longitude": "140.195812",
    "tel": "0296-61-3344",
    "address": "龍ケ崎市藤ケ丘4-2-8",
    "access": "",
    "games": [
      "ノスタルジア"
    ]
  },
  {
    "name": "アミューズメントエース津田沼",
    "operation_time": "9:00～24:00",
    "holiday": "無し",
    "latitude": "35.69228053",
    "longitude": "140.0201572",
    "tel": "047-475-8918",
    "address": "船橋市前原西2-15-1ファミービル1-3F",
    "access": "JR「津田沼駅」下車北口より徒歩1分",
    "games": [
      "ノスタルジア"
    ]
  },
  {
    "name": "ラッキーバッティングドーム",
    "operation_time": "9:00～23:50",
    "holiday": "無し",
    "latitude": "35.72444576",
    "longitude": "140.0674286",
    "tel": "047-458-8208",
    "address": "八千代市大和田新田1088",
    "access": "東葉高速鉄道八千代緑が丘駅徒歩10分",
    "games": [
      "ノスタルジア"
    ]
  },
  {
    "name": "ラウンドワン習志野店",
    "operation_time": "",
    "holiday": "",
    "latitude": "35.660295",
    "longitude": "140.022576",
    "tel": "047-408-1901",
    "address": "習志野市芝園1-4-5",
    "access": "",
    "games": [
      "ノスタルジア"
    ]
  },
  {
    "name": "ラッキー佐倉店",
    "operation_time": "10:00～23:45",
    "holiday": "無し",
    "latitude": "35.71839979",
    "longitude": "140.1362206",
    "tel": "043-460-5165",
    "address": "佐倉市井野1475",
    "access": "京成線勝田台駅下車徒歩10分 国道296号沿い",
    "games": [
      "ノスタルジア"
    ]
  },
  {
    "name": "スポーツウェーブ鉄腕24稲毛長沼店",
    "operation_time": "一部24時間営業",
    "holiday": "無し",
    "latitude": "35.66179317",
    "longitude": "140.1264239",
    "tel": "043-215-5560",
    "address": "千葉市稲毛区長沼原町697",
    "access": "東関東自動車道 千葉北ICから約5分 千葉総合運動場そば",
    "games": [
      "ノスタルジア"
    ]
  },
  {
    "name": "ラッキー中央店(フェリシダ)",
    "operation_time": "9:00～24:50",
    "holiday": "無し",
    "latitude": "35.61028144",
    "longitude": "140.1182438",
    "tel": "043-222-5610",
    "address": "千葉市中央区富士見2-8-1",
    "access": "JR千葉駅より徒歩5分",
    "games": [
      "ノスタルジア"
    ]
  },
  {
    "name": "ラウンドワン市原店",
    "operation_time": "",
    "holiday": "",
    "latitude": "35.54749256",
    "longitude": "140.1233239",
    "tel": "0436-44-8801",
    "address": "市原市八幡北町3-5-1",
    "access": "",
    "games": [
      "ノスタルジア"
    ]
  },
  {
    "name": "館山ヤングボウル",
    "operation_time": "10:00～24:00",
    "holiday": "無し",
    "latitude": "34.990732",
    "longitude": "139.86733",
    "tel": "0470-22-6611",
    "address": "館山市北条1564",
    "access": "JR館山駅より徒歩12分",
    "games": [
      "ノスタルジア"
    ]
  },
  {
    "name": "GiGO神栖",
    "operation_time": "10:00～24:00",
    "holiday": "無し",
    "latitude": "35.89792811",
    "longitude": "140.6444633",
    "tel": "070-1458-2514",
    "address": "神栖市神栖1-8-1",
    "access": "東関東自動車道:潮来I.Cから約10分",
    "games": [
      "ノスタルジア"
    ]
  },
  {
    "name": "茂原ヤングボウル",
    "operation_time": "",
    "holiday": "",
    "latitude": "35.434983",
    "longitude": "140.293146",
    "tel": "0475-24-0059",
    "address": "茂原市高師4-5",
    "access": "",
    "games": [
      "ノスタルジア"
    ]
  },
  {
    "name": "タイトーステーション旭サンモール店",
    "operation_time": "9:00～24:00",
    "holiday": "無し",
    "latitude": "35.725157",
    "longitude": "140.658686",
    "tel": "0479-62-5215",
    "address": "旭市イ-2676-1サンモール3F",
    "access": "旭駅から歩いて5分。 イオン、サンモールの看板が目印",
    "games": [
      "ノスタルジア"
    ]
  }
]