[
  {
    "name": "モーリーファンタジー大塔",
    "operation_time": "",
    "holiday": "",
    "latitude": "33.14881429",
    "longitude": "129.7800417",
    "tel": "070-3100-3680",
    "address": "佐世保市大塔町14-2イオン大塔3F",
    "access": "",
    "games": [
      "モンスター烈伝 オレカバトル2 パンドラのメダル"
    ]
  },
  {
    "name": "モーリーファンタジー唐津",
    "operation_time": "",
    "holiday": "",
    "latitude": "33.43686802",
    "longitude": "130.012494",
    "tel": "070-3100-3699",
    "address": "唐津市鏡字立神4671イオン唐津2F",
    "access": "",
    "games": [
      "モンスター烈伝 オレカバトル2 パンドラのメダル"
    ]
  },
  {
    "name": "モーリーファンタジー福岡伊都",
    "operation_time": "",
    "holiday": "",
    "latitude": "33.57752981",
    "longitude": "130.2582577",
    "tel": "070-3100-4066",
    "address": "福岡市西区北原1-2-1イオン福岡伊都3F",
    "access": "",
    "games": [
      "モンスター烈伝 オレカバトル2 パンドラのメダル"
    ]
  },
  {
    "name": "モーリーファンタジー時津",
    "operation_time": "",
    "holiday": "",
    "latitude": "32.83133876",
    "longitude": "129.8632053",
    "tel": "070-3100-3971",
    "address": "西彼杵郡時津町浜田郷751-5イオン時津2F",
    "access": "",
    "games": [
      "モンスター烈伝 オレカバトル2 パンドラのメダル"
    ]
  },
  {
    "name": "モーリーファンタジーチトセピア",
    "operation_time": "",
    "holiday": "",
    "latitude": "32.79032482",
    "longitude": "129.8617213",
    "tel": "070-3100-5476",
    "address": "長崎市千歳町5-1イオンチトセピア店3F",
    "access": "",
    "games": [
      "モンスター烈伝 オレカバトル2 パンドラのメダル"
    ]
  },
  {
    "name": "モーリーファンタジーマリナタウン",
    "operation_time": "",
    "holiday": "",
    "latitude": "33.58937744",
    "longitude": "130.334053",
    "tel": "070-3100-5121",
    "address": "福岡市西区豊浜3-1-10イオン2F",
    "access": "",
    "games": [
      "モンスター烈伝 オレカバトル2 パンドラのメダル"
    ]
  },
  {
    "name": "ゲームコーナー原店",
    "operation_time": "",
    "holiday": "",
    "latitude": "33.56452953",
    "longitude": "130.3420597",
    "tel": "070-3100-5581",
    "address": "福岡市早良区原6-27-52イオン原店2F",
    "access": "",
    "games": [
      "モンスター烈伝 オレカバトル2 パンドラのメダル"
    ]
  },
  {
    "name": "モーリーファンタジー大村",
    "operation_time": "",
    "holiday": "",
    "latitude": "32.90152807",
    "longitude": "129.9541188",
    "tel": "070-3100-3835",
    "address": "大村市幸町25-200イオン大村2F",
    "access": "",
    "games": [
      "モンスター烈伝 オレカバトル2 パンドラのメダル"
    ]
  },
  {
    "name": "アソビクル長崎戸町店",
    "operation_time": "",
    "holiday": "",
    "latitude": "32.72113757",
    "longitude": "129.8611866",
    "tel": "095-801-0955",
    "address": "長崎市戸町4-9-3",
    "access": "",
    "games": [
      "モンスター烈伝 オレカバトル2 パンドラのメダル"
    ]
  },
  {
    "name": "モーリーファンタジー香椎浜",
    "operation_time": "",
    "holiday": "",
    "latitude": "33.65637997",
    "longitude": "130.4290086",
    "tel": "070-3100-3943",
    "address": "福岡市東区香椎浜3-12-1イオン香椎浜2F",
    "access": "",
    "games": [
      "モンスター烈伝 オレカバトル2 パンドラのメダル"
    ]
  },
  {
    "name": "モーリーファンタジー笹丘",
    "operation_time": "",
    "holiday": "",
    "latitude": "33.56498267",
    "longitude": "130.3768418",
    "tel": "080-3476-8779",
    "address": "福岡市中央区笹丘1-28-74イオン笹丘B1F",
    "access": "",
    "games": [
      "モンスター烈伝 オレカバトル2 パンドラのメダル"
    ]
  },
  {
    "name": "モーリーファンタジー福津",
    "operation_time": "",
    "holiday": "",
    "latitude": "33.75340105",
    "longitude": "130.4941531",
    "tel": "070-3100-4061",
    "address": "福津市日蒔野6-16-1イオン福津店 2F",
    "access": "",
    "games": [
      "モンスター烈伝 オレカバトル2 パンドラのメダル"
    ]
  },
  {
    "name": "ラウンドワン福岡天神店",
    "operation_time": "",
    "holiday": "",
    "latitude": "33.58960223",
    "longitude": "130.3968402",
    "tel": "092-720-8101",
    "address": "福岡市中央区天神2-6-12",
    "access": "",
    "games": [
      "モンスター烈伝 オレカバトル2 パンドラのメダル"
    ]
  },
  {
    "name": "モーリーファンタジー東長崎",
    "operation_time": "",
    "holiday": "",
    "latitude": "32.76820451",
    "longitude": "129.952218",
    "tel": "070-3100-3674",
    "address": "長崎市田中町1027-8イオン東長崎2F",
    "access": "",
    "games": [
      "モンスター烈伝 オレカバトル2 パンドラのメダル"
    ]
  },
  {
    "name": "ラウンドワン博多半道橋店",
    "operation_time": "",
    "holiday": "",
    "latitude": "33.58394157",
    "longitude": "130.4382666",
    "tel": "092-475-6611",
    "address": "福岡市博多区半道橋2-2-8",
    "access": "",
    "games": [
      "モンスター烈伝 オレカバトル2 パンドラのメダル"
    ]
  },
  {
    "name": "モーリーファンタジー佐賀大和",
    "operation_time": "",
    "holiday": "",
    "latitude": "33.30417881",
    "longitude": "130.2806464",
    "tel": "070-3100-3639",
    "address": "佐賀市大和町大字尼寺3535イオン佐賀大和2F",
    "access": "",
    "games": [
      "モンスター烈伝 オレカバトル2 パンドラのメダル"
    ]
  },
  {
    "name": "モーリーファンタジー福岡",
    "operation_time": "",
    "holiday": "",
    "latitude": "33.59655884",
    "longitude": "130.4807414",
    "tel": "070-3100-3878",
    "address": "糟屋郡粕屋町大字酒殿字老ノ木192-1 イオン福岡2F",
    "access": "",
    "games": [
      "モンスター烈伝 オレカバトル2 パンドラのメダル"
    ]
  },
  {
    "name": "ラウンドワン佐賀店",
    "operation_time": "",
    "holiday": "",
    "latitude": "33.27533631",
    "longitude": "130.3015536",
    "tel": "0952-36-7070",
    "address": "佐賀市兵庫北4-2-1",
    "access": "",
    "games": [
      "モンスター烈伝 オレカバトル2 パンドラのメダル"
    ]
  },
  {
    "name": "モーリーファンタジー大野城",
    "operation_time": "",
    "holiday": "",
    "latitude": "33.53791967",
    "longitude": "130.4755799",
    "tel": "070-3100-5334",
    "address": "大野城市錦町4-1-1イオン大野城3F",
    "access": "",
    "games": [
      "モンスター烈伝 オレカバトル2 パンドラのメダル"
    ]
  },
  {
    "name": "モーリーファンタジー若松",
    "operation_time": "",
    "holiday": "",
    "latitude": "33.89202056",
    "longitude": "130.7434089",
    "tel": "070-3100-3665",
    "address": "北九州市若松区二島1-3-1イオン若松2F",
    "access": "",
    "games": [
      "モンスター烈伝 オレカバトル2 パンドラのメダル"
    ]
  },
  {
    "name": "モーリーファンタジー筑紫野",
    "operation_time": "",
    "holiday": "",
    "latitude": "33.48107542",
    "longitude": "130.5268619",
    "tel": "070-3100-4092",
    "address": "筑紫野市大字立明寺434-1イオン筑紫野3F",
    "access": "",
    "games": [
      "モンスター烈伝 オレカバトル2 パンドラのメダル"
    ]
  },
  {
    "name": "パスカランド黒崎店",
    "operation_time": "",
    "holiday": "",
    "latitude": "33.86053",
    "longitude": "130.760618",
    "tel": "093-644-1188",
    "address": "北九州市八幡西区西曲里町3-1イオンタウン黒崎店1F",
    "access": "",
    "games": [
      "モンスター烈伝 オレカバトル2 パンドラのメダル"
    ]
  },
  {
    "name": "モーリーファンタジー直方",
    "operation_time": "",
    "holiday": "",
    "latitude": "33.76919285",
    "longitude": "130.7491065",
    "tel": "070-3100-3972",
    "address": "直方市湯野原2-1-1イオン直方2F",
    "access": "",
    "games": [
      "モンスター烈伝 オレカバトル2 パンドラのメダル"
    ]
  },
  {
    "name": "モーリーファンタジー八幡東",
    "operation_time": "",
    "holiday": "",
    "latitude": "33.87049348",
    "longitude": "130.8108031",
    "tel": "070-3100-4178",
    "address": "北九州市八幡東区東田3-2-102イオン八幡東SC内3F",
    "access": "",
    "games": [
      "モンスター烈伝 オレカバトル2 パンドラのメダル"
    ]
  },
  {
    "name": "モーリーファンタジー大木",
    "operation_time": "",
    "holiday": "",
    "latitude": "33.22055337",
    "longitude": "130.4474917",
    "tel": "070-3100-4488",
    "address": "三潴郡大木町蛭池1200イオンSC大木店内",
    "access": "",
    "games": [
      "モンスター烈伝 オレカバトル2 パンドラのメダル"
    ]
  },
  {
    "name": "ラウンドワン小倉店",
    "operation_time": "",
    "holiday": "",
    "latitude": "33.89742877",
    "longitude": "130.8598475",
    "tel": "093-562-8805",
    "address": "北九州市小倉北区西港町15-65",
    "access": "",
    "games": [
      "モンスター烈伝 オレカバトル2 パンドラのメダル"
    ]
  },
  {
    "name": "楽市街道くるめ店",
    "operation_time": "10:00～24:00",
    "holiday": "無し",
    "latitude": "33.31964228",
    "longitude": "130.5426663",
    "tel": "0942-41-1450",
    "address": "久留米市新合川2-7-10久留米アミューズメントビル内",
    "access": "久留米ICから車で5分国道210号線沿い",
    "games": [
      "モンスター烈伝 オレカバトル2 パンドラのメダル"
    ]
  },
  {
    "name": "モーリーファンタジー下関",
    "operation_time": "",
    "holiday": "",
    "latitude": "33.94934304",
    "longitude": "130.9243924",
    "tel": "070-3100-5035",
    "address": "下関市竹崎町4-4-7シーモールエスト4F",
    "access": "",
    "games": [
      "モンスター烈伝 オレカバトル2 パンドラのメダル"
    ]
  },
  {
    "name": "モーリーファンタジー大牟田",
    "operation_time": "",
    "holiday": "",
    "latitude": "33.0309501",
    "longitude": "130.427023",
    "tel": "070-3100-4155",
    "address": "大牟田市岬町3-4イオン大牟田2F",
    "access": "",
    "games": [
      "モンスター烈伝 オレカバトル2 パンドラのメダル"
    ]
  },
  {
    "name": "パスカワールドグリーンランド",
    "operation_time": "10:00～翌3:00",
    "holiday": "無し",
    "latitude": "32.98790587",
    "longitude": "130.4711246",
    "tel": "0968-69-3001",
    "address": "荒尾市本井手1574-54",
    "access": "三井グリーンランドウルトラマンランド横",
    "games": [
      "モンスター烈伝 オレカバトル2 パンドラのメダル"
    ]
  },
  {
    "name": "サープラ山口あそびタウン",
    "operation_time": "9:00～24:00",
    "holiday": "無し",
    "latitude": "34.1647908",
    "longitude": "131.4517343",
    "tel": "083-933-0307",
    "address": "山口市湯田温泉6-8-3",
    "access": "JR山口線 湯田温泉駅下車 湯田自動車学校方面徒歩10分",
    "games": [
      "モンスター烈伝 オレカバトル2 パンドラのメダル"
    ]
  },
  {
    "name": "パスカワールド宇土店",
    "operation_time": "日曜～木曜 10:00～23:00  金曜・土曜 10:00～24:00",
    "holiday": "無し",
    "latitude": "32.68271108",
    "longitude": "130.6679513",
    "tel": "0964-22-5311",
    "address": "宇土市善道寺町綾織95",
    "access": "松橋ICより車で10分、宇土シティーショッピングセンター内",
    "games": [
      "モンスター烈伝 オレカバトル2 パンドラのメダル"
    ]
  },
  {
    "name": "パスカランドはません店",
    "operation_time": "",
    "holiday": "",
    "latitude": "32.77117658",
    "longitude": "130.7272317",
    "tel": "096-370-2355",
    "address": "熊本市南区田井島1-2-1ゆめタウンはません店3F",
    "access": "",
    "games": [
      "モンスター烈伝 オレカバトル2 パンドラのメダル"
    ]
  },
  {
    "name": "モーリーファンタジー八代",
    "operation_time": "",
    "holiday": "",
    "latitude": "32.52452883",
    "longitude": "130.5848477",
    "tel": "070-3100-3876",
    "address": "八代市沖町六番割3987-3イオン八代2F",
    "access": "",
    "games": [
      "モンスター烈伝 オレカバトル2 パンドラのメダル"
    ]
  },
  {
    "name": "タイトーステーションゆめタウン光の森店",
    "operation_time": "19:30～22:00",
    "holiday": "無し",
    "latitude": "32.86026096",
    "longitude": "130.7845278",
    "tel": "096-232-8339",
    "address": "菊池郡菊陽町光の森7-33-1ゆめタウン光の森2F",
    "access": "JR光も森駅 ゆめタウン光の森 2階",
    "games": [
      "モンスター烈伝 オレカバトル2 パンドラのメダル"
    ]
  },
  {
    "name": "モーリーファンタジー熊本",
    "operation_time": "",
    "holiday": "",
    "latitude": "32.73774205",
    "longitude": "130.7460484",
    "tel": "070-3100-4073",
    "address": "上益城郡嘉島町上島字長池2232イオン熊本2F",
    "access": "",
    "games": [
      "モンスター烈伝 オレカバトル2 パンドラのメダル"
    ]
  },
  {
    "name": "PALO防府",
    "operation_time": "",
    "holiday": "",
    "latitude": "34.0522015",
    "longitude": "131.5685841",
    "tel": "070-3100-3731",
    "address": "防府市中央町1-3イオン防府店3F",
    "access": "",
    "games": [
      "モンスター烈伝 オレカバトル2 パンドラのメダル"
    ]
  },
  {
    "name": "モーリーファンタジー出雲",
    "operation_time": "",
    "holiday": "",
    "latitude": "35.3679844",
    "longitude": "132.7386243",
    "tel": "070-3100-4643",
    "address": "出雲市渡橋町1066イオンモール出雲3F",
    "access": "",
    "games": [
      "モンスター烈伝 オレカバトル2 パンドラのメダル"
    ]
  },
  {
    "name": "モーリーファンタジー那覇",
    "operation_time": "10:00～22:00",
    "holiday": "無し",
    "latitude": "26.19689585",
    "longitude": "127.6658336",
    "tel": "070-3100-5314",
    "address": "那覇市金城5-10-2イオン那覇3F",
    "access": "モノレール 小禄駅 正面 ジャスコ那覇店内3F",
    "games": [
      "モンスター烈伝 オレカバトル2 パンドラのメダル"
    ]
  },
  {
    "name": "ラウンドワン沖縄･宜野湾店",
    "operation_time": "",
    "holiday": "",
    "latitude": "26.27580261",
    "longitude": "127.7310389",
    "tel": "098-870-2110",
    "address": "宜野湾市真志喜3-28-8",
    "access": "",
    "games": [
      "モンスター烈伝 オレカバトル2 パンドラのメダル"
    ]
  },
  {
    "name": "モーリーファンタジー北谷",
    "operation_time": "",
    "holiday": "",
    "latitude": "26.31383536",
    "longitude": "127.7571006",
    "tel": "070-3100-4750",
    "address": "中頭郡北谷町字美浜8-3イオン北谷2F",
    "access": "",
    "games": [
      "モンスター烈伝 オレカバトル2 パンドラのメダル"
    ]
  },
  {
    "name": "モーリーファンタジー南風原",
    "operation_time": "",
    "holiday": "",
    "latitude": "26.20113483",
    "longitude": "127.7376177",
    "tel": "070-3100-3883",
    "address": "島尻郡南風原町字宮平264イオン南風原2F",
    "access": "",
    "games": [
      "モンスター烈伝 オレカバトル2 パンドラのメダル"
    ]
  },
  {
    "name": "モーリーファンタジーライカム",
    "operation_time": "",
    "holiday": "",
    "latitude": "26.31371191",
    "longitude": "127.7965918",
    "tel": "070-3100-4082",
    "address": "中頭郡北中城村字ライカム1イオンライカム4F",
    "access": "",
    "games": [
      "モンスター烈伝 オレカバトル2 パンドラのメダル"
    ]
  },
  {
    "name": "モーリーファンタジー姶良",
    "operation_time": "",
    "holiday": "",
    "latitude": "31.73244925",
    "longitude": "130.6272346",
    "tel": "070-3100-5381",
    "address": "姶良市西餅田264-1イオンスタイル姶良3F",
    "access": "",
    "games": [
      "モンスター烈伝 オレカバトル2 パンドラのメダル"
    ]
  },
  {
    "name": "モーリーファンタジー具志川",
    "operation_time": "",
    "holiday": "",
    "latitude": "26.33799894",
    "longitude": "127.8442568",
    "tel": "070-3100-3720",
    "address": "うるま市前原幸崎原303イオン具志川2F",
    "access": "",
    "games": [
      "モンスター烈伝 オレカバトル2 パンドラのメダル"
    ]
  },
  {
    "name": "ラウンドワン鹿児島宇宿店",
    "operation_time": "",
    "holiday": "",
    "latitude": "31.54388304",
    "longitude": "130.5427759",
    "tel": "099-284-0655",
    "address": "鹿児島市宇宿2-2-2",
    "access": "",
    "games": [
      "モンスター烈伝 オレカバトル2 パンドラのメダル"
    ]
  },
  {
    "name": "モーリーファンタジー鹿児島",
    "operation_time": "",
    "holiday": "",
    "latitude": "31.52744403",
    "longitude": "130.536708",
    "tel": "070-3100-4134",
    "address": "鹿児島市東開町7イオン鹿児島3F",
    "access": "",
    "games": [
      "モンスター烈伝 オレカバトル2 パンドラのメダル"
    ]
  },
  {
    "name": "モーリーファンタジー名護",
    "operation_time": "",
    "holiday": "",
    "latitude": "26.6096642",
    "longitude": "127.9840379",
    "tel": "070-3100-3954",
    "address": "名護市字名護見取川原4472イオン名護1F",
    "access": "",
    "games": [
      "モンスター烈伝 オレカバトル2 パンドラのメダル"
    ]
  },
  {
    "name": "サープラ鹿児島あそびタウン",
    "operation_time": "9:00～24:00",
    "holiday": "無し",
    "latitude": "31.57003616",
    "longitude": "130.565823",
    "tel": "099-213-0223",
    "address": "鹿児島市与次郎1-11-1 2F",
    "access": "フレスポジャングルパーク鹿児島店2F",
    "games": [
      "モンスター烈伝 オレカバトル2 パンドラのメダル"
    ]
  },
  {
    "name": "ラウンドワン大分店",
    "operation_time": "",
    "holiday": "",
    "latitude": "33.24885259",
    "longitude": "131.6402543",
    "tel": "097-573-2800",
    "address": "大分市萩原2-13-17",
    "access": "",
    "games": [
      "モンスター烈伝 オレカバトル2 パンドラのメダル"
    ]
  },
  {
    "name": "PALO松江",
    "operation_time": "",
    "holiday": "",
    "latitude": "35.4639773",
    "longitude": "133.0683985",
    "tel": "070-3100-4323",
    "address": "松江市東朝日町151イオン松江3F",
    "access": "",
    "games": [
      "モンスター烈伝 オレカバトル2 パンドラのメダル"
    ]
  },
  {
    "name": "モーリーファンタジー隼人国分",
    "operation_time": "",
    "holiday": "",
    "latitude": "31.73836995",
    "longitude": "130.7420023",
    "tel": "070-3100-5332",
    "address": "霧島市隼人町見次1229イオン隼人国分2F",
    "access": "",
    "games": [
      "モンスター烈伝 オレカバトル2 パンドラのメダル"
    ]
  },
  {
    "name": "モーリーファンタジー楽々園",
    "operation_time": "",
    "holiday": "",
    "latitude": "34.3623386",
    "longitude": "132.352591",
    "tel": "070-3100-5597",
    "address": "広島市佐伯区楽々園4-444-15イオンタウン楽々園店2F",
    "access": "",
    "games": [
      "モンスター烈伝 オレカバトル2 パンドラのメダル"
    ]
  },
  {
    "name": "モーリーファンタジーアルパーク",
    "operation_time": "",
    "holiday": "",
    "latitude": "34.37258886",
    "longitude": "132.3932759",
    "tel": "070-3100-5127",
    "address": "広島市西区井口明神1-16-1アルパーク西棟4F",
    "access": "",
    "games": [
      "モンスター烈伝 オレカバトル2 パンドラのメダル"
    ]
  },
  {
    "name": "モーリーファンタジーパークプレイス大分",
    "operation_time": "",
    "holiday": "",
    "latitude": "33.1944649",
    "longitude": "131.6588631",
    "tel": "070-3100-3666",
    "address": "大分市公園通り西2-1イオンパークプレイス大分2F",
    "access": "",
    "games": [
      "モンスター烈伝 オレカバトル2 パンドラのメダル"
    ]
  },
  {
    "name": "モーリーファンタジー広島祗園",
    "operation_time": "",
    "holiday": "",
    "latitude": "34.44284015",
    "longitude": "132.4607416",
    "tel": "070-3100-4144",
    "address": "広島市安佐南区祇園3-2-1イオン広島祇園店3F",
    "access": "",
    "games": [
      "モンスター烈伝 オレカバトル2 パンドラのメダル"
    ]
  },
  {
    "name": "モーリーファンタジーf広島祇園",
    "operation_time": "",
    "holiday": "",
    "latitude": "34.443849",
    "longitude": "132.461514",
    "tel": "070-3100-4142",
    "address": "広島市安佐南区祇園3-2-1イオンモール広島祇園店3F",
    "access": "",
    "games": [
      "モンスター烈伝 オレカバトル2 パンドラのメダル"
    ]
  },
  {
    "name": "ラウンドワン広島店",
    "operation_time": "",
    "holiday": "",
    "latitude": "34.39365895",
    "longitude": "132.4600423",
    "tel": "082-545-8910",
    "address": "広島市中区立町3-11",
    "access": "",
    "games": [
      "モンスター烈伝 オレカバトル2 パンドラのメダル"
    ]
  },
  {
    "name": "モーリーファンタジー宇品",
    "operation_time": "",
    "holiday": "",
    "latitude": "34.36295964",
    "longitude": "132.468931",
    "tel": "070-3100-4744",
    "address": "広島市南区宇品東6-1-15イオン2F",
    "access": "",
    "games": [
      "モンスター烈伝 オレカバトル2 パンドラのメダル"
    ]
  },
  {
    "name": "モーリーファンタジー広島府中",
    "operation_time": "",
    "holiday": "",
    "latitude": "34.39459847",
    "longitude": "132.4978195",
    "tel": "070-3100-4737",
    "address": "安芸郡府中町大須2-1-1イオン広島府中3F",
    "access": "",
    "games": [
      "モンスター烈伝 オレカバトル2 パンドラのメダル"
    ]
  },
  {
    "name": "モーリーファンタジー日吉津",
    "operation_time": "",
    "holiday": "",
    "latitude": "35.44582877",
    "longitude": "133.3872398",
    "tel": "070-3100-3653",
    "address": "西伯郡日吉津村日吉津1160-1イオン日吉津2F",
    "access": "",
    "games": [
      "モンスター烈伝 オレカバトル2 パンドラのメダル"
    ]
  },
  {
    "name": "モーリーファンタジー都城",
    "operation_time": "",
    "holiday": "",
    "latitude": "31.7143755",
    "longitude": "131.0763125",
    "tel": "070-3100-3956",
    "address": "都城市早鈴町1950イオン都城2F",
    "access": "",
    "games": [
      "モンスター烈伝 オレカバトル2 パンドラのメダル"
    ]
  },
  {
    "name": "モーリーファンタジー延岡",
    "operation_time": "",
    "holiday": "",
    "latitude": "32.57236076",
    "longitude": "131.6700981",
    "tel": "070-3100-3833",
    "address": "延岡市旭町2-2-1イオン延岡2F",
    "access": "",
    "games": [
      "モンスター烈伝 オレカバトル2 パンドラのメダル"
    ]
  },
  {
    "name": "ラウンドワン宮崎店",
    "operation_time": "",
    "holiday": "",
    "latitude": "31.89458335",
    "longitude": "131.4170876",
    "tel": "0985-63-1210",
    "address": "宮崎市中村東3-4-60",
    "access": "",
    "games": [
      "モンスター烈伝 オレカバトル2 パンドラのメダル"
    ]
  },
  {
    "name": "モーリーファンタジー宮崎",
    "operation_time": "",
    "holiday": "",
    "latitude": "31.92282557",
    "longitude": "131.4559515",
    "tel": "070-3100-3920",
    "address": "宮崎市新別府町江口862-1イオン宮崎2F",
    "access": "",
    "games": [
      "モンスター烈伝 オレカバトル2 パンドラのメダル"
    ]
  },
  {
    "name": "モーリーファンタジー三原",
    "operation_time": "",
    "holiday": "",
    "latitude": "34.39973086",
    "longitude": "133.0873642",
    "tel": "070-3100-4723",
    "address": "三原市城町2-13-1イオン2F",
    "access": "",
    "games": [
      "モンスター烈伝 オレカバトル2 パンドラのメダル"
    ]
  },
  {
    "name": "モーリーファンタジー松山",
    "operation_time": "",
    "holiday": "",
    "latitude": "33.82312717",
    "longitude": "132.7762491",
    "tel": "070-3100-5318",
    "address": "松山市天山1-13-5イオン3F",
    "access": "",
    "games": [
      "モンスター烈伝 オレカバトル2 パンドラのメダル"
    ]
  },
  {
    "name": "ピノッキースパティオ福山店",
    "operation_time": "",
    "holiday": "",
    "latitude": "34.48680552",
    "longitude": "133.3785539",
    "tel": "084-959-3650",
    "address": "福山市入船町3-1-60ゆめタウン福山2F",
    "access": "",
    "games": [
      "モンスター烈伝 オレカバトル2 パンドラのメダル"
    ]
  },
  {
    "name": "ラウンドワン福山店",
    "operation_time": "",
    "holiday": "",
    "latitude": "34.489155",
    "longitude": "133.3925782",
    "tel": "084-973-9891",
    "address": "福山市明神町1-9-28",
    "access": "",
    "games": [
      "モンスター烈伝 オレカバトル2 パンドラのメダル"
    ]
  },
  {
    "name": "モーリーファンタジー鳥取北",
    "operation_time": "",
    "holiday": "",
    "latitude": "35.52492468",
    "longitude": "134.2022679",
    "tel": "070-3100-3703",
    "address": "鳥取市晩稲348イオン鳥取北店2F",
    "access": "",
    "games": [
      "モンスター烈伝 オレカバトル2 パンドラのメダル"
    ]
  },
  {
    "name": "モーリーファンタジー新居浜",
    "operation_time": "",
    "holiday": "",
    "latitude": "33.95430492",
    "longitude": "133.2680857",
    "tel": "070-3100-4708",
    "address": "新居浜市前田町8-8イオン新居浜2F",
    "access": "",
    "games": [
      "モンスター烈伝 オレカバトル2 パンドラのメダル"
    ]
  },
  {
    "name": "モーリーファンタジー津山",
    "operation_time": "",
    "holiday": "",
    "latitude": "35.06454789",
    "longitude": "134.0449341",
    "tel": "070-3100-3814",
    "address": "津山市河辺1000-1イオン津山店2F",
    "access": "",
    "games": [
      "モンスター烈伝 オレカバトル2 パンドラのメダル"
    ]
  },
  {
    "name": "モーリーファンタジー倉敷",
    "operation_time": "",
    "holiday": "",
    "latitude": "34.60423554",
    "longitude": "133.7473891",
    "tel": "070-3100-3660",
    "address": "倉敷市水江1イオンモール倉敷1F",
    "access": "",
    "games": [
      "モンスター烈伝 オレカバトル2 パンドラのメダル"
    ]
  },
  {
    "name": "モーリーファンタジー水島",
    "operation_time": "",
    "holiday": "",
    "latitude": "34.52975236",
    "longitude": "133.7358776",
    "tel": "070-3100-4507",
    "address": "倉敷市水島高砂町3-11マックスバリュ1F",
    "access": "",
    "games": [
      "モンスター烈伝 オレカバトル2 パンドラのメダル"
    ]
  },
  {
    "name": "ラウンドワン岡山妹尾店",
    "operation_time": "",
    "holiday": "",
    "latitude": "34.62318926",
    "longitude": "133.8694608",
    "tel": "086-282-8851",
    "address": "岡山市南区妹尾3413-1",
    "access": "",
    "games": [
      "モンスター烈伝 オレカバトル2 パンドラのメダル"
    ]
  },
  {
    "name": "GiGOイオンモール岡山",
    "operation_time": "",
    "holiday": "",
    "latitude": "34.66214987",
    "longitude": "133.9177027",
    "tel": "086-227-7681",
    "address": "岡山市北区下石井1-2-1イオンモール岡山6F",
    "access": "",
    "games": [
      "モンスター烈伝 オレカバトル2 パンドラのメダル"
    ]
  },
  {
    "name": "モーリーファンタジーf岡山",
    "operation_time": "",
    "holiday": "",
    "latitude": "34.66197587",
    "longitude": "133.9183987",
    "tel": "070-3100-3519",
    "address": "岡山市北区下石井1-2-1イオンモール岡山4F",
    "access": "",
    "games": [
      "モンスター烈伝 オレカバトル2 パンドラのメダル"
    ]
  },
  {
    "name": "モーリーファンタジー名寄",
    "operation_time": "",
    "holiday": "",
    "latitude": "44.33843898",
    "longitude": "142.4525536",
    "tel": "070-3100-7395",
    "address": "名寄市字徳田80-1イオン名寄2F",
    "access": "",
    "games": [
      "モンスター烈伝 オレカバトル2 パンドラのメダル"
    ]
  },
  {
    "name": "ピノッキースパティオ丸亀店",
    "operation_time": "",
    "holiday": "",
    "latitude": "34.27356953",
    "longitude": "133.7855596",
    "tel": "0877-35-7093",
    "address": "丸亀市新田町150ゆめタウン丸亀3F",
    "access": "",
    "games": [
      "モンスター烈伝 オレカバトル2 パンドラのメダル"
    ]
  },
  {
    "name": "モーリーファンタジー札幌発寒",
    "operation_time": "",
    "holiday": "",
    "latitude": "43.09663704",
    "longitude": "141.2768118",
    "tel": "070-3100-4063",
    "address": "札幌市西区発寒8条12-1-1イオン札幌発寒店3F",
    "access": "",
    "games": [
      "モンスター烈伝 オレカバトル2 パンドラのメダル"
    ]
  },
  {
    "name": "Feedy Diner&Arcade綾川店",
    "operation_time": "",
    "holiday": "",
    "latitude": "34.251612",
    "longitude": "133.931129",
    "tel": "070-3100-3490",
    "address": "綾歌郡綾川町萱原822-1イオンモール綾川3F",
    "access": "",
    "games": [
      "モンスター烈伝 オレカバトル2 パンドラのメダル"
    ]
  },
  {
    "name": "モーリーファンタジー高松",
    "operation_time": "",
    "holiday": "",
    "latitude": "34.35156652",
    "longitude": "134.0039088",
    "tel": "070-3100-4362",
    "address": "高松市香西本町1-1イオン3F",
    "access": "",
    "games": [
      "モンスター烈伝 オレカバトル2 パンドラのメダル"
    ]
  },
  {
    "name": "ラウンドワン札幌北21条店",
    "operation_time": "",
    "holiday": "",
    "latitude": "43.08681907",
    "longitude": "141.3495671",
    "tel": "011-733-8801",
    "address": "札幌市東区北21条東1-1-21",
    "access": "",
    "games": [
      "モンスター烈伝 オレカバトル2 パンドラのメダル"
    ]
  },
  {
    "name": "モーリーファンタジー札幌桑園",
    "operation_time": "",
    "holiday": "",
    "latitude": "43.06946033",
    "longitude": "141.3329163",
    "tel": "070-3100-3955",
    "address": "札幌市中央区北8条西14-28イオン札幌桑園店2F",
    "access": "",
    "games": [
      "モンスター烈伝 オレカバトル2 パンドラのメダル"
    ]
  },
  {
    "name": "モーリーファンタジー札幌元町",
    "operation_time": "",
    "holiday": "",
    "latitude": "43.1014858",
    "longitude": "141.3683567",
    "tel": "070-3100-3640",
    "address": "札幌市東区北31条東15-1-1イオン札幌元町店3F",
    "access": "",
    "games": [
      "モンスター烈伝 オレカバトル2 パンドラのメダル"
    ]
  },
  {
    "name": "ラウンドワン札幌すすきの店",
    "operation_time": "",
    "holiday": "",
    "latitude": "43.05431311",
    "longitude": "141.3540587",
    "tel": "011-520-1022",
    "address": "札幌市中央区南五条西3-6-1札幌東宝公楽ビル",
    "access": "",
    "games": [
      "モンスター烈伝 オレカバトル2 パンドラのメダル"
    ]
  },
  {
    "name": "モーリーファンタジー札幌苗穂",
    "operation_time": "",
    "holiday": "",
    "latitude": "43.08001605",
    "longitude": "141.4033171",
    "tel": "070-3100-3970",
    "address": "札幌市東区東苗穂2条3-1-1イオン札幌苗穂2F",
    "access": "",
    "games": [
      "モンスター烈伝 オレカバトル2 パンドラのメダル"
    ]
  },
  {
    "name": "モーリーファンタジー高知",
    "operation_time": "",
    "holiday": "",
    "latitude": "33.57607801",
    "longitude": "133.5423752",
    "tel": "070-3100-4716",
    "address": "高知市秦南町1-4-8イオン高知2F",
    "access": "",
    "games": [
      "モンスター烈伝 オレカバトル2 パンドラのメダル"
    ]
  },
  {
    "name": "PALO滝川",
    "operation_time": "",
    "holiday": "",
    "latitude": "43.55413227",
    "longitude": "141.931124",
    "tel": "070-3100-4518",
    "address": "滝川市東町2-29-1イオン滝川1F",
    "access": "",
    "games": [
      "モンスター烈伝 オレカバトル2 パンドラのメダル"
    ]
  },
  {
    "name": "モーリーファンタジー高松東",
    "operation_time": "",
    "holiday": "",
    "latitude": "34.34589068",
    "longitude": "134.0713898",
    "tel": "070-3100-5299",
    "address": "高松市福岡町3-8-5イオン高松東3F",
    "access": "",
    "games": [
      "モンスター烈伝 オレカバトル2 パンドラのメダル"
    ]
  },
  {
    "name": "ラウンドワン高松店",
    "operation_time": "",
    "holiday": "",
    "latitude": "34.33898638",
    "longitude": "134.0669994",
    "tel": "087-812-6115",
    "address": "高松市松島町2-7-43",
    "access": "",
    "games": [
      "モンスター烈伝 オレカバトル2 パンドラのメダル"
    ]
  },
  {
    "name": "ラウンドワン高知店",
    "operation_time": "",
    "holiday": "",
    "latitude": "33.55793713",
    "longitude": "133.554676",
    "tel": "088-804-3070",
    "address": "高知市南宝永町4-12",
    "access": "",
    "games": [
      "モンスター烈伝 オレカバトル2 パンドラのメダル"
    ]
  },
  {
    "name": "キャッツアイ新札幌店",
    "operation_time": "10:00～24:00",
    "holiday": "無し",
    "latitude": "43.04493545",
    "longitude": "141.4754191",
    "tel": "011-899-1500",
    "address": "札幌市厚別区厚別東5条1-2-10",
    "access": "JR、札幌市営地下鉄新札幌駅下車徒歩20分",
    "games": [
      "モンスター烈伝 オレカバトル2 パンドラのメダル"
    ]
  },
  {
    "name": "PALO江別",
    "operation_time": "",
    "holiday": "",
    "latitude": "43.09719169",
    "longitude": "141.5333123",
    "tel": "070-3100-3727",
    "address": "江別市幸町35イオン江別3F",
    "access": "",
    "games": [
      "モンスター烈伝 オレカバトル2 パンドラのメダル"
    ]
  },
  {
    "name": "モーリーファンタジー札幌平岡",
    "operation_time": "",
    "holiday": "",
    "latitude": "42.99707272",
    "longitude": "141.4585574",
    "tel": "070-3100-3646",
    "address": "札幌市清田区平岡3条5-3-1イオン札幌平岡2F",
    "access": "",
    "games": [
      "モンスター烈伝 オレカバトル2 パンドラのメダル"
    ]
  },
  {
    "name": "モーリーファンタジー旭川西",
    "operation_time": "",
    "holiday": "",
    "latitude": "43.79395811",
    "longitude": "142.3258751",
    "tel": "070-3100-3901",
    "address": "旭川市緑町23-2161-3イオン旭川西2F",
    "access": "",
    "games": [
      "モンスター烈伝 オレカバトル2 パンドラのメダル"
    ]
  },
  {
    "name": "モーリーファンタジー姫路大津",
    "operation_time": "",
    "holiday": "",
    "latitude": "34.80683532",
    "longitude": "134.6058779",
    "tel": "070-3100-4417",
    "address": "姫路市大津区大津町2-5イオン姫路大津2F",
    "access": "",
    "games": [
      "モンスター烈伝 オレカバトル2 パンドラのメダル"
    ]
  },
  {
    "name": "モーリーファンタジー姫路リバーシティー",
    "operation_time": "",
    "holiday": "",
    "latitude": "34.79693486",
    "longitude": "134.6686047",
    "tel": "070-3100-3849",
    "address": "姫路市飾磨区細江2560イオン姫路リバーシティー3F",
    "access": "",
    "games": [
      "モンスター烈伝 オレカバトル2 パンドラのメダル"
    ]
  },
  {
    "name": "モーリーファンタジー福知山",
    "operation_time": "",
    "holiday": "",
    "latitude": "35.31729029",
    "longitude": "135.1003369",
    "tel": "070-3100-4699",
    "address": "福知山市岩井79-8イオン福知山2F",
    "access": "",
    "games": [
      "モンスター烈伝 オレカバトル2 パンドラのメダル"
    ]
  },
  {
    "name": "モーリーファンタジーf加西北条",
    "operation_time": "9:00～21:00",
    "holiday": "施設の営業日に準じる",
    "latitude": "34.930446",
    "longitude": "134.828473",
    "tel": "070-3100-3488",
    "address": "加西市北条町北条308-1イオン加西北条2F",
    "access": "北条鉄道 北条町駅 徒歩7分",
    "games": [
      "モンスター烈伝 オレカバトル2 パンドラのメダル"
    ]
  },
  {
    "name": "モーリーファンタジー上磯",
    "operation_time": "",
    "holiday": "",
    "latitude": "41.82180269",
    "longitude": "140.7122673",
    "tel": "070-3100-5478",
    "address": "北斗市七重浜4-44-1イオン上磯1F",
    "access": "",
    "games": [
      "モンスター烈伝 オレカバトル2 パンドラのメダル"
    ]
  },
  {
    "name": "ラウンドワン函館店",
    "operation_time": "",
    "holiday": "",
    "latitude": "41.82459206",
    "longitude": "140.7173548",
    "tel": "0138-49-8401",
    "address": "函館市西桔梗町848-11",
    "access": "",
    "games": [
      "モンスター烈伝 オレカバトル2 パンドラのメダル"
    ]
  },
  {
    "name": "ラウンドワン加古川店",
    "operation_time": "",
    "holiday": "",
    "latitude": "34.74708002",
    "longitude": "134.836935",
    "tel": "0794-29-2513",
    "address": "加古川市尾上町安田字小河原325番6号",
    "access": "",
    "games": [
      "モンスター烈伝 オレカバトル2 パンドラのメダル"
    ]
  },
  {
    "name": "モーリーファンタジー苫小牧",
    "operation_time": "",
    "holiday": "",
    "latitude": "42.65642671",
    "longitude": "141.6422502",
    "tel": "070-3100-3912",
    "address": "苫小牧市柳町3-1-20イオン苫小牧2F",
    "access": "",
    "games": [
      "モンスター烈伝 オレカバトル2 パンドラのメダル"
    ]
  },
  {
    "name": "モーリーファンタジー三木",
    "operation_time": "",
    "holiday": "",
    "latitude": "34.80494014",
    "longitude": "134.9724024",
    "tel": "070-3100-3851",
    "address": "三木市大村字砂163イオン3F",
    "access": "",
    "games": [
      "モンスター烈伝 オレカバトル2 パンドラのメダル"
    ]
  },
  {
    "name": "モーリーファンタジー明石",
    "operation_time": "",
    "holiday": "",
    "latitude": "34.67824437",
    "longitude": "134.9346902",
    "tel": "070-3100-3721",
    "address": "明石市大久保町ゆりのき通り3-3-1 イオン明石SC3番街3F",
    "access": "",
    "games": [
      "モンスター烈伝 オレカバトル2 パンドラのメダル"
    ]
  },
  {
    "name": "アミューズメントパークMG徳島店",
    "operation_time": "",
    "holiday": "",
    "latitude": "34.04462413",
    "longitude": "134.5590533",
    "tel": "088-663-6610",
    "address": "徳島市西新浜町1-45マルナカ徳島店内",
    "access": "",
    "games": [
      "モンスター烈伝 オレカバトル2 パンドラのメダル"
    ]
  },
  {
    "name": "モーリーファンタジー徳島",
    "operation_time": "",
    "holiday": "",
    "latitude": "34.06252357",
    "longitude": "134.5733456",
    "tel": "070-3100-4482",
    "address": "徳島市南末広町4-1イオンモール徳島店4F",
    "access": "",
    "games": [
      "モンスター烈伝 オレカバトル2 パンドラのメダル"
    ]
  },
  {
    "name": "モーリーファンタジー神戸北",
    "operation_time": "",
    "holiday": "",
    "latitude": "34.85966297",
    "longitude": "135.1939687",
    "tel": "070-3100-4334",
    "address": "神戸市北区上津台8-1-1イオン神戸北3F",
    "access": "",
    "games": [
      "モンスター烈伝 オレカバトル2 パンドラのメダル"
    ]
  },
  {
    "name": "モーリーファンタジージェームス山",
    "operation_time": "",
    "holiday": "",
    "latitude": "34.64640697",
    "longitude": "135.0753464",
    "tel": "070-3100-3873",
    "address": "神戸市垂水区青山台7-7-1イオンジェームス山1F",
    "access": "",
    "games": [
      "モンスター烈伝 オレカバトル2 パンドラのメダル"
    ]
  },
  {
    "name": "モーリーファンタジー長田南",
    "operation_time": "",
    "holiday": "",
    "latitude": "34.65515427",
    "longitude": "135.1592674",
    "tel": "070-3100-7445",
    "address": "神戸市長田区東尻池新町1-20イオン長田南SC 2F",
    "access": "",
    "games": [
      "モンスター烈伝 オレカバトル2 パンドラのメダル"
    ]
  },
  {
    "name": "ラウンドワン三宮駅前店",
    "operation_time": "",
    "holiday": "",
    "latitude": "34.69403073",
    "longitude": "135.1973402",
    "tel": "078-252-7200",
    "address": "神戸市中央区小野柄通り6-1-17",
    "access": "",
    "games": [
      "モンスター烈伝 オレカバトル2 パンドラのメダル"
    ]
  },
  {
    "name": "モーリーファンタジーかほく",
    "operation_time": "",
    "holiday": "",
    "latitude": "36.70918537",
    "longitude": "136.7009769",
    "tel": "070-3100-4838",
    "address": "かほく市内日角地内タ25イオンかほく2F",
    "access": "",
    "games": [
      "モンスター烈伝 オレカバトル2 パンドラのメダル"
    ]
  },
  {
    "name": "バイパスレジャーランド加賀店",
    "operation_time": "一部24時間営業",
    "holiday": "無し",
    "latitude": "36.32515503",
    "longitude": "136.4113746",
    "tel": "0761-74-8007",
    "address": "加賀市箱宮町ヲ1-1",
    "access": "国道8号線加賀産業道路終点近く",
    "games": [
      "モンスター烈伝 オレカバトル2 パンドラのメダル"
    ]
  },
  {
    "name": "モーリーファンタジー猪名川",
    "operation_time": "",
    "holiday": "",
    "latitude": "34.90161615",
    "longitude": "135.3644052",
    "tel": "070-3100-4677",
    "address": "川辺郡猪名川町白金2-1イオン猪名川3F",
    "access": "",
    "games": [
      "モンスター烈伝 オレカバトル2 パンドラのメダル"
    ]
  },
  {
    "name": "モーリーファンタジー新小松",
    "operation_time": "",
    "holiday": "",
    "latitude": "36.39526691",
    "longitude": "136.467819",
    "tel": "070-3100-4001",
    "address": "小松市清六町315イオンモール新小松3F",
    "access": "",
    "games": [
      "モンスター烈伝 オレカバトル2 パンドラのメダル"
    ]
  },
  {
    "name": "モーリーファンタジー白山",
    "operation_time": "",
    "holiday": "",
    "latitude": "36.54556205",
    "longitude": "136.58365",
    "tel": "070-3100-3751",
    "address": "白山市横江町5001イオンスタイル白山3F",
    "access": "",
    "games": [
      "モンスター烈伝 オレカバトル2 パンドラのメダル"
    ]
  },
  {
    "name": "福井レジャーランド板垣店",
    "operation_time": "",
    "holiday": "",
    "latitude": "36.042283",
    "longitude": "136.233748",
    "tel": "0776-33-5510",
    "address": "福井市下馬3-112",
    "access": "",
    "games": [
      "モンスター烈伝 オレカバトル2 パンドラのメダル"
    ]
  },
  {
    "name": "ラウンドワン金沢店",
    "operation_time": "",
    "holiday": "",
    "latitude": "36.54211559",
    "longitude": "136.626054",
    "tel": "076-245-1850",
    "address": "金沢市横川6-120-1",
    "access": "",
    "games": [
      "モンスター烈伝 オレカバトル2 パンドラのメダル"
    ]
  },
  {
    "name": "モーリーファンタジー西宮",
    "operation_time": "",
    "holiday": "",
    "latitude": "34.75584454",
    "longitude": "135.362187",
    "tel": "070-3100-7462",
    "address": "西宮市林田町2-24イオン2F",
    "access": "",
    "games": [
      "モンスター烈伝 オレカバトル2 パンドラのメダル"
    ]
  },
  {
    "name": "モーリーファンタジー伊丹昆陽",
    "operation_time": "",
    "holiday": "",
    "latitude": "34.78433056",
    "longitude": "135.3830458",
    "tel": "070-3100-3469",
    "address": "伊丹市池尻4-1-1イオン伊丹昆陽3F",
    "access": "",
    "games": [
      "モンスター烈伝 オレカバトル2 パンドラのメダル"
    ]
  },
  {
    "name": "モーリーファンタジー伊丹",
    "operation_time": "",
    "holiday": "",
    "latitude": "34.78267648",
    "longitude": "135.4225716",
    "tel": "070-3100-4719",
    "address": "伊丹市藤ノ木1-1-1イオン伊丹3F",
    "access": "",
    "games": [
      "モンスター烈伝 オレカバトル2 パンドラのメダル"
    ]
  },
  {
    "name": "タイトーステーション尼崎つかしん店",
    "operation_time": "10:00～21:00",
    "holiday": "無し",
    "latitude": "34.761872",
    "longitude": "135.419929",
    "tel": "06-6429-8871",
    "address": "尼崎市塚口本町4-8-1SCつかしん内東町北館3F",
    "access": "・阪急伊丹線「稲野」(阪急神戸線「塚口」駅で乗りかえ)より約300m ・JR宝塚線「猪名寺」駅より約400m",
    "games": [
      "モンスター烈伝 オレカバトル2 パンドラのメダル"
    ]
  },
  {
    "name": "モーリーファンタジーつがる柏",
    "operation_time": "",
    "holiday": "",
    "latitude": "40.801354",
    "longitude": "140.4174747",
    "tel": "070-3100-4049",
    "address": "つがる市柏稲盛幾世41イオンつがる柏1F",
    "access": "",
    "games": [
      "モンスター烈伝 オレカバトル2 パンドラのメダル"
    ]
  },
  {
    "name": "モーリーファンタジー尼崎",
    "operation_time": "",
    "holiday": "",
    "latitude": "34.74153287",
    "longitude": "135.4418949",
    "tel": "070-3100-4442",
    "address": "尼崎市次屋3-13-18イオン尼崎2F",
    "access": "",
    "games": [
      "モンスター烈伝 オレカバトル2 パンドラのメダル"
    ]
  },
  {
    "name": "PALO五所川原",
    "operation_time": "",
    "holiday": "",
    "latitude": "40.80095013",
    "longitude": "140.4614581",
    "tel": "070-3100-5496",
    "address": "五所川原市大字唐笠柳字藤巻641-1",
    "access": "",
    "games": [
      "モンスター烈伝 オレカバトル2 パンドラのメダル"
    ]
  },
  {
    "name": "モーリーファンタジー和歌山",
    "operation_time": "",
    "holiday": "",
    "latitude": "34.27464517",
    "longitude": "135.1492199",
    "tel": "070-3100-3534",
    "address": "和歌山市ふじと台23イオンスタイル和歌山店3F",
    "access": "",
    "games": [
      "モンスター烈伝 オレカバトル2 パンドラのメダル"
    ]
  },
  {
    "name": "Feedy Diner&Arcade茨木店",
    "operation_time": "10:00～23:00",
    "holiday": "無し",
    "latitude": "34.8107727",
    "longitude": "135.5584064",
    "tel": "070-3100-4308",
    "address": "茨木市松ヶ本町8-30-5イオンモール茨木4F",
    "access": "JR茨木駅西徒歩5分 マイカル茨木 4F",
    "games": [
      "モンスター烈伝 オレカバトル2 パンドラのメダル"
    ]
  },
  {
    "name": "モーリーファンタジー野田阪神",
    "operation_time": "",
    "holiday": "",
    "latitude": "34.69519739",
    "longitude": "135.4760355",
    "tel": "070-3100-5287",
    "address": "大阪市福島区海老江1-1-23イオン野田阪神4F",
    "access": "",
    "games": [
      "モンスター烈伝 オレカバトル2 パンドラのメダル"
    ]
  },
  {
    "name": "モーリーファンタジー茨木",
    "operation_time": "",
    "holiday": "",
    "latitude": "34.81042081",
    "longitude": "135.5585518",
    "tel": "070-3100-5205",
    "address": "茨木市松ヶ本町8-30-5イオンモール茨木3F",
    "access": "",
    "games": [
      "モンスター烈伝 オレカバトル2 パンドラのメダル"
    ]
  },
  {
    "name": "モーリーファンタジーりんくう泉南",
    "operation_time": "",
    "holiday": "",
    "latitude": "34.38200202",
    "longitude": "135.2684439",
    "tel": "070-3100-4451",
    "address": "泉南市りんくう南浜3-12イオンりんくう泉南2F",
    "access": "",
    "games": [
      "モンスター烈伝 オレカバトル2 パンドラのメダル"
    ]
  },
  {
    "name": "モーリーファンタジー大阪ドームシティ",
    "operation_time": "",
    "holiday": "",
    "latitude": "34.67081077",
    "longitude": "135.4774563",
    "tel": "070-3100-3476",
    "address": "大阪市西区千代崎3-13-1イオン大阪ドームシティ3F",
    "access": "",
    "games": [
      "モンスター烈伝 オレカバトル2 パンドラのメダル"
    ]
  },
  {
    "name": "namco梅田店",
    "operation_time": "",
    "holiday": "",
    "latitude": "34.70278573",
    "longitude": "135.5003716",
    "tel": "06-6313-0778",
    "address": "大阪市北区小松原町3-3OSビル2F",
    "access": "",
    "games": [
      "モンスター烈伝 オレカバトル2 パンドラのメダル"
    ]
  },
  {
    "name": "ラウンドワン梅田店",
    "operation_time": "",
    "holiday": "",
    "latitude": "34.70337769",
    "longitude": "135.5009178",
    "tel": "06-6312-6800",
    "address": "大阪市北区小松原町4-16",
    "access": "",
    "games": [
      "モンスター烈伝 オレカバトル2 パンドラのメダル"
    ]
  },
  {
    "name": "モーリーファンタジーとなみ",
    "operation_time": "",
    "holiday": "",
    "latitude": "36.6412349",
    "longitude": "136.9464871",
    "tel": "070-3100-5171",
    "address": "砺波市中神1-174イオンモールとなみ店2F",
    "access": "",
    "games": [
      "モンスター烈伝 オレカバトル2 パンドラのメダル"
    ]
  },
  {
    "name": "モーリーファンタジー高岡南",
    "operation_time": "",
    "holiday": "",
    "latitude": "36.72382397",
    "longitude": "137.018418",
    "tel": "070-3100-3408",
    "address": "高岡市下伏間江383イオン高岡南2F",
    "access": "",
    "games": [
      "モンスター烈伝 オレカバトル2 パンドラのメダル"
    ]
  },
  {
    "name": "モーリーファンタジー京都五条",
    "operation_time": "",
    "holiday": "",
    "latitude": "34.99812228",
    "longitude": "135.7276896",
    "tel": "070-3100-4705",
    "address": "京都市右京区西院追分町25-1イオン2F",
    "access": "",
    "games": [
      "モンスター烈伝 オレカバトル2 パンドラのメダル"
    ]
  },
  {
    "name": "サープラ京都あそびタウン",
    "operation_time": "",
    "holiday": "",
    "latitude": "35.01029561",
    "longitude": "135.741185",
    "tel": "075-813-2150",
    "address": "京都市中京区西ノ京栂尾町107BiVi二条内2F",
    "access": "",
    "games": [
      "モンスター烈伝 オレカバトル2 パンドラのメダル"
    ]
  },
  {
    "name": "モーリーファンタジー京都桂川",
    "operation_time": "",
    "holiday": "",
    "latitude": "34.96402678",
    "longitude": "135.7093088",
    "tel": "070-3100-3554",
    "address": "京都市南区久世高田町376-1イオン京都桂川3F",
    "access": "",
    "games": [
      "モンスター烈伝 オレカバトル2 パンドラのメダル"
    ]
  },
  {
    "name": "ラウンドワン千日前店",
    "operation_time": "",
    "holiday": "",
    "latitude": "34.667424",
    "longitude": "135.5026714",
    "tel": "06-4708-2600",
    "address": "大阪市中央区難波1-3-1",
    "access": "",
    "games": [
      "モンスター烈伝 オレカバトル2 パンドラのメダル"
    ]
  },
  {
    "name": "モーリーファンタジー高槻",
    "operation_time": "",
    "holiday": "",
    "latitude": "34.85883647",
    "longitude": "135.6434667",
    "tel": "070-3100-5331",
    "address": "高槻市萩之庄3-47-2イオン高槻店3F",
    "access": "",
    "games": [
      "モンスター烈伝 オレカバトル2 パンドラのメダル"
    ]
  },
  {
    "name": "ラウンドワン高槻店",
    "operation_time": "",
    "holiday": "",
    "latitude": "34.83266921",
    "longitude": "135.6301782",
    "tel": "072-672-9933",
    "address": "高槻市辻子3-6-4",
    "access": "",
    "games": [
      "モンスター烈伝 オレカバトル2 パンドラのメダル"
    ]
  },
  {
    "name": "モーリーファンタジー洛南",
    "operation_time": "",
    "holiday": "",
    "latitude": "34.97505179",
    "longitude": "135.7359864",
    "tel": "070-3100-4703",
    "address": "京都市南区吉祥院御池町31イオン2F",
    "access": "",
    "games": [
      "モンスター烈伝 オレカバトル2 パンドラのメダル"
    ]
  },
  {
    "name": "ラウンドワン和歌山店",
    "operation_time": "",
    "holiday": "",
    "latitude": "34.19849168",
    "longitude": "135.1859428",
    "tel": "073-421-8210",
    "address": "和歌山市小雑賀739-3",
    "access": "",
    "games": [
      "モンスター烈伝 オレカバトル2 パンドラのメダル"
    ]
  },
  {
    "name": "モーリーファンタジー大日",
    "operation_time": "",
    "holiday": "",
    "latitude": "34.74859856",
    "longitude": "135.5803459",
    "tel": "070-3100-4359",
    "address": "守口市大日東町1-18イオン大日2F",
    "access": "",
    "games": [
      "モンスター烈伝 オレカバトル2 パンドラのメダル"
    ]
  },
  {
    "name": "ラウンドワン京都河原町店",
    "operation_time": "",
    "holiday": "",
    "latitude": "35.00699573",
    "longitude": "135.7685149",
    "tel": "075-213-8400",
    "address": "京都市中京区河原町通り三条下ル山崎町250",
    "access": "",
    "games": [
      "モンスター烈伝 オレカバトル2 パンドラのメダル"
    ]
  },
  {
    "name": "ラウンドワン守口店",
    "operation_time": "",
    "holiday": "",
    "latitude": "34.7562488",
    "longitude": "135.5886793",
    "tel": "06-6907-9270",
    "address": "守口市佐太東町2-6-14ジャガーグリーン2F",
    "access": "",
    "games": [
      "モンスター烈伝 オレカバトル2 パンドラのメダル"
    ]
  },
  {
    "name": "GiGOあべのアポロ",
    "operation_time": "10:00～24:00",
    "holiday": "",
    "latitude": "34.646623",
    "longitude": "135.511677",
    "tel": "06-6647-0716",
    "address": "大阪市阿倍野区阿倍野筋1-5-31アポロビル3F･4F",
    "access": "JR 天王寺駅・近鉄あべの橋駅より徒歩3分 アポロビル 3F",
    "games": [
      "モンスター烈伝 オレカバトル2 パンドラのメダル"
    ]
  },
  {
    "name": "モーリーファンタジー堺鉄砲町",
    "operation_time": "",
    "holiday": "",
    "latitude": "34.59438944",
    "longitude": "135.4796051",
    "tel": "070-3100-5437",
    "address": "堺市堺区鉄砲町1-1イオンスタイル堺鉄砲町3F",
    "access": "",
    "games": [
      "モンスター烈伝 オレカバトル2 パンドラのメダル"
    ]
  },
  {
    "name": "ラウンドワン城東放出店",
    "operation_time": "",
    "holiday": "",
    "latitude": "34.69651235",
    "longitude": "135.559648",
    "tel": "06-6936-0100",
    "address": "大阪市城東区今福南3-4-38",
    "access": "",
    "games": [
      "モンスター烈伝 オレカバトル2 パンドラのメダル"
    ]
  },
  {
    "name": "モーリーファンタジー鶴見緑地",
    "operation_time": "",
    "holiday": "",
    "latitude": "34.70498165",
    "longitude": "135.5674519",
    "tel": "070-3100-4373",
    "address": "大阪市鶴見区鶴見4-17-1イオン鶴見緑地3F",
    "access": "",
    "games": [
      "モンスター烈伝 オレカバトル2 パンドラのメダル"
    ]
  },
  {
    "name": "モーリーファンタジーそよら古川橋",
    "operation_time": "",
    "holiday": "",
    "latitude": "34.73894149",
    "longitude": "135.5917023",
    "tel": "080-4886-3258",
    "address": "門真市末広町41-2そよら古川橋駅前店3F",
    "access": "",
    "games": [
      "モンスター烈伝 オレカバトル2 パンドラのメダル"
    ]
  },
  {
    "name": "モーリーファンタジー和泉府中",
    "operation_time": "",
    "holiday": "",
    "latitude": "34.48583526",
    "longitude": "135.4206984",
    "tel": "070-3100-4285",
    "address": "和泉市肥子町2-2-1イオン和泉府中4F",
    "access": "",
    "games": [
      "モンスター烈伝 オレカバトル2 パンドラのメダル"
    ]
  },
  {
    "name": "ラウンドワン京都伏見店",
    "operation_time": "",
    "holiday": "",
    "latitude": "34.93599659",
    "longitude": "135.746198",
    "tel": "075-622-9911",
    "address": "京都市伏見区下鳥羽平塚町131",
    "access": "",
    "games": [
      "モンスター烈伝 オレカバトル2 パンドラのメダル"
    ]
  },
  {
    "name": "モーリーファンタジー藤崎",
    "operation_time": "",
    "holiday": "",
    "latitude": "40.65677611",
    "longitude": "140.5021549",
    "tel": "070-3100-4931",
    "address": "南津軽郡藤崎町大字西豊田1-7-1イオン2F",
    "access": "",
    "games": [
      "モンスター烈伝 オレカバトル2 パンドラのメダル"
    ]
  },
  {
    "name": "ハローズガーデン鳳",
    "operation_time": "",
    "holiday": "",
    "latitude": "34.52461446",
    "longitude": "135.4594032",
    "tel": "080-4726-5485",
    "address": "堺市西区鳳南町3-199-12アリオ鳳店3F",
    "access": "",
    "games": [
      "モンスター烈伝 オレカバトル2 パンドラのメダル"
    ]
  },
  {
    "name": "モーリーファンタジー四條畷",
    "operation_time": "",
    "holiday": "",
    "latitude": "34.74605876",
    "longitude": "135.6292884",
    "tel": "070-3100-3523",
    "address": "四條畷市砂4-3-2イオンスタイル四條畷3F",
    "access": "",
    "games": [
      "モンスター烈伝 オレカバトル2 パンドラのメダル"
    ]
  },
  {
    "name": "モーリーファンタジー堺北花田",
    "operation_time": "",
    "holiday": "",
    "latitude": "34.58447354",
    "longitude": "135.5147176",
    "tel": "070-3100-4399",
    "address": "堺市北区東浅香山町4-1-12イオン堺北花田2F",
    "access": "",
    "games": [
      "モンスター烈伝 オレカバトル2 パンドラのメダル"
    ]
  },
  {
    "name": "モーリーファンタジー久御山",
    "operation_time": "",
    "holiday": "",
    "latitude": "34.89347577",
    "longitude": "135.745653",
    "tel": "070-3100-4683",
    "address": "久世郡久御山町森南大内156-1イオン久御山2F",
    "access": "",
    "games": [
      "モンスター烈伝 オレカバトル2 パンドラのメダル"
    ]
  },
  {
    "name": "モーリーファンタジー喜連瓜破駅前",
    "operation_time": "",
    "holiday": "",
    "latitude": "34.60829987",
    "longitude": "135.5518817",
    "tel": "070-3100-4459",
    "address": "大阪市平野区瓜破2-1-13イオン喜連瓜破駅前3F",
    "access": "",
    "games": [
      "モンスター烈伝 オレカバトル2 パンドラのメダル"
    ]
  },
  {
    "name": "ラウンドワンららぽーと和泉店",
    "operation_time": "",
    "holiday": "",
    "latitude": "34.435599",
    "longitude": "135.447876",
    "tel": "0725-51-2100",
    "address": "和泉市あゆみ野4-4-7ららぽーと和泉店 4F 42100",
    "access": "",
    "games": [
      "モンスター烈伝 オレカバトル2 パンドラのメダル"
    ]
  },
  {
    "name": "ラウンドワン堺中央環状店",
    "operation_time": "",
    "holiday": "",
    "latitude": "34.55707895",
    "longitude": "135.5362412",
    "tel": "072-253-9559",
    "address": "堺市東区石原町2-241",
    "access": "",
    "games": [
      "モンスター烈伝 オレカバトル2 パンドラのメダル"
    ]
  },
  {
    "name": "ラウンドワン浜大津アーカス店",
    "operation_time": "",
    "holiday": "",
    "latitude": "35.010557",
    "longitude": "135.866804",
    "tel": "077-526-8722",
    "address": "大津市浜町2-1浜大津アーカス4F",
    "access": "",
    "games": [
      "モンスター烈伝 オレカバトル2 パンドラのメダル"
    ]
  },
  {
    "name": "ラウンドワン青森店",
    "operation_time": "",
    "holiday": "",
    "latitude": "40.79867718",
    "longitude": "140.7483213",
    "tel": "017-762-3591",
    "address": "青森市浜田3-1-1",
    "access": "",
    "games": [
      "モンスター烈伝 オレカバトル2 パンドラのメダル"
    ]
  },
  {
    "name": "モーリーファンタジー平賀",
    "operation_time": "",
    "holiday": "",
    "latitude": "40.59061729",
    "longitude": "140.5676749",
    "tel": "070-3100-4516",
    "address": "平川市小和森上松岡193-1イオンタウン1F",
    "access": "",
    "games": [
      "モンスター烈伝 オレカバトル2 パンドラのメダル"
    ]
  },
  {
    "name": "モーリーファンタジー草津",
    "operation_time": "",
    "holiday": "",
    "latitude": "34.99827028",
    "longitude": "135.9109637",
    "tel": "070-3100-4818",
    "address": "草津市新浜町300イオン草津3F",
    "access": "",
    "games": [
      "モンスター烈伝 オレカバトル2 パンドラのメダル"
    ]
  },
  {
    "name": "モーリーファンタジー金剛東",
    "operation_time": "",
    "holiday": "",
    "latitude": "34.50136947",
    "longitude": "135.5798926",
    "tel": "070-3100-5298",
    "address": "富田林市向陽台3-1-1イオン4F",
    "access": "",
    "games": [
      "モンスター烈伝 オレカバトル2 パンドラのメダル"
    ]
  },
  {
    "name": "モーリーファンタジー登美ヶ丘",
    "operation_time": "",
    "holiday": "",
    "latitude": "34.72582111",
    "longitude": "135.7504727",
    "tel": "070-3100-4391",
    "address": "生駒市鹿畑町3027イオン2F",
    "access": "",
    "games": [
      "モンスター烈伝 オレカバトル2 パンドラのメダル"
    ]
  },
  {
    "name": "モーリーファンタジー大津一里山",
    "operation_time": "",
    "holiday": "",
    "latitude": "34.97423887",
    "longitude": "135.9332682",
    "tel": "070-3100-6134",
    "address": "大津市一里山7-1-1フォレオ大津一里山店2F",
    "access": "",
    "games": [
      "モンスター烈伝 オレカバトル2 パンドラのメダル"
    ]
  },
  {
    "name": "モーリーファンタジー高の原",
    "operation_time": "",
    "holiday": "",
    "latitude": "34.72516622",
    "longitude": "135.7906965",
    "tel": "070-3100-4360",
    "address": "木津川市相楽台1-1-1イオン高の原4F",
    "access": "",
    "games": [
      "モンスター烈伝 オレカバトル2 パンドラのメダル"
    ]
  },
  {
    "name": "モーリーファンタジー長浜",
    "operation_time": "",
    "holiday": "",
    "latitude": "35.39730763",
    "longitude": "136.2902293",
    "tel": "070-3100-4691",
    "address": "長浜市山階町271-1イオン長浜2F",
    "access": "",
    "games": [
      "モンスター烈伝 オレカバトル2 パンドラのメダル"
    ]
  },
  {
    "name": "モーリーファンタジーイオン近江八幡",
    "operation_time": "",
    "holiday": "",
    "latitude": "35.1218197",
    "longitude": "136.1028209",
    "tel": "070-3100-4287",
    "address": "近江八幡市鷹飼町南3-7イオン近江八幡3F",
    "access": "",
    "games": [
      "モンスター烈伝 オレカバトル2 パンドラのメダル"
    ]
  },
  {
    "name": "ラウンドワン奈良ミナーラ店",
    "operation_time": "",
    "holiday": "",
    "latitude": "34.685231",
    "longitude": "135.802224",
    "tel": "0742-32-3900",
    "address": "奈良市二条大路南1-3-1ミ･ナーラ5F",
    "access": "",
    "games": [
      "モンスター烈伝 オレカバトル2 パンドラのメダル"
    ]
  },
  {
    "name": "モーリーファンタジー大和郡山",
    "operation_time": "",
    "holiday": "",
    "latitude": "34.65102237",
    "longitude": "135.8022638",
    "tel": "070-3100-3556",
    "address": "大和郡山市下三橋町741イオン大和郡山3F",
    "access": "",
    "games": [
      "モンスター烈伝 オレカバトル2 パンドラのメダル"
    ]
  },
  {
    "name": "モーリーファンタジー橿原",
    "operation_time": "",
    "holiday": "",
    "latitude": "34.50649943",
    "longitude": "135.7642278",
    "tel": "070-3100-4745",
    "address": "橿原市曲川町7-20-1イオン橿原2F",
    "access": "",
    "games": [
      "モンスター烈伝 オレカバトル2 パンドラのメダル"
    ]
  },
  {
    "name": "モーリーファンタジー大館",
    "operation_time": "",
    "holiday": "",
    "latitude": "40.28593829",
    "longitude": "140.5761054",
    "tel": "070-3100-7392",
    "address": "大館市大田面238スーパーセンター大館1F",
    "access": "",
    "games": [
      "モンスター烈伝 オレカバトル2 パンドラのメダル"
    ]
  },
  {
    "name": "モーリーファンタジー秋田中央",
    "operation_time": "",
    "holiday": "",
    "latitude": "39.70352862",
    "longitude": "140.1100055",
    "tel": "070-3100-5376",
    "address": "秋田市楢山川口境5-11イオン秋田中央3F",
    "access": "",
    "games": [
      "モンスター烈伝 オレカバトル2 パンドラのメダル"
    ]
  },
  {
    "name": "ラウンドワン秋田店",
    "operation_time": "",
    "holiday": "",
    "latitude": "39.70235247",
    "longitude": "140.1092394",
    "tel": "018-896-6711",
    "address": "秋田市卸町1-1-2",
    "access": "",
    "games": [
      "モンスター烈伝 オレカバトル2 パンドラのメダル"
    ]
  },
  {
    "name": "モーリーファンタジー御所野",
    "operation_time": "",
    "holiday": "",
    "latitude": "39.66284757",
    "longitude": "140.1623082",
    "tel": "070-3100-5448",
    "address": "秋田市御所野地蔵田1-1-1イオン3F",
    "access": "",
    "games": [
      "モンスター烈伝 オレカバトル2 パンドラのメダル"
    ]
  },
  {
    "name": "ラウンドワンモレラ岐阜店",
    "operation_time": "",
    "holiday": "",
    "latitude": "35.455121",
    "longitude": "136.672955",
    "tel": "058-323-6600",
    "address": "本巣市三橋1100",
    "access": "",
    "games": [
      "モンスター烈伝 オレカバトル2 パンドラのメダル"
    ]
  },
  {
    "name": "モーリーファンタジー大垣",
    "operation_time": "",
    "holiday": "",
    "latitude": "35.33646187",
    "longitude": "136.6122534",
    "tel": "070-3100-4844",
    "address": "大垣市外野2-100イオン2F",
    "access": "",
    "games": [
      "モンスター烈伝 オレカバトル2 パンドラのメダル"
    ]
  },
  {
    "name": "ルビットランド高山",
    "operation_time": "",
    "holiday": "",
    "latitude": "36.14955986",
    "longitude": "137.2470217",
    "tel": "0577-35-1750",
    "address": "高山市岡本町3-18-2ルビットタウン2F",
    "access": "",
    "games": [
      "モンスター烈伝 オレカバトル2 パンドラのメダル"
    ]
  },
  {
    "name": "モーリーファンタジーf岐阜",
    "operation_time": "10:00～22:00",
    "holiday": "無し",
    "latitude": "35.44803841",
    "longitude": "136.7447554",
    "tel": "070-3100-3566",
    "address": "岐阜市正木中1-2-1マーサ21 北館3F",
    "access": "ジャスコ岐阜店北側3階",
    "games": [
      "モンスター烈伝 オレカバトル2 パンドラのメダル"
    ]
  },
  {
    "name": "モーリーファンタジー十和田",
    "operation_time": "",
    "holiday": "",
    "latitude": "40.60389303",
    "longitude": "141.2573891",
    "tel": "070-3100-7351",
    "address": "十和田市大字相坂字六日町山166-1 SuC1F",
    "access": "",
    "games": [
      "モンスター烈伝 オレカバトル2 パンドラのメダル"
    ]
  },
  {
    "name": "モーリーファンタジー木曽川",
    "operation_time": "",
    "holiday": "",
    "latitude": "35.34833722",
    "longitude": "136.7738124",
    "tel": "070-3100-4804",
    "address": "一宮市木曽川町黒田字南八ツヶ池25-1 イオン木曽川2F",
    "access": "",
    "games": [
      "モンスター烈伝 オレカバトル2 パンドラのメダル"
    ]
  },
  {
    "name": "ゲームパークMECHA菰野店",
    "operation_time": "10:00～21:00",
    "holiday": "",
    "latitude": "35.006202",
    "longitude": "136.528945",
    "tel": "059-329-5031",
    "address": "三重郡菰野町大字宿野字神明田357イオンタウン菰野内",
    "access": "",
    "games": [
      "モンスター烈伝 オレカバトル2 パンドラのメダル"
    ]
  },
  {
    "name": "モーリーファンタジー各務原インター",
    "operation_time": "",
    "holiday": "",
    "latitude": "35.39128747",
    "longitude": "136.8243996",
    "tel": "070-3100-4853",
    "address": "各務原市那加萱場町3-8イオンスタイル各務原インター3F",
    "access": "",
    "games": [
      "モンスター烈伝 オレカバトル2 パンドラのメダル"
    ]
  },
  {
    "name": "モーリーファンタジー東員",
    "operation_time": "",
    "holiday": "",
    "latitude": "35.06272795",
    "longitude": "136.5798696",
    "tel": "070-3100-5191",
    "address": "員弁郡東員町長深字築田510-1",
    "access": "",
    "games": [
      "モンスター烈伝 オレカバトル2 パンドラのメダル"
    ]
  },
  {
    "name": "モーリーファンタジー関",
    "operation_time": "",
    "holiday": "",
    "latitude": "35.47727304",
    "longitude": "136.8995123",
    "tel": "070-3100-3569",
    "address": "関市倉知516 サンサンシティマーゴ イオン1F",
    "access": "",
    "games": [
      "モンスター烈伝 オレカバトル2 パンドラのメダル"
    ]
  },
  {
    "name": "モーリーファンタジー上越",
    "operation_time": "",
    "holiday": "",
    "latitude": "37.15215512",
    "longitude": "138.2590004",
    "tel": "070-3100-4865",
    "address": "上越市富岡3458イオン上越2F",
    "access": "",
    "games": [
      "モンスター烈伝 オレカバトル2 パンドラのメダル"
    ]
  },
  {
    "name": "モーリーファンタジー桑名",
    "operation_time": "",
    "holiday": "",
    "latitude": "35.07265543",
    "longitude": "136.6618805",
    "tel": "070-3100-5163",
    "address": "桑名市新西方1-22イオンモール桑名1番街3F",
    "access": "",
    "games": [
      "モンスター烈伝 オレカバトル2 パンドラのメダル"
    ]
  },
  {
    "name": "モーリーファンタジーイオン鈴鹿",
    "operation_time": "",
    "holiday": "",
    "latitude": "34.87067247",
    "longitude": "136.532133",
    "tel": "070-3100-3608",
    "address": "鈴鹿市庄野羽山4-1-2イオン鈴鹿2F",
    "access": "",
    "games": [
      "モンスター烈伝 オレカバトル2 パンドラのメダル"
    ]
  },
  {
    "name": "モーリーファンタジー扶桑",
    "operation_time": "",
    "holiday": "",
    "latitude": "35.36140272",
    "longitude": "136.9013273",
    "tel": "070-3100-4780",
    "address": "丹羽郡扶桑町大字南山名字高塚5-1イオン扶桑2F",
    "access": "",
    "games": [
      "モンスター烈伝 オレカバトル2 パンドラのメダル"
    ]
  },
  {
    "name": "モーリーファンタジー下田",
    "operation_time": "",
    "holiday": "",
    "latitude": "40.60191503",
    "longitude": "141.419914",
    "tel": "070-3100-4970",
    "address": "上北郡おいらせ町中野平40-1イオン下田2F",
    "access": "",
    "games": [
      "モンスター烈伝 オレカバトル2 パンドラのメダル"
    ]
  },
  {
    "name": "NICOPA四日市北店",
    "operation_time": "",
    "holiday": "",
    "latitude": "35.00752201",
    "longitude": "136.6579855",
    "tel": "059-337-8009",
    "address": "四日市市富州原町2-40イオンモール四日市北店2F",
    "access": "",
    "games": [
      "モンスター烈伝 オレカバトル2 パンドラのメダル"
    ]
  },
  {
    "name": "モーリーファンタジー新潟青山",
    "operation_time": "",
    "holiday": "",
    "latitude": "37.89634291",
    "longitude": "139.0049981",
    "tel": "070-3100-4249",
    "address": "新潟市西区青山2-5-1イオン2F",
    "access": "",
    "games": [
      "モンスター烈伝 オレカバトル2 パンドラのメダル"
    ]
  },
  {
    "name": "モーリーファンタジーワンダーシティ",
    "operation_time": "",
    "holiday": "",
    "latitude": "35.22607991",
    "longitude": "136.8847022",
    "tel": "070-3100-4817",
    "address": "名古屋市西区二方町40イオンスタイルワンダーシティ3F",
    "access": "",
    "games": [
      "モンスター烈伝 オレカバトル2 パンドラのメダル"
    ]
  },
  {
    "name": "ラウンドワン新潟店",
    "operation_time": "",
    "holiday": "",
    "latitude": "37.88807436",
    "longitude": "139.0177537",
    "tel": "025-280-1322",
    "address": "新潟市中央区美咲町2-1-38",
    "access": "",
    "games": [
      "モンスター烈伝 オレカバトル2 パンドラのメダル"
    ]
  },
  {
    "name": "モーリーファンタジー津城山",
    "operation_time": "",
    "holiday": "",
    "latitude": "34.67940193",
    "longitude": "136.5016054",
    "tel": "070-3100-5211",
    "address": "津市久居小野辺町1130-7イオンタウン津城山2F",
    "access": "",
    "games": [
      "モンスター烈伝 オレカバトル2 パンドラのメダル"
    ]
  },
  {
    "name": "モーリーファンタジー名古屋茶屋",
    "operation_time": "",
    "holiday": "",
    "latitude": "35.10361586",
    "longitude": "136.8248356",
    "tel": "070-3100-5192",
    "address": "名古屋市港区西茶屋2-11イオンモール名古屋茶屋",
    "access": "",
    "games": [
      "モンスター烈伝 オレカバトル2 パンドラのメダル"
    ]
  },
  {
    "name": "モーリーファンタジーイオンモール津南",
    "operation_time": "",
    "holiday": "",
    "latitude": "34.67174682",
    "longitude": "136.5174895",
    "tel": "070-3100-4616",
    "address": "津市高茶屋小森町145イオンモール津南3F",
    "access": "",
    "games": [
      "モンスター烈伝 オレカバトル2 パンドラのメダル"
    ]
  },
  {
    "name": "PALOイオンモール津南",
    "operation_time": "",
    "holiday": "",
    "latitude": "34.66964307",
    "longitude": "136.5178517",
    "tel": "070-3100-4636",
    "address": "津市高茶屋小森町145イオンモール津南3F",
    "access": "",
    "games": [
      "モンスター烈伝 オレカバトル2 パンドラのメダル"
    ]
  },
  {
    "name": "ラウンドワン中川一号線店",
    "operation_time": "",
    "holiday": "",
    "latitude": "35.12338322",
    "longitude": "136.8636484",
    "tel": "052-665-5353",
    "address": "名古屋市中川区法蔵町2-23",
    "access": "",
    "games": [
      "モンスター烈伝 オレカバトル2 パンドラのメダル"
    ]
  },
  {
    "name": "モーリーファンタジー新潟東",
    "operation_time": "",
    "holiday": "",
    "latitude": "37.92499567",
    "longitude": "139.1146911",
    "tel": "070-3100-4859",
    "address": "新潟市東区大形本町3-1-2イオン新潟東店3F",
    "access": "",
    "games": [
      "モンスター烈伝 オレカバトル2 パンドラのメダル"
    ]
  },
  {
    "name": "キングジョイ",
    "operation_time": "9:00～24:00",
    "holiday": "無し",
    "latitude": "35.16797694",
    "longitude": "136.9050444",
    "tel": "052-241-9515",
    "address": "名古屋市中区栄3-3-32",
    "access": "地下鉄栄駅徒歩3分",
    "games": [
      "モンスター烈伝 オレカバトル2 パンドラのメダル"
    ]
  },
  {
    "name": "モーリーファンタジー春日井",
    "operation_time": "",
    "holiday": "",
    "latitude": "35.23809551",
    "longitude": "136.9624585",
    "tel": "070-3100-3749",
    "address": "春日井市柏井町4-17イオン春日井店4F",
    "access": "",
    "games": [
      "モンスター烈伝 オレカバトル2 パンドラのメダル"
    ]
  },
  {
    "name": "モーリーファンタジー新潟亀田インター",
    "operation_time": "",
    "holiday": "",
    "latitude": "37.8760151",
    "longitude": "139.0804745",
    "tel": "070-3100-4575",
    "address": "新潟市江南区下早通柳田1-1-1イオンモール新潟亀田インター3F",
    "access": "",
    "games": [
      "モンスター烈伝 オレカバトル2 パンドラのメダル"
    ]
  },
  {
    "name": "モーリーファンタジーf新潟亀田インター",
    "operation_time": "9:00～22:00",
    "holiday": "無し",
    "latitude": "37.87624975",
    "longitude": "139.0816577",
    "tel": "070-3100-4212",
    "address": "新潟市江南区下早通柳田1-1-1イオンモール新潟亀田インター2F",
    "access": "新潟亀田ICから約5分。 JR新潟駅から約4キロ、JR亀田駅から約2.5キロ",
    "games": [
      "モンスター烈伝 オレカバトル2 パンドラのメダル"
    ]
  },
  {
    "name": "ラウンドワンイーアス春日井店",
    "operation_time": "",
    "holiday": "",
    "latitude": "35.25898",
    "longitude": "136.98241",
    "tel": "0568-86-1600",
    "address": "春日井市六軒屋町東丘22区画番号3010",
    "access": "",
    "games": [
      "モンスター烈伝 オレカバトル2 パンドラのメダル"
    ]
  },
  {
    "name": "ラウンドワン千種店",
    "operation_time": "",
    "holiday": "",
    "latitude": "35.16799971",
    "longitude": "136.9279985",
    "tel": "052-238-1615",
    "address": "名古屋市千種区新栄3-20-17タイホウ千種駅前南ビル8F",
    "access": "",
    "games": [
      "モンスター烈伝 オレカバトル2 パンドラのメダル"
    ]
  },
  {
    "name": "モーリーファンタジーナゴヤドーム前",
    "operation_time": "",
    "holiday": "",
    "latitude": "35.18714",
    "longitude": "136.9440943",
    "tel": "070-3100-4753",
    "address": "名古屋市東区矢田南4-102-3イオン名古屋ドーム前3F",
    "access": "",
    "games": [
      "モンスター烈伝 オレカバトル2 パンドラのメダル"
    ]
  },
  {
    "name": "モーリーファンタジー熱田",
    "operation_time": "",
    "holiday": "",
    "latitude": "35.1361358",
    "longitude": "136.9098015",
    "tel": "070-3100-3398",
    "address": "名古屋市熱田区六野1-2-11イオン熱田2F",
    "access": "",
    "games": [
      "モンスター烈伝 オレカバトル2 パンドラのメダル"
    ]
  },
  {
    "name": "モーリーファンタジー八戸田向",
    "operation_time": "",
    "holiday": "",
    "latitude": "40.49220148",
    "longitude": "141.5096867",
    "tel": "070-3100-4279",
    "address": "八戸市大字田向3-5-1イオン八戸田向1F",
    "access": "",
    "games": [
      "モンスター烈伝 オレカバトル2 パンドラのメダル"
    ]
  },
  {
    "name": "モーリーファンタジー大曲",
    "operation_time": "",
    "holiday": "",
    "latitude": "39.43768663",
    "longitude": "140.5092806",
    "tel": "070-3100-4589",
    "address": "大仙市和合字坪立177イオン大曲2F",
    "access": "",
    "games": [
      "モンスター烈伝 オレカバトル2 パンドラのメダル"
    ]
  },
  {
    "name": "モーリーファンタジー守山",
    "operation_time": "",
    "holiday": "",
    "latitude": "35.23476261",
    "longitude": "137.004048",
    "tel": "070-3100-3358",
    "address": "名古屋市守山区笹ヶ根3-1228イオン2F",
    "access": "",
    "games": [
      "モンスター烈伝 オレカバトル2 パンドラのメダル"
    ]
  },
  {
    "name": "モーリーファンタジー名古屋東",
    "operation_time": "",
    "holiday": "",
    "latitude": "35.19540124",
    "longitude": "136.9937419",
    "tel": "070-3100-4640",
    "address": "名古屋市名東区猪子石原2-1701イオン名古屋東店1F",
    "access": "",
    "games": [
      "モンスター烈伝 オレカバトル2 パンドラのメダル"
    ]
  },
  {
    "name": "モーリーファンタジーf新瑞橋",
    "operation_time": "",
    "holiday": "",
    "latitude": "35.114661",
    "longitude": "136.935117",
    "tel": "070-3100-5209",
    "address": "名古屋市南区菊住1-7-10イオン新瑞橋3F",
    "access": "",
    "games": [
      "モンスター烈伝 オレカバトル2 パンドラのメダル"
    ]
  },
  {
    "name": "ハローズガーデン長岡",
    "operation_time": "",
    "holiday": "",
    "latitude": "37.46092761",
    "longitude": "138.826927",
    "tel": "070-3317-3501",
    "address": "長岡市千秋2-278アピタ長岡店2F",
    "access": "",
    "games": [
      "モンスター烈伝 オレカバトル2 パンドラのメダル"
    ]
  },
  {
    "name": "ラウンドワン鳴海店",
    "operation_time": "",
    "holiday": "",
    "latitude": "35.09913151",
    "longitude": "136.9528735",
    "tel": "052-899-0700",
    "address": "名古屋市緑区鳴海町字杜若28",
    "access": "",
    "games": [
      "モンスター烈伝 オレカバトル2 パンドラのメダル"
    ]
  },
  {
    "name": "モーリーファンタジー大高",
    "operation_time": "",
    "holiday": "",
    "latitude": "35.05306849",
    "longitude": "136.9472617",
    "tel": "070-3100-4858",
    "address": "名古屋市緑区大高町字奥平子1-1イオン大高3F",
    "access": "",
    "games": [
      "モンスター烈伝 オレカバトル2 パンドラのメダル"
    ]
  },
  {
    "name": "ゲームパニック大高",
    "operation_time": "9:00～23:45",
    "holiday": "無し",
    "latitude": "35.04850561",
    "longitude": "136.9496236",
    "tel": "052-625-5360",
    "address": "名古屋市緑区忠治山201グランドボウルB2F",
    "access": "国道23号線大高町共和IC側道グランドボウルB2階",
    "games": [
      "モンスター烈伝 オレカバトル2 パンドラのメダル"
    ]
  },
  {
    "name": "モーリーファンタジー常滑",
    "operation_time": "",
    "holiday": "",
    "latitude": "34.88212707",
    "longitude": "136.8263526",
    "tel": "070-3100-5183",
    "address": "常滑市りんくう町2-20-3イオンスタイル2F",
    "access": "",
    "games": [
      "モンスター烈伝 オレカバトル2 パンドラのメダル"
    ]
  },
  {
    "name": "モーリーファンタジー長久手",
    "operation_time": "",
    "holiday": "",
    "latitude": "35.17313484",
    "longitude": "137.0498756",
    "tel": "070-3100-5109",
    "address": "長久手市勝入塚501イオンスタイル長久手3F",
    "access": "",
    "games": [
      "モンスター烈伝 オレカバトル2 パンドラのメダル"
    ]
  },
  {
    "name": "モーリーファンタジー新宮",
    "operation_time": "",
    "holiday": "",
    "latitude": "33.7143407",
    "longitude": "135.9903519",
    "tel": "070-3100-4726",
    "address": "新宮市橋本2-14-23イオン2F",
    "access": "",
    "games": [
      "モンスター烈伝 オレカバトル2 パンドラのメダル"
    ]
  },
  {
    "name": "モーリーファンタジー釧路昭和",
    "operation_time": "",
    "holiday": "",
    "latitude": "43.02661024",
    "longitude": "144.3598856",
    "tel": "070-3100-3643",
    "address": "釧路市昭和中央4-18-1イオン釧路昭和店2F",
    "access": "",
    "games": [
      "モンスター烈伝 オレカバトル2 パンドラのメダル"
    ]
  },
  {
    "name": "ラウンドワン長野店",
    "operation_time": "",
    "holiday": "",
    "latitude": "36.65105714",
    "longitude": "138.225192",
    "tel": "026-254-5801",
    "address": "長野市大字東和田827-6",
    "access": "",
    "games": [
      "モンスター烈伝 オレカバトル2 パンドラのメダル"
    ]
  },
  {
    "name": "モーリーファンタジー新発田",
    "operation_time": "",
    "holiday": "",
    "latitude": "37.94289371",
    "longitude": "139.3106655",
    "tel": "070-1596-6669",
    "address": "新発田市住吉町5-11-5イオン2F",
    "access": "",
    "games": [
      "モンスター烈伝 オレカバトル2 パンドラのメダル"
    ]
  },
  {
    "name": "モーリーファンタジー東浦",
    "operation_time": "",
    "holiday": "",
    "latitude": "34.98009178",
    "longitude": "136.9749451",
    "tel": "070-3100-3341",
    "address": "知多郡東浦町大字緒川字旭13-2イオン東浦1F",
    "access": "",
    "games": [
      "モンスター烈伝 オレカバトル2 パンドラのメダル"
    ]
  },
  {
    "name": "PALO釧路",
    "operation_time": "",
    "holiday": "",
    "latitude": "43.00901403",
    "longitude": "144.4046059",
    "tel": "070-3100-5146",
    "address": "釧路郡釧路町桂木1-1-7イオン釧路2F",
    "access": "",
    "games": [
      "モンスター烈伝 オレカバトル2 パンドラのメダル"
    ]
  },
  {
    "name": "モーリーファンタジー須坂",
    "operation_time": "",
    "holiday": "",
    "latitude": "36.63957595",
    "longitude": "138.2734411",
    "tel": "080-4886-1074",
    "address": "須坂市大字福島480-1イオンモール須坂3F",
    "access": "",
    "games": [
      "モンスター烈伝 オレカバトル2 パンドラのメダル"
    ]
  },
  {
    "name": "モーリーファンタジー三好",
    "operation_time": "",
    "holiday": "",
    "latitude": "35.09295769",
    "longitude": "137.0785329",
    "tel": "070-3100-3403",
    "address": "みよし市三好町青木91イオン三好2F",
    "access": "",
    "games": [
      "モンスター烈伝 オレカバトル2 パンドラのメダル"
    ]
  },
  {
    "name": "ラウンドワン半田店",
    "operation_time": "",
    "holiday": "",
    "latitude": "34.88609688",
    "longitude": "136.9412056",
    "tel": "0569-25-7351",
    "address": "半田市瑞穂町6-7-8",
    "access": "",
    "games": [
      "モンスター烈伝 オレカバトル2 パンドラのメダル"
    ]
  },
  {
    "name": "モーリーファンタジー松本",
    "operation_time": "",
    "holiday": "",
    "latitude": "36.23381062",
    "longitude": "137.9794817",
    "tel": "070-3100-5054",
    "address": "松本市中央4-9-51イオンスタイル松本3F",
    "access": "",
    "games": [
      "モンスター烈伝 オレカバトル2 パンドラのメダル"
    ]
  },
  {
    "name": "モーリーファンタジー盛岡渋民",
    "operation_time": "",
    "holiday": "",
    "latitude": "39.84998833",
    "longitude": "141.1727189",
    "tel": "070-3100-4498",
    "address": "盛岡市玉山区渋民字鶴飼20-1SuC1F",
    "access": "",
    "games": [
      "モンスター烈伝 オレカバトル2 パンドラのメダル"
    ]
  },
  {
    "name": "モーリーファンタジー伊勢ララパーク",
    "operation_time": "",
    "holiday": "",
    "latitude": "34.50645901",
    "longitude": "136.7224974",
    "tel": "070-3100-4797",
    "address": "伊勢市小木町曽弥538イオンタウン伊勢ララパーク2F",
    "access": "",
    "games": [
      "モンスター烈伝 オレカバトル2 パンドラのメダル"
    ]
  },
  {
    "name": "モーリーファンタジー豊田",
    "operation_time": "",
    "holiday": "",
    "latitude": "35.07836627",
    "longitude": "137.1596515",
    "tel": "070-3100-4619",
    "address": "豊田市広路町1-1イオンスタイル豊田3F",
    "access": "",
    "games": [
      "モンスター烈伝 オレカバトル2 パンドラのメダル"
    ]
  },
  {
    "name": "モーリーファンタジー盛岡",
    "operation_time": "",
    "holiday": "",
    "latitude": "39.71119062",
    "longitude": "141.1004245",
    "tel": "070-3100-5263",
    "address": "盛岡市前潟4-7-1イオン2F",
    "access": "",
    "games": [
      "モンスター烈伝 オレカバトル2 パンドラのメダル"
    ]
  },
  {
    "name": "ハローズガーデン安城南",
    "operation_time": "",
    "holiday": "",
    "latitude": "34.920207",
    "longitude": "137.087751",
    "tel": "070-1275-2977",
    "address": "安城市桜井町貝戸尻60アピタ安城南店2F",
    "access": "",
    "games": [
      "モンスター烈伝 オレカバトル2 パンドラのメダル"
    ]
  },
  {
    "name": "ラウンドワン盛岡店",
    "operation_time": "",
    "holiday": "",
    "latitude": "39.70035197",
    "longitude": "141.133077",
    "tel": "019-654-9011",
    "address": "盛岡市盛岡駅西通2-10-35",
    "access": "",
    "games": [
      "モンスター烈伝 オレカバトル2 パンドラのメダル"
    ]
  },
  {
    "name": "ファンタジーウエストタウン西尾",
    "operation_time": "",
    "holiday": "",
    "latitude": "34.86340688",
    "longitude": "137.0593879",
    "tel": "080-4401-6380",
    "address": "西尾市高畠町3-23-9ヴェルサウォーク西尾店3F",
    "access": "",
    "games": [
      "モンスター烈伝 オレカバトル2 パンドラのメダル"
    ]
  },
  {
    "name": "モーリーファンタジーイオン盛岡南",
    "operation_time": "",
    "holiday": "",
    "latitude": "39.68349461",
    "longitude": "141.1274127",
    "tel": "070-3100-4531",
    "address": "盛岡市本宮7-1-1イオン盛岡南3F",
    "access": "",
    "games": [
      "モンスター烈伝 オレカバトル2 パンドラのメダル"
    ]
  },
  {
    "name": "モーリーファンタジー上田",
    "operation_time": "",
    "holiday": "",
    "latitude": "36.39213544",
    "longitude": "138.257705",
    "tel": "070-3100-4777",
    "address": "上田市常田2-12-18イオン上田2F",
    "access": "",
    "games": [
      "モンスター烈伝 オレカバトル2 パンドラのメダル"
    ]
  },
  {
    "name": "GiGO北岡崎",
    "operation_time": "9:00～24:00",
    "holiday": "無し",
    "latitude": "34.97365547",
    "longitude": "137.1600268",
    "tel": "070-1393-5583",
    "address": "岡崎市錦町2-4",
    "access": "国道248号線沿い、愛知環状線北岡崎駅から徒歩3分",
    "games": [
      "モンスター烈伝 オレカバトル2 パンドラのメダル"
    ]
  },
  {
    "name": "モーリーファンタジーサンサ盛岡南",
    "operation_time": "",
    "holiday": "",
    "latitude": "39.66193109",
    "longitude": "141.1481669",
    "tel": "070-3100-4655",
    "address": "盛岡市津志田西2-17-50ショッピングセンターサンサ1F",
    "access": "",
    "games": [
      "モンスター烈伝 オレカバトル2 パンドラのメダル"
    ]
  },
  {
    "name": "モーリーファンタジーイオン岡崎",
    "operation_time": "",
    "holiday": "",
    "latitude": "34.93865638",
    "longitude": "137.1647639",
    "tel": "070-3100-3616",
    "address": "岡崎市戸崎町字ばら山1-1イオンスタイル岡崎3F",
    "access": "",
    "games": [
      "モンスター烈伝 オレカバトル2 パンドラのメダル"
    ]
  },
  {
    "name": "ポート24幸田",
    "operation_time": "10:00～24:00",
    "holiday": "無休",
    "latitude": "34.89016302",
    "longitude": "137.1632649",
    "tel": "0564-63-6588",
    "address": "額田郡幸田町大字高力字沖原15カメリアガーデン幸田内",
    "access": "東名高速音羽蒲郡ICから車で30分",
    "games": [
      "モンスター烈伝 オレカバトル2 パンドラのメダル"
    ]
  },
  {
    "name": "PALO諏訪",
    "operation_time": "",
    "holiday": "",
    "latitude": "36.00551011",
    "longitude": "138.1283942",
    "tel": "070-3100-3453",
    "address": "諏訪市沖田町5-18ステーションパーク諏訪内",
    "access": "",
    "games": [
      "モンスター烈伝 オレカバトル2 パンドラのメダル"
    ]
  },
  {
    "name": "モーリーファンタジーそよら飯田アップルロード",
    "operation_time": "",
    "holiday": "",
    "latitude": "35.50075571",
    "longitude": "137.8167481",
    "tel": "070-3100-5358",
    "address": "飯田市鼎一色456そよら飯田アップルロード2F",
    "access": "",
    "games": [
      "モンスター烈伝 オレカバトル2 パンドラのメダル"
    ]
  },
  {
    "name": "モーリーファンタジー佐久平",
    "operation_time": "",
    "holiday": "",
    "latitude": "36.27494666",
    "longitude": "138.4637732",
    "tel": "090-3913-1285",
    "address": "佐久市佐久平駅南11-10イオンモール佐久平2F",
    "access": "",
    "games": [
      "モンスター烈伝 オレカバトル2 パンドラのメダル"
    ]
  },
  {
    "name": "モーリーファンタジー豊川開運通",
    "operation_time": "",
    "holiday": "",
    "latitude": "34.82793217",
    "longitude": "137.3848086",
    "tel": "070-3100-4110",
    "address": "豊川市開運通り2-31イオン豊川開運通2F",
    "access": "",
    "games": [
      "モンスター烈伝 オレカバトル2 パンドラのメダル"
    ]
  },
  {
    "name": "モーリーファンタジー東根",
    "operation_time": "",
    "holiday": "",
    "latitude": "38.42691017",
    "longitude": "140.3876556",
    "tel": "070-3100-4015",
    "address": "東根市さくらんぼ駅前3-7-15イオン東根2F",
    "access": "",
    "games": [
      "モンスター烈伝 オレカバトル2 パンドラのメダル"
    ]
  },
  {
    "name": "モーリーファンタジー天童",
    "operation_time": "",
    "holiday": "",
    "latitude": "38.34524836",
    "longitude": "140.3637836",
    "tel": "070-3100-4225",
    "address": "天童市芳賀タウン北4-1-1イオン天童2F",
    "access": "",
    "games": [
      "モンスター烈伝 オレカバトル2 パンドラのメダル"
    ]
  },
  {
    "name": "GiGO天童",
    "operation_time": "10:00～24:00",
    "holiday": "無し",
    "latitude": "38.34302924",
    "longitude": "140.3739732",
    "tel": "023-656-9370",
    "address": "天童市南町1-5-26",
    "access": "JR「天童駅」より車で10分。国道13号線を南下し国道沿い左側。",
    "games": [
      "モンスター烈伝 オレカバトル2 パンドラのメダル"
    ]
  },
  {
    "name": "モーリーファンタジー豊橋南",
    "operation_time": "",
    "holiday": "",
    "latitude": "34.7099529",
    "longitude": "137.387889",
    "tel": "070-3100-3598",
    "address": "豊橋市野依町字落合1-12イオン豊橋南2F",
    "access": "",
    "games": [
      "モンスター烈伝 オレカバトル2 パンドラのメダル"
    ]
  },
  {
    "name": "モーリーファンタジー山形南",
    "operation_time": "",
    "holiday": "",
    "latitude": "38.22658067",
    "longitude": "140.3058301",
    "tel": "070-3100-5245",
    "address": "山形市若宮3-7-8イオン2F",
    "access": "",
    "games": [
      "モンスター烈伝 オレカバトル2 パンドラのメダル"
    ]
  },
  {
    "name": "ラウンドワン豊橋店",
    "operation_time": "",
    "holiday": "",
    "latitude": "34.7239242",
    "longitude": "137.4323261",
    "tel": "0532-65-2212",
    "address": "豊橋市大岩町字岩田27-2",
    "access": "",
    "games": [
      "モンスター烈伝 オレカバトル2 パンドラのメダル"
    ]
  },
  {
    "name": "モーリーファンタジー米沢",
    "operation_time": "",
    "holiday": "",
    "latitude": "37.92310414",
    "longitude": "140.1084042",
    "tel": "070-3100-5149",
    "address": "米沢市春日2-13-4イオン米沢2F",
    "access": "",
    "games": [
      "モンスター烈伝 オレカバトル2 パンドラのメダル"
    ]
  },
  {
    "name": "モーリーファンタジースーパーセンター一関",
    "operation_time": "",
    "holiday": "",
    "latitude": "38.93993538",
    "longitude": "141.1528825",
    "tel": "070-3100-7382",
    "address": "一関市狐禅寺字石ノ瀬11-1SuC1F",
    "access": "",
    "games": [
      "モンスター烈伝 オレカバトル2 パンドラのメダル"
    ]
  },
  {
    "name": "GiGO会津若松",
    "operation_time": "9:00～24:00",
    "holiday": "無し",
    "latitude": "37.51832577",
    "longitude": "139.9222191",
    "tel": "0242-37-0777",
    "address": "会津若松市町北町上荒久田字宮下142",
    "access": "磐越道会津若松IC側",
    "games": [
      "モンスター烈伝 オレカバトル2 パンドラのメダル"
    ]
  },
  {
    "name": "モーリーファンタジー浜松志都呂",
    "operation_time": "",
    "holiday": "",
    "latitude": "34.69622515",
    "longitude": "137.6504079",
    "tel": "070-3100-4772",
    "address": "浜松市中央区志都呂町2-37-1イオン浜松志都呂3F",
    "access": "",
    "games": [
      "モンスター烈伝 オレカバトル2 パンドラのメダル"
    ]
  },
  {
    "name": "モーリーファンタジー高崎",
    "operation_time": "",
    "holiday": "",
    "latitude": "36.38970555",
    "longitude": "139.0069377",
    "tel": "070-3100-4607",
    "address": "高崎市棟高町1400イオン高崎3F",
    "access": "",
    "games": [
      "モンスター烈伝 オレカバトル2 パンドラのメダル"
    ]
  },
  {
    "name": "群馬レジャーランド高崎駅東口店",
    "operation_time": "一部24時間営業",
    "holiday": "無し",
    "latitude": "36.32992086",
    "longitude": "139.0128661",
    "tel": "027-330-3002",
    "address": "高崎市江木町333-1高崎EXビル2F",
    "access": "JR高崎駅東口徒歩10分",
    "games": [
      "モンスター烈伝 オレカバトル2 パンドラのメダル"
    ]
  },
  {
    "name": "モーリーファンタジー浜松市野",
    "operation_time": "",
    "holiday": "",
    "latitude": "34.74089076",
    "longitude": "137.7648947",
    "tel": "070-3100-4757",
    "address": "浜松市中央区天王町諏訪1981-3イオン浜松市野2F",
    "access": "",
    "games": [
      "モンスター烈伝 オレカバトル2 パンドラのメダル"
    ]
  },
  {
    "name": "ラウンドワン浜松店",
    "operation_time": "",
    "holiday": "",
    "latitude": "34.73795995",
    "longitude": "137.7638799",
    "tel": "053-461-1101",
    "address": "浜松市中央区天王町諏訪1981-17",
    "access": "",
    "games": [
      "モンスター烈伝 オレカバトル2 パンドラのメダル"
    ]
  },
  {
    "name": "モーリーファンタジー古川",
    "operation_time": "",
    "holiday": "",
    "latitude": "38.56724158",
    "longitude": "140.9728398",
    "tel": "070-3100-4059",
    "address": "大崎市古川旭2-2-1イオン古川2F",
    "access": "",
    "games": [
      "モンスター烈伝 オレカバトル2 パンドラのメダル"
    ]
  },
  {
    "name": "サープラOZ浜松あそびタウン",
    "operation_time": "9:00～24:00",
    "holiday": "無し",
    "latitude": "34.72247074",
    "longitude": "137.7647101",
    "tel": "053-466-3387",
    "address": "浜松市中央区宮竹町322-1",
    "access": "東名高速浜松IC車で20分",
    "games": [
      "モンスター烈伝 オレカバトル2 パンドラのメダル"
    ]
  },
  {
    "name": "ラウンドワン前橋店",
    "operation_time": "",
    "holiday": "",
    "latitude": "36.36888377",
    "longitude": "139.1051864",
    "tel": "027-287-1501",
    "address": "前橋市天川大島町1101-1",
    "access": "",
    "games": [
      "モンスター烈伝 オレカバトル2 パンドラのメダル"
    ]
  },
  {
    "name": "モーリーファンタジー甲府昭和",
    "operation_time": "",
    "holiday": "",
    "latitude": "35.62279065",
    "longitude": "138.5271528",
    "tel": "070-3100-5224",
    "address": "中巨摩郡昭和町飯喰1505-1イオン甲府昭和3F",
    "access": "",
    "games": [
      "モンスター烈伝 オレカバトル2 パンドラのメダル"
    ]
  },
  {
    "name": "モーリーファンタジー富谷",
    "operation_time": "",
    "holiday": "",
    "latitude": "38.36477285",
    "longitude": "140.8751345",
    "tel": "070-3100-5282",
    "address": "富谷市大清水上1-33-1イオン富谷店1F",
    "access": "",
    "games": [
      "モンスター烈伝 オレカバトル2 パンドラのメダル"
    ]
  },
  {
    "name": "群馬レジャーランド藤岡店",
    "operation_time": "一部24時間営業",
    "holiday": "",
    "latitude": "36.27426745",
    "longitude": "139.0718857",
    "tel": "0274-40-2371",
    "address": "藤岡市中2002-1",
    "access": "県道13号沿い、上信越道藤岡IC北 カーオプション店『ピット100』2階",
    "games": [
      "モンスター烈伝 オレカバトル2 パンドラのメダル"
    ]
  },
  {
    "name": "モーリーファンタジー仙台中山",
    "operation_time": "",
    "holiday": "",
    "latitude": "38.298013",
    "longitude": "140.8257136",
    "tel": "070-3100-4895",
    "address": "仙台市泉区南中山1-35-40イオン仙台中山3F",
    "access": "",
    "games": [
      "モンスター烈伝 オレカバトル2 パンドラのメダル"
    ]
  },
  {
    "name": "ラウンドワンスタジアム仙台泉店",
    "operation_time": "",
    "holiday": "",
    "latitude": "38.35192551",
    "longitude": "140.8797545",
    "tel": "022-347-4471",
    "address": "仙台市泉区大沢2-12-4仙台泉インターシティ1F",
    "access": "",
    "games": [
      "モンスター烈伝 オレカバトル2 パンドラのメダル"
    ]
  },
  {
    "name": "モーリーファンタジー袋井",
    "operation_time": "",
    "holiday": "",
    "latitude": "34.78533344",
    "longitude": "137.9026357",
    "tel": "070-3100-3604",
    "address": "袋井市上山梨4-1-1イオン袋井2F",
    "access": "",
    "games": [
      "モンスター烈伝 オレカバトル2 パンドラのメダル"
    ]
  },
  {
    "name": "群馬レジャーランド伊勢崎店",
    "operation_time": "一部24時間営業",
    "holiday": "無し",
    "latitude": "36.31824274",
    "longitude": "139.1723592",
    "tel": "0270-40-5330",
    "address": "伊勢崎市連取町3066-1",
    "access": "伊勢崎市内県道2号線沿い伊勢崎オート近く",
    "games": [
      "モンスター烈伝 オレカバトル2 パンドラのメダル"
    ]
  },
  {
    "name": "モーリーファンタジー石和",
    "operation_time": "",
    "holiday": "",
    "latitude": "35.65627087",
    "longitude": "138.6351348",
    "tel": "070-3100-4132",
    "address": "笛吹市石和町駅前16-1イオン石和1F",
    "access": "",
    "games": [
      "モンスター烈伝 オレカバトル2 パンドラのメダル"
    ]
  },
  {
    "name": "ラウンドワンさいたま･上里店",
    "operation_time": "",
    "holiday": "",
    "latitude": "36.259925",
    "longitude": "139.137383",
    "tel": "0495-35-2201",
    "address": "児玉郡上里町大字金久保字周川394-1",
    "access": "",
    "games": [
      "モンスター烈伝 オレカバトル2 パンドラのメダル"
    ]
  },
  {
    "name": "モーリーファンタジー福島",
    "operation_time": "",
    "holiday": "",
    "latitude": "37.78845209",
    "longitude": "140.4574625",
    "tel": "070-3100-3845",
    "address": "福島市南矢野目字西荒田50-17イオン福島3F",
    "access": "",
    "games": [
      "モンスター烈伝 オレカバトル2 パンドラのメダル"
    ]
  },
  {
    "name": "GiGOスマーク伊勢崎",
    "operation_time": "",
    "holiday": "",
    "latitude": "36.339538",
    "longitude": "139.231968",
    "tel": "0270-62-3886",
    "address": "伊勢崎市西小保方町368スマーク伊勢崎3F302区画",
    "access": "",
    "games": [
      "モンスター烈伝 オレカバトル2 パンドラのメダル"
    ]
  },
  {
    "name": "ラウンドワン仙台苦竹店",
    "operation_time": "",
    "holiday": "",
    "latitude": "38.26828399",
    "longitude": "140.9172614",
    "tel": "022-788-2581",
    "address": "仙台市宮城野区苦竹1-7-10",
    "access": "",
    "games": [
      "モンスター烈伝 オレカバトル2 パンドラのメダル"
    ]
  },
  {
    "name": "ラウンドワン福島店",
    "operation_time": "",
    "holiday": "",
    "latitude": "37.75259469",
    "longitude": "140.4562354",
    "tel": "024-525-4731",
    "address": "福島市太田町14-18",
    "access": "",
    "games": [
      "モンスター烈伝 オレカバトル2 パンドラのメダル"
    ]
  },
  {
    "name": "サープラ福島あそびタウン",
    "operation_time": "9:00～24:00",
    "holiday": "無し",
    "latitude": "37.75708655",
    "longitude": "140.4603393",
    "tel": "024-526-3536",
    "address": "福島市栄町1-1パワーシティーピポット内",
    "access": "JR福島駅構内",
    "games": [
      "モンスター烈伝 オレカバトル2 パンドラのメダル"
    ]
  },
  {
    "name": "モーリーファンタジー利府",
    "operation_time": "",
    "holiday": "",
    "latitude": "38.3217593",
    "longitude": "140.9720646",
    "tel": "070-3100-4037",
    "address": "宮城郡利府町新中道3-1-1イオンモール新利府南館3F",
    "access": "",
    "games": [
      "モンスター烈伝 オレカバトル2 パンドラのメダル"
    ]
  },
  {
    "name": "モーリーファンタジー仙台卸町",
    "operation_time": "",
    "holiday": "",
    "latitude": "38.25239885",
    "longitude": "140.9189487",
    "tel": "070-3100-5523",
    "address": "仙台市若林区卸町1-1イオンスタイル仙台卸町店3F",
    "access": "",
    "games": [
      "モンスター烈伝 オレカバトル2 パンドラのメダル"
    ]
  },
  {
    "name": "モーリーファンタジー新名取",
    "operation_time": "",
    "holiday": "",
    "latitude": "38.16385727",
    "longitude": "140.8961163",
    "tel": "070-3100-4546",
    "address": "名取市杜せきのした5-3-1イオン新名取3F",
    "access": "",
    "games": [
      "モンスター烈伝 オレカバトル2 パンドラのメダル"
    ]
  },
  {
    "name": "モーリーファンタジー多賀城",
    "operation_time": "",
    "holiday": "",
    "latitude": "38.28221541",
    "longitude": "141.0052828",
    "tel": "070-3100-4903",
    "address": "多賀城市町前4-1-1イオン多賀城3F",
    "access": "",
    "games": [
      "モンスター烈伝 オレカバトル2 パンドラのメダル"
    ]
  },
  {
    "name": "モーリーファンタジー今市",
    "operation_time": "",
    "holiday": "",
    "latitude": "36.73071217",
    "longitude": "139.7034389",
    "tel": "070-3100-4021",
    "address": "日光市豊田字若林79-1イオン今市2F",
    "access": "",
    "games": [
      "モンスター烈伝 オレカバトル2 パンドラのメダル"
    ]
  },
  {
    "name": "モーリーファンタジー石巻",
    "operation_time": "",
    "holiday": "",
    "latitude": "38.44783117",
    "longitude": "141.2661156",
    "tel": "070-3100-4543",
    "address": "石巻市茜平4-104イオン石巻2F",
    "access": "",
    "games": [
      "モンスター烈伝 オレカバトル2 パンドラのメダル"
    ]
  },
  {
    "name": "ハローズガーデン深谷",
    "operation_time": "",
    "holiday": "",
    "latitude": "36.18133285",
    "longitude": "139.2988894",
    "tel": "070-6527-6381",
    "address": "深谷市上柴町西4-2-14アリオ深谷店2F",
    "access": "",
    "games": [
      "モンスター烈伝 オレカバトル2 パンドラのメダル"
    ]
  },
  {
    "name": "群馬レジャーランド太田店",
    "operation_time": "一部24時間営業",
    "holiday": "無し",
    "latitude": "36.26802219",
    "longitude": "139.3761382",
    "tel": "0276-47-8030",
    "address": "太田市西矢島町162-2",
    "access": "",
    "games": [
      "モンスター烈伝 オレカバトル2 パンドラのメダル"
    ]
  },
  {
    "name": "モーリーファンタジー太田",
    "operation_time": "",
    "holiday": "",
    "latitude": "36.29410133",
    "longitude": "139.4005458",
    "tel": "070-3100-4965",
    "address": "太田市石原町81イオン太田2F",
    "access": "",
    "games": [
      "モンスター烈伝 オレカバトル2 パンドラのメダル"
    ]
  },
  {
    "name": "ラウンドワン郡山店",
    "operation_time": "",
    "holiday": "",
    "latitude": "37.40229903",
    "longitude": "140.3957065",
    "tel": "024-941-3191",
    "address": "郡山市向河原町4-55",
    "access": "",
    "games": [
      "モンスター烈伝 オレカバトル2 パンドラのメダル"
    ]
  },
  {
    "name": "サープラ静岡あそびタウン",
    "operation_time": "",
    "holiday": "",
    "latitude": "34.97440928",
    "longitude": "138.3875715",
    "tel": "054-260-6200",
    "address": "静岡市葵区伝馬町6-1けやきプラザ3F",
    "access": "",
    "games": [
      "モンスター烈伝 オレカバトル2 パンドラのメダル"
    ]
  },
  {
    "name": "モーリーファンタジー那須塩原",
    "operation_time": "",
    "holiday": "",
    "latitude": "36.92962374",
    "longitude": "140.0068241",
    "tel": "070-3100-4506",
    "address": "那須塩原市島方455イオンタウン1F",
    "access": "",
    "games": [
      "モンスター烈伝 オレカバトル2 パンドラのメダル"
    ]
  },
  {
    "name": "モーリーファンタジー白河西郷",
    "operation_time": "",
    "holiday": "",
    "latitude": "37.12149817",
    "longitude": "140.1768616",
    "tel": "070-3100-4041",
    "address": "西白河郡西郷村大字小田倉字岩下11-1 イオン白河西郷2F",
    "access": "",
    "games": [
      "モンスター烈伝 オレカバトル2 パンドラのメダル"
    ]
  },
  {
    "name": "モーリーファンタジー焼津",
    "operation_time": "",
    "holiday": "",
    "latitude": "34.83954199",
    "longitude": "138.3095467",
    "tel": "070-3100-3391",
    "address": "焼津市東祢宜島12-4イオン焼津2F",
    "access": "",
    "games": [
      "モンスター烈伝 オレカバトル2 パンドラのメダル"
    ]
  },
  {
    "name": "モーリーファンタジー富士宮",
    "operation_time": "",
    "holiday": "",
    "latitude": "35.21979621",
    "longitude": "138.6122631",
    "tel": "070-3100-3410",
    "address": "富士宮市浅間町1-8イオン富士宮2F",
    "access": "",
    "games": [
      "モンスター烈伝 オレカバトル2 パンドラのメダル"
    ]
  },
  {
    "name": "モーリーファンタジー清水",
    "operation_time": "",
    "holiday": "",
    "latitude": "35.00914732",
    "longitude": "138.4589158",
    "tel": "070-3100-3611",
    "address": "静岡市清水区上原1-6-16イオン清水2F",
    "access": "",
    "games": [
      "モンスター烈伝 オレカバトル2 パンドラのメダル"
    ]
  },
  {
    "name": "PALO熊谷",
    "operation_time": "9:00～22:00",
    "holiday": "無し",
    "latitude": "36.14549266",
    "longitude": "139.3788566",
    "tel": "070-3100-4102",
    "address": "熊谷市本石2-135イオン熊谷3F",
    "access": "国道17号線熊谷駅方面から本石南交差点手前左折 熊谷方面から本石南交差点右折",
    "games": [
      "モンスター烈伝 オレカバトル2 パンドラのメダル"
    ]
  },
  {
    "name": "namcoフェドラP&D佐野店",
    "operation_time": "10:00～23:00 土日祝9:00～23:00",
    "holiday": "無し",
    "latitude": "36.29729",
    "longitude": "139.605644",
    "tel": "0283-85-9518",
    "address": "佐野市高萩町1340",
    "access": "",
    "games": [
      "モンスター烈伝 オレカバトル2 パンドラのメダル"
    ]
  },
  {
    "name": "モーリーファンタジーf富士南",
    "operation_time": "",
    "holiday": "",
    "latitude": "35.13920415",
    "longitude": "138.6760841",
    "tel": "070-3100-4493",
    "address": "富士市鮫島118-10イオンタウン2F",
    "access": "",
    "games": [
      "モンスター烈伝 オレカバトル2 パンドラのメダル"
    ]
  },
  {
    "name": "ラウンドワン富士店",
    "operation_time": "",
    "holiday": "",
    "latitude": "35.15310644",
    "longitude": "138.6938016",
    "tel": "0545-51-3636",
    "address": "富士市八代町4-15",
    "access": "",
    "games": [
      "モンスター烈伝 オレカバトル2 パンドラのメダル"
    ]
  },
  {
    "name": "モーリーファンタジービバモール東松山",
    "operation_time": "",
    "holiday": "",
    "latitude": "36.03105611",
    "longitude": "139.404266",
    "tel": "070-3100-3386",
    "address": "東松山市神明町2-11-6ビバモール東松山店2F",
    "access": "",
    "games": [
      "モンスター烈伝 オレカバトル2 パンドラのメダル"
    ]
  },
  {
    "name": "モーリーファンタジーさくら",
    "operation_time": "",
    "holiday": "",
    "latitude": "36.68929577",
    "longitude": "139.9795179",
    "tel": "070-3100-7390",
    "address": "さくら市桜野1551ザ ビッグさくら1F",
    "access": "",
    "games": [
      "モンスター烈伝 オレカバトル2 パンドラのメダル"
    ]
  },
  {
    "name": "モーリーファンタジー羽生",
    "operation_time": "",
    "holiday": "",
    "latitude": "36.14263357",
    "longitude": "139.5437879",
    "tel": "070-3100-4604",
    "address": "羽生市川崎2-281-3イオン羽生3F",
    "access": "",
    "games": [
      "モンスター烈伝 オレカバトル2 パンドラのメダル"
    ]
  },
  {
    "name": "モーリーファンタジー日の出",
    "operation_time": "",
    "holiday": "",
    "latitude": "35.73518666",
    "longitude": "139.2767761",
    "tel": "070-3100-4563",
    "address": "西多摩郡日の出町大字平井字三吉野桜木273-3 イオン3F",
    "access": "",
    "games": [
      "モンスター烈伝 オレカバトル2 パンドラのメダル"
    ]
  },
  {
    "name": "モーリーファンタジー入間",
    "operation_time": "",
    "holiday": "",
    "latitude": "35.82270447",
    "longitude": "139.3944443",
    "tel": "070-3100-5281",
    "address": "入間市上藤沢462-1イオン入間2F",
    "access": "",
    "games": [
      "モンスター烈伝 オレカバトル2 パンドラのメダル"
    ]
  },
  {
    "name": "モーリーファンタジー小山",
    "operation_time": "",
    "holiday": "",
    "latitude": "36.32083743",
    "longitude": "139.8407182",
    "tel": "070-3100-4950",
    "address": "小山市中久喜1467-1イオン小山2F",
    "access": "",
    "games": [
      "モンスター烈伝 オレカバトル2 パンドラのメダル"
    ]
  },
  {
    "name": "モーリーファンタジー裾野",
    "operation_time": "",
    "holiday": "",
    "latitude": "35.17592043",
    "longitude": "138.9077966",
    "tel": "070-3100-4625",
    "address": "裾野市佐野1039マックスバリュベルシティ裾野店1F",
    "access": "",
    "games": [
      "モンスター烈伝 オレカバトル2 パンドラのメダル"
    ]
  },
  {
    "name": "サープラ沼津あそびタウン",
    "operation_time": "10:00～24:00",
    "holiday": "無し",
    "latitude": "35.10266451",
    "longitude": "138.8598883",
    "tel": "055-926-7739",
    "address": "沼津市大手町1-1-5",
    "access": "JR沼津駅徒歩5分",
    "games": [
      "モンスター烈伝 オレカバトル2 パンドラのメダル"
    ]
  },
  {
    "name": "GiGOイオンモールむさし村山",
    "operation_time": "",
    "holiday": "",
    "latitude": "35.74624596",
    "longitude": "139.3846956",
    "tel": "070-1458-3080",
    "address": "武蔵村山市榎1-1-3イオンモールむさし村山2F",
    "access": "",
    "games": [
      "モンスター烈伝 オレカバトル2 パンドラのメダル"
    ]
  },
  {
    "name": "モーリーファンタジーむさし村山",
    "operation_time": "",
    "holiday": "",
    "latitude": "35.74485937",
    "longitude": "139.3848555",
    "tel": "070-3100-4551",
    "address": "武蔵村山市榎1-1-3イオンむさし村山3F",
    "access": "",
    "games": [
      "モンスター烈伝 オレカバトル2 パンドラのメダル"
    ]
  },
  {
    "name": "ラウンドワンさいたま･栗橋店",
    "operation_time": "",
    "holiday": "",
    "latitude": "36.12348469",
    "longitude": "139.7152159",
    "tel": "0480-55-0831",
    "address": "久喜市小右衛門192-1",
    "access": "",
    "games": [
      "モンスター烈伝 オレカバトル2 パンドラのメダル"
    ]
  },
  {
    "name": "ラウンドワン上尾店",
    "operation_time": "",
    "holiday": "",
    "latitude": "35.98574121",
    "longitude": "139.6078308",
    "tel": "048-778-3411",
    "address": "上尾市大字平塚917-1",
    "access": "",
    "games": [
      "モンスター烈伝 オレカバトル2 パンドラのメダル"
    ]
  },
  {
    "name": "モーリーファンタジーふじみ野",
    "operation_time": "",
    "holiday": "",
    "latitude": "35.88029868",
    "longitude": "139.5222725",
    "tel": "070-3100-3479",
    "address": "ふじみ野市福岡2-1-6イオンタウンふじみ野店3F",
    "access": "",
    "games": [
      "モンスター烈伝 オレカバトル2 パンドラのメダル"
    ]
  },
  {
    "name": "GiGOサントムーン柿田川",
    "operation_time": "",
    "holiday": "",
    "latitude": "35.109337",
    "longitude": "138.902823",
    "tel": "055-972-5430",
    "address": "駿東郡清水町玉川61-2サントムーン柿田川2F",
    "access": "",
    "games": [
      "モンスター烈伝 オレカバトル2 パンドラのメダル"
    ]
  },
  {
    "name": "モーリーファンタジー大井",
    "operation_time": "",
    "holiday": "",
    "latitude": "35.86034918",
    "longitude": "139.5144787",
    "tel": "070-3100-4117",
    "address": "ふじみ野市ふじみ野1-2-1イオン大井3F",
    "access": "",
    "games": [
      "モンスター烈伝 オレカバトル2 パンドラのメダル"
    ]
  },
  {
    "name": "モーリーファンタジー上尾",
    "operation_time": "",
    "holiday": "",
    "latitude": "35.96426027",
    "longitude": "139.6014407",
    "tel": "070-3100-5578",
    "address": "上尾市愛宕3-8-1イオンモール上尾2F",
    "access": "",
    "games": [
      "モンスター烈伝 オレカバトル2 パンドラのメダル"
    ]
  },
  {
    "name": "モーリーファンタジー真岡",
    "operation_time": "",
    "holiday": "",
    "latitude": "36.43255921",
    "longitude": "140.0015783",
    "tel": "070-3100-7301",
    "address": "真岡市台町2668ザ･ビッグ真岡店1F",
    "access": "",
    "games": [
      "モンスター烈伝 オレカバトル2 パンドラのメダル"
    ]
  },
  {
    "name": "ラウンドワン所沢店",
    "operation_time": "",
    "holiday": "",
    "latitude": "35.78935214",
    "longitude": "139.4700049",
    "tel": "04-2940-8631",
    "address": "所沢市東町5-22TOCOTOCO SQUARE6F",
    "access": "",
    "games": [
      "モンスター烈伝 オレカバトル2 パンドラのメダル"
    ]
  },
  {
    "name": "モーリーファンタジー多摩平の森",
    "operation_time": "",
    "holiday": "",
    "latitude": "35.66195065",
    "longitude": "139.3808539",
    "tel": "070-3100-4226",
    "address": "日野市多摩平2-4-1イオンモール多摩平の森3F",
    "access": "",
    "games": [
      "モンスター烈伝 オレカバトル2 パンドラのメダル"
    ]
  },
  {
    "name": "モーリーファンタジー大宮",
    "operation_time": "",
    "holiday": "",
    "latitude": "35.92328758",
    "longitude": "139.6090915",
    "tel": "070-3100-4289",
    "address": "さいたま市北区櫛引町2-574-1イオン3F",
    "access": "",
    "games": [
      "モンスター烈伝 オレカバトル2 パンドラのメダル"
    ]
  },
  {
    "name": "ラウンドワン大宮店",
    "operation_time": "",
    "holiday": "",
    "latitude": "35.91078012",
    "longitude": "139.6254963",
    "tel": "048-658-5666",
    "address": "さいたま市大宮区宮町4-90-7",
    "access": "",
    "games": [
      "モンスター烈伝 オレカバトル2 パンドラのメダル"
    ]
  },
  {
    "name": "モーリーファンタジー与野",
    "operation_time": "",
    "holiday": "",
    "latitude": "35.88979758",
    "longitude": "139.6154495",
    "tel": "070-1596-6640",
    "address": "さいたま市中央区本町西5-2-9イオン3F",
    "access": "",
    "games": [
      "モンスター烈伝 オレカバトル2 パンドラのメダル"
    ]
  },
  {
    "name": "Amusement&Game MAGHREB",
    "operation_time": "10:00～24:00",
    "holiday": "無し",
    "latitude": "35.624024",
    "longitude": "139.423196",
    "tel": "042-371-5556",
    "address": "多摩市落合1-39-2マグレブビル1F",
    "access": "京王線・小田急線 多摩センター駅 徒歩3分/多摩モノレール多摩センター駅 徒歩1分",
    "games": [
      "モンスター烈伝 オレカバトル2 パンドラのメダル"
    ]
  },
  {
    "name": "モーリーファンタジー秦野",
    "operation_time": "",
    "holiday": "",
    "latitude": "35.37810438",
    "longitude": "139.2279501",
    "tel": "070-3100-4921",
    "address": "秦野市入船町12-1イオン秦野2F",
    "access": "",
    "games": [
      "モンスター烈伝 オレカバトル2 パンドラのメダル"
    ]
  },
  {
    "name": "モーリーファンタジー東久留米",
    "operation_time": "",
    "holiday": "",
    "latitude": "35.74514577",
    "longitude": "139.5273525",
    "tel": "070-3100-4251",
    "address": "東久留米市南沢5-17-62イオン東久留米3F",
    "access": "",
    "games": [
      "モンスター烈伝 オレカバトル2 パンドラのメダル"
    ]
  },
  {
    "name": "ラウンドワン府中本町駅前店",
    "operation_time": "",
    "holiday": "",
    "latitude": "35.667312",
    "longitude": "139.477387",
    "tel": "042-340-4901",
    "address": "府中市本町1-13-3カネタビル",
    "access": "",
    "games": [
      "モンスター烈伝 オレカバトル2 パンドラのメダル"
    ]
  },
  {
    "name": "ラウンドワン朝霞店",
    "operation_time": "",
    "holiday": "",
    "latitude": "35.79026242",
    "longitude": "139.5796756",
    "tel": "048-450-1822",
    "address": "朝霞市膝折町2-16-10",
    "access": "",
    "games": [
      "モンスター烈伝 オレカバトル2 パンドラのメダル"
    ]
  },
  {
    "name": "埼玉レジャーランド春日部店",
    "operation_time": "一部24時間",
    "holiday": "無し",
    "latitude": "35.95940469",
    "longitude": "139.7289621",
    "tel": "048-763-4061",
    "address": "春日部市大字増富字谷際163-1",
    "access": "国道16号線沿い春日部市増富地内",
    "games": [
      "モンスター烈伝 オレカバトル2 パンドラのメダル"
    ]
  },
  {
    "name": "モーリーファンタジーイオン相模原",
    "operation_time": "",
    "holiday": "",
    "latitude": "35.55370134",
    "longitude": "139.4170163",
    "tel": "070-3100-5197",
    "address": "相模原市南区古淵2-10-1イオン相模原3F",
    "access": "",
    "games": [
      "モンスター烈伝 オレカバトル2 パンドラのメダル"
    ]
  },
  {
    "name": "モーリーファンタジー北戸田",
    "operation_time": "",
    "holiday": "",
    "latitude": "35.82680237",
    "longitude": "139.6526913",
    "tel": "070-3100-4968",
    "address": "戸田市美女木東1-3-1イオンスタイル北戸田2F",
    "access": "",
    "games": [
      "モンスター烈伝 オレカバトル2 パンドラのメダル"
    ]
  },
  {
    "name": "神奈川レジャーランド厚木店",
    "operation_time": "一部24時間営業",
    "holiday": "無し",
    "latitude": "35.44802433",
    "longitude": "139.3431365",
    "tel": "050-1722-4336",
    "address": "厚木市戸室5-31-1",
    "access": "小田急本厚木駅よりバスにてアンリツ前バス停下車徒歩1分",
    "games": [
      "モンスター烈伝 オレカバトル2 パンドラのメダル"
    ]
  },
  {
    "name": "モーリーファンタジー春日部",
    "operation_time": "",
    "holiday": "",
    "latitude": "35.98853661",
    "longitude": "139.7896462",
    "tel": "070-3100-4258",
    "address": "春日部市下柳420-1イオン春日部店3F",
    "access": "",
    "games": [
      "モンスター烈伝 オレカバトル2 パンドラのメダル"
    ]
  },
  {
    "name": "ラウンドワンわらび店",
    "operation_time": "",
    "holiday": "",
    "latitude": "35.83078787",
    "longitude": "139.6742521",
    "tel": "048-447-8080",
    "address": "蕨市北町5-1-6",
    "access": "",
    "games": [
      "モンスター烈伝 オレカバトル2 パンドラのメダル"
    ]
  },
  {
    "name": "ラウンドワン町田店",
    "operation_time": "",
    "holiday": "",
    "latitude": "35.54409488",
    "longitude": "139.4432407",
    "tel": "042-710-0091",
    "address": "町田市森野1-13-14",
    "access": "",
    "games": [
      "モンスター烈伝 オレカバトル2 パンドラのメダル"
    ]
  },
  {
    "name": "モーリーファンタジー浦和美園",
    "operation_time": "",
    "holiday": "",
    "latitude": "35.89177367",
    "longitude": "139.7309325",
    "tel": "070-1596-6637",
    "address": "さいたま市緑区美園5-50-1イオン浦和美園3F",
    "access": "",
    "games": [
      "モンスター烈伝 オレカバトル2 パンドラのメダル"
    ]
  },
  {
    "name": "ラウンドワン吉祥寺店",
    "operation_time": "",
    "holiday": "",
    "latitude": "35.706276",
    "longitude": "139.580884",
    "tel": "0422-29-1051",
    "address": "武蔵野市吉祥寺本町1-11-22",
    "access": "",
    "games": [
      "モンスター烈伝 オレカバトル2 パンドラのメダル"
    ]
  },
  {
    "name": "モーリーファンタジー下妻",
    "operation_time": "",
    "holiday": "",
    "latitude": "36.18994",
    "longitude": "139.990025",
    "tel": "070-3100-4886",
    "address": "下妻市堀籠972-1イオン下妻2F",
    "access": "",
    "games": [
      "モンスター烈伝 オレカバトル2 パンドラのメダル"
    ]
  },
  {
    "name": "モーリーファンタジー座間",
    "operation_time": "",
    "holiday": "",
    "latitude": "35.50036814",
    "longitude": "139.4244516",
    "tel": "070-3100-7514",
    "address": "座間市広野台2-10-4イオンモール座間3F",
    "access": "",
    "games": [
      "モンスター烈伝 オレカバトル2 パンドラのメダル"
    ]
  },
  {
    "name": "モーリーファンタジー川口前川",
    "operation_time": "",
    "holiday": "",
    "latitude": "35.83436987",
    "longitude": "139.7077682",
    "tel": "070-3100-4055",
    "address": "川口市前川1-1-11イオン川口前川3F",
    "access": "",
    "games": [
      "モンスター烈伝 オレカバトル2 パンドラのメダル"
    ]
  },
  {
    "name": "モーリーファンタジー板橋",
    "operation_time": "",
    "holiday": "",
    "latitude": "35.76991757",
    "longitude": "139.6609168",
    "tel": "070-3100-4168",
    "address": "板橋区徳丸2-6-1イオン板橋3F",
    "access": "",
    "games": [
      "モンスター烈伝 オレカバトル2 パンドラのメダル"
    ]
  },
  {
    "name": "アドベンチャーリーフ国領",
    "operation_time": "",
    "holiday": "",
    "latitude": "35.64673312",
    "longitude": "139.5641464",
    "tel": "080-4109-6997",
    "address": "調布市国領町8-2-64イトーヨーカドー国領店3F",
    "access": "",
    "games": [
      "モンスター烈伝 オレカバトル2 パンドラのメダル"
    ]
  },
  {
    "name": "モーリーファンタジー川口",
    "operation_time": "",
    "holiday": "",
    "latitude": "35.83758808",
    "longitude": "139.7229041",
    "tel": "070-3100-5004",
    "address": "川口市大字安行領根岸3180イオンモール川口3F",
    "access": "",
    "games": [
      "モンスター烈伝 オレカバトル2 パンドラのメダル"
    ]
  },
  {
    "name": "ラウンドワン板橋店",
    "operation_time": "",
    "holiday": "",
    "latitude": "35.77658",
    "longitude": "139.67879",
    "tel": "03-5922-3521",
    "address": "板橋区相生町16-13",
    "access": "",
    "games": [
      "モンスター烈伝 オレカバトル2 パンドラのメダル"
    ]
  },
  {
    "name": "モーリーファンタジー大和鶴間",
    "operation_time": "",
    "holiday": "",
    "latitude": "35.48890601",
    "longitude": "139.4578815",
    "tel": "070-3100-3329",
    "address": "大和市下鶴間1-2-1イオン大和鶴間3F",
    "access": "",
    "games": [
      "モンスター烈伝 オレカバトル2 パンドラのメダル"
    ]
  },
  {
    "name": "千葉レジャーランド野田店",
    "operation_time": "一部24時間営業",
    "holiday": "無し",
    "latitude": "35.97154747",
    "longitude": "139.8653487",
    "tel": "04-7120-3535",
    "address": "野田市吉春776-1",
    "access": "国道16号線沿い野田市吉春地内",
    "games": [
      "モンスター烈伝 オレカバトル2 パンドラのメダル"
    ]
  },
  {
    "name": "ラウンドワンららぽーと湘南平塚店",
    "operation_time": "",
    "holiday": "",
    "latitude": "35.335825",
    "longitude": "139.354769",
    "tel": "0463-25-4051",
    "address": "平塚市天沼10-1ららぽーと湘南平塚店3F",
    "access": "",
    "games": [
      "モンスター烈伝 オレカバトル2 パンドラのメダル"
    ]
  },
  {
    "name": "モーリーファンタジーレイクタウン",
    "operation_time": "",
    "holiday": "",
    "latitude": "35.88190748",
    "longitude": "139.8294239",
    "tel": "070-3100-4565",
    "address": "越谷市レイクタウン3-1-1イオンレイクタウンmori3F",
    "access": "",
    "games": [
      "モンスター烈伝 オレカバトル2 パンドラのメダル"
    ]
  },
  {
    "name": "モーリーファンタジー大和",
    "operation_time": "",
    "holiday": "",
    "latitude": "35.43436733",
    "longitude": "139.4664899",
    "tel": "070-3100-5231",
    "address": "大和市渋谷6-6-1イオン大和3F",
    "access": "",
    "games": [
      "モンスター烈伝 オレカバトル2 パンドラのメダル"
    ]
  },
  {
    "name": "ラウンドワン池袋店",
    "operation_time": "",
    "holiday": "",
    "latitude": "35.730175",
    "longitude": "139.714846",
    "tel": "03-5928-0221",
    "address": "豊島区東池袋1-14-1池袋スクエア",
    "access": "",
    "games": [
      "モンスター烈伝 オレカバトル2 パンドラのメダル"
    ]
  },
  {
    "name": "モーリーファンタジー港北",
    "operation_time": "",
    "holiday": "",
    "latitude": "35.55487824",
    "longitude": "139.5776463",
    "tel": "070-3100-5442",
    "address": "横浜市都筑区中川中央1-31-1-5083 モザイクモール5F",
    "access": "",
    "games": [
      "モンスター烈伝 オレカバトル2 パンドラのメダル"
    ]
  },
  {
    "name": "モーリーファンタジー茅ヶ崎中央",
    "operation_time": "",
    "holiday": "",
    "latitude": "35.33594453",
    "longitude": "139.4027362",
    "tel": "070-3100-3324",
    "address": "茅ヶ崎市茅ヶ崎3-5-16イオン茅ヶ崎中央3F",
    "access": "",
    "games": [
      "モンスター烈伝 オレカバトル2 パンドラのメダル"
    ]
  },
  {
    "name": "サープラ横浜あそびタウン",
    "operation_time": "9:00～24:00",
    "holiday": "無し",
    "latitude": "35.55234069",
    "longitude": "139.579585",
    "tel": "045-914-7386",
    "address": "横浜市都筑区中川中央1-25ノースポートモール6F",
    "access": "横浜市営地下鉄センター北駅ノースポートモール6F",
    "games": [
      "モンスター烈伝 オレカバトル2 パンドラのメダル"
    ]
  },
  {
    "name": "イトーヨーカドーららぽーと横浜店ゲームコーナー",
    "operation_time": "",
    "holiday": "",
    "latitude": "35.51576005",
    "longitude": "139.566078",
    "tel": "045-286-9480",
    "address": "横浜市都筑区池辺町4035-1IY2F子供ワールド部ハローズ",
    "access": "",
    "games": [
      "モンスター烈伝 オレカバトル2 パンドラのメダル"
    ]
  },
  {
    "name": "ラウンドワンららぽーと新三郷店",
    "operation_time": "",
    "holiday": "",
    "latitude": "35.859813",
    "longitude": "139.865774",
    "tel": "048-950-7501",
    "address": "三郷市新三郷ららシティ3-1-1ららぽーと新三郷 2F",
    "access": "",
    "games": [
      "モンスター烈伝 オレカバトル2 パンドラのメダル"
    ]
  },
  {
    "name": "モーリーファンタジーいわき",
    "operation_time": "",
    "holiday": "",
    "latitude": "37.05077187",
    "longitude": "140.8980976",
    "tel": "070-3100-5372",
    "address": "いわき市平字三倉68-1イオンいわき3F",
    "access": "",
    "games": [
      "モンスター烈伝 オレカバトル2 パンドラのメダル"
    ]
  },
  {
    "name": "サープラ八潮あそびタウン",
    "operation_time": "9:00～24:00",
    "holiday": "無し",
    "latitude": "35.80837561",
    "longitude": "139.8437875",
    "tel": "048-994-5377",
    "address": "八潮市大瀬1-1-3フレスポ八潮3F",
    "access": "つくばエクスプレス・八潮駅隣接フレスポ八潮3F",
    "games": [
      "モンスター烈伝 オレカバトル2 パンドラのメダル"
    ]
  },
  {
    "name": "モーリーファンタジーサクラス戸塚",
    "operation_time": "",
    "holiday": "",
    "latitude": "35.40119542",
    "longitude": "139.5308857",
    "tel": "070-3100-3974",
    "address": "横浜市戸塚区戸塚町4253-1サクラス戸塚店2F",
    "access": "",
    "games": [
      "モンスター烈伝 オレカバトル2 パンドラのメダル"
    ]
  },
  {
    "name": "モーリーファンタジー東戸塚",
    "operation_time": "",
    "holiday": "",
    "latitude": "35.43028235",
    "longitude": "139.5613603",
    "tel": "070-3100-3980",
    "address": "横浜市戸塚区品濃町535-1イオン4F",
    "access": "",
    "games": [
      "モンスター烈伝 オレカバトル2 パンドラのメダル"
    ]
  },
  {
    "name": "namco流山おおたかの森S･C店",
    "operation_time": "",
    "holiday": "",
    "latitude": "35.87062736",
    "longitude": "139.9261371",
    "tel": "04-7156-5765",
    "address": "流山市西初石6-185-2流山おおたかの森S･C 3F",
    "access": "",
    "games": [
      "モンスター烈伝 オレカバトル2 パンドラのメダル"
    ]
  },
  {
    "name": "モーリーファンタジー水戸内原",
    "operation_time": "",
    "holiday": "",
    "latitude": "36.37522757",
    "longitude": "140.3595726",
    "tel": "070-1596-6644",
    "address": "水戸市中原町字西2-1イオンスタイル水戸内原3F",
    "access": "",
    "games": [
      "モンスター烈伝 オレカバトル2 パンドラのメダル"
    ]
  },
  {
    "name": "モーリーファンタジー天王町",
    "operation_time": "",
    "holiday": "",
    "latitude": "35.45820122",
    "longitude": "139.5997424",
    "tel": "080-3476-7851",
    "address": "横浜市保土ケ谷区川辺町3イオンスタイル天王町3F",
    "access": "",
    "games": [
      "モンスター烈伝 オレカバトル2 パンドラのメダル"
    ]
  },
  {
    "name": "モーリーファンタジークロスガーデン川崎",
    "operation_time": "",
    "holiday": "",
    "latitude": "35.53586734",
    "longitude": "139.6670419",
    "tel": "070-3100-5005",
    "address": "川崎市幸区小倉5-19-23クロスガーデン川崎店1F",
    "access": "",
    "games": [
      "モンスター烈伝 オレカバトル2 パンドラのメダル"
    ]
  },
  {
    "name": "ラウンドワン横浜駅西口店",
    "operation_time": "",
    "holiday": "",
    "latitude": "35.46393717",
    "longitude": "139.6180549",
    "tel": "045-412-0880",
    "address": "横浜市西区南幸2-8-16",
    "access": "",
    "games": [
      "モンスター烈伝 オレカバトル2 パンドラのメダル"
    ]
  },
  {
    "name": "タイトーFステーションオリナス錦糸町店",
    "operation_time": "10:00～23:45",
    "holiday": "無し",
    "latitude": "35.700721",
    "longitude": "139.816024",
    "tel": "03-5610-7376",
    "address": "墨田区太平4-1-2オリナスB1F",
    "access": "JR総武線錦糸町駅北口から徒歩5分",
    "games": [
      "モンスター烈伝 オレカバトル2 パンドラのメダル"
    ]
  },
  {
    "name": "モーリーファンタジー品川シーサイド",
    "operation_time": "",
    "holiday": "",
    "latitude": "35.61054535",
    "longitude": "139.7498049",
    "tel": "070-3100-5244",
    "address": "品川区東品川4-12-5イオン品川シーサイド2F",
    "access": "",
    "games": [
      "モンスター烈伝 オレカバトル2 パンドラのメダル"
    ]
  },
  {
    "name": "namco松戸店",
    "operation_time": "",
    "holiday": "",
    "latitude": "35.783581",
    "longitude": "139.900789",
    "tel": "047-711-7274",
    "address": "松戸市松戸1230-1ピアザ松戸1F",
    "access": "",
    "games": [
      "モンスター烈伝 オレカバトル2 パンドラのメダル"
    ]
  },
  {
    "name": "タイトーステーションBIGFUN平和島店",
    "operation_time": "",
    "holiday": "",
    "latitude": "35.586122",
    "longitude": "139.740355",
    "tel": "03-5762-7446",
    "address": "大田区平和島1-1-1BIGFUN平和島3F",
    "access": "",
    "games": [
      "モンスター烈伝 オレカバトル2 パンドラのメダル"
    ]
  },
  {
    "name": "モーリーファンタジー柏",
    "operation_time": "",
    "holiday": "",
    "latitude": "35.85186688",
    "longitude": "139.9619178",
    "tel": "070-3100-4533",
    "address": "柏市豊町2-5-25イオン柏2F",
    "access": "",
    "games": [
      "モンスター烈伝 オレカバトル2 パンドラのメダル"
    ]
  },
  {
    "name": "ジアス上大岡店",
    "operation_time": "10:00～24:00",
    "holiday": "無し",
    "latitude": "35.40665354",
    "longitude": "139.5960833",
    "tel": "045-847-4780",
    "address": "横浜市港南区上大岡西2-1-28赤い風船ビル2F",
    "access": "京浜急行「上大岡駅」下車徒歩3分、横浜市営地下鉄「上大岡駅」下車徒歩1分赤い風船モールパート1 1階",
    "games": [
      "モンスター烈伝 オレカバトル2 パンドラのメダル"
    ]
  },
  {
    "name": "モーリーファンタジーいわき小名浜",
    "operation_time": "",
    "holiday": "",
    "latitude": "36.94665621",
    "longitude": "140.9028203",
    "tel": "070-3100-5503",
    "address": "いわき市小名浜字辰巳町79イオンスタイル4F",
    "access": "",
    "games": [
      "モンスター烈伝 オレカバトル2 パンドラのメダル"
    ]
  },
  {
    "name": "ラウンドワンダイバーシティ東京プラザ店",
    "operation_time": "",
    "holiday": "",
    "latitude": "35.62521",
    "longitude": "139.775732",
    "tel": "03-3527-8491",
    "address": "江東区青海1-1-10ダイバーシティ東京6F-6100",
    "access": "",
    "games": [
      "モンスター烈伝 オレカバトル2 パンドラのメダル"
    ]
  },
  {
    "name": "シルクハット川崎ダイス",
    "operation_time": "9:00～24:45",
    "holiday": "無し",
    "latitude": "35.5314121",
    "longitude": "139.7002166",
    "tel": "",
    "address": "川崎市川崎区駅前本町8ダイスビルB2F",
    "access": "JR川崎駅アゼリア地下街と直結、京急川崎駅中央口徒歩1分",
    "games": [
      "モンスター烈伝 オレカバトル2 パンドラのメダル"
    ]
  },
  {
    "name": "ハローズガーデン北砂",
    "operation_time": "",
    "holiday": "",
    "latitude": "35.68249431",
    "longitude": "139.8256244",
    "tel": "03-5653-5530",
    "address": "江東区北砂2-17-1アリオ北砂店アリオモール3F",
    "access": "",
    "games": [
      "モンスター烈伝 オレカバトル2 パンドラのメダル"
    ]
  },
  {
    "name": "モーリーファンタジー港南台",
    "operation_time": "",
    "holiday": "",
    "latitude": "35.37581518",
    "longitude": "139.5772972",
    "tel": "070-3100-3799",
    "address": "横浜市港南区港南台3-1-2イオンフードスタイル4F",
    "access": "",
    "games": [
      "モンスター烈伝 オレカバトル2 パンドラのメダル"
    ]
  },
  {
    "name": "モーリーファンタジーつくば",
    "operation_time": "",
    "holiday": "",
    "latitude": "36.0355029",
    "longitude": "140.1345728",
    "tel": "070-3100-4255",
    "address": "つくば市稲岡66-1イオンつくば3F",
    "access": "",
    "games": [
      "モンスター烈伝 オレカバトル2 パンドラのメダル"
    ]
  },
  {
    "name": "モーリーファンタジー南砂",
    "operation_time": "",
    "holiday": "",
    "latitude": "35.67163577",
    "longitude": "139.835979",
    "tel": "070-3100-4050",
    "address": "江東区南砂6-7-15イオン3F",
    "access": "",
    "games": [
      "モンスター烈伝 オレカバトル2 パンドラのメダル"
    ]
  },
  {
    "name": "ラウンドワン南砂店",
    "operation_time": "",
    "holiday": "",
    "latitude": "35.67184786",
    "longitude": "139.8361845",
    "tel": "03-5617-6911",
    "address": "江東区南砂6-7-15トピレックプラザ4F",
    "access": "",
    "games": [
      "モンスター烈伝 オレカバトル2 パンドラのメダル"
    ]
  },
  {
    "name": "モーリーファンタジー川崎小田栄",
    "operation_time": "",
    "holiday": "",
    "latitude": "35.51479577",
    "longitude": "139.706934",
    "tel": "070-3100-3977",
    "address": "川崎市川崎区小田栄2-3-1ホームセンターコーナン2F",
    "access": "",
    "games": [
      "モンスター烈伝 オレカバトル2 パンドラのメダル"
    ]
  },
  {
    "name": "モーリーファンタジー土浦",
    "operation_time": "",
    "holiday": "",
    "latitude": "36.08016697",
    "longitude": "140.1808389",
    "tel": "070-3100-4588",
    "address": "土浦市上高津367イオン土浦3F",
    "access": "",
    "games": [
      "モンスター烈伝 オレカバトル2 パンドラのメダル"
    ]
  },
  {
    "name": "タイトーステーション南砂町SUNAMO店",
    "operation_time": "",
    "holiday": "",
    "latitude": "35.66562168",
    "longitude": "139.8356003",
    "tel": "03-6666-8395",
    "address": "江東区新砂3-4-31南砂町SUNAMO4F",
    "access": "",
    "games": [
      "モンスター烈伝 オレカバトル2 パンドラのメダル"
    ]
  },
  {
    "name": "ラウンドワン川崎大師店",
    "operation_time": "",
    "holiday": "",
    "latitude": "35.53846653",
    "longitude": "139.741634",
    "tel": "044-270-1541",
    "address": "川崎市川崎区殿町1-5-1",
    "access": "",
    "games": [
      "モンスター烈伝 オレカバトル2 パンドラのメダル"
    ]
  },
  {
    "name": "モーリーファンタジー葛西",
    "operation_time": "",
    "holiday": "",
    "latitude": "35.66903836",
    "longitude": "139.858374",
    "tel": "070-3100-5258",
    "address": "江戸川区西葛西3-9-19イオン葛西3F",
    "access": "",
    "games": [
      "モンスター烈伝 オレカバトル2 パンドラのメダル"
    ]
  },
  {
    "name": "ラウンドワンアリオ柏店",
    "operation_time": "",
    "holiday": "",
    "latitude": "35.832403",
    "longitude": "140.012023",
    "tel": "04-7190-1201",
    "address": "柏市大島田1-6-1セブンパークアリオ柏 1070",
    "access": "",
    "games": [
      "モンスター烈伝 オレカバトル2 パンドラのメダル"
    ]
  },
  {
    "name": "ラウンドワン市川鬼高店",
    "operation_time": "",
    "holiday": "",
    "latitude": "35.711239",
    "longitude": "139.927465",
    "tel": "047-320-3801",
    "address": "市川市鬼高4-1-3",
    "access": "",
    "games": [
      "モンスター烈伝 オレカバトル2 パンドラのメダル"
    ]
  },
  {
    "name": "PALO市川",
    "operation_time": "",
    "holiday": "",
    "latitude": "35.71761208",
    "longitude": "139.9337887",
    "tel": "070-3100-3769",
    "address": "市川市鬼高1-1-1ニッケコルトンプラザ2F",
    "access": "",
    "games": [
      "モンスター烈伝 オレカバトル2 パンドラのメダル"
    ]
  },
  {
    "name": "モーリーファンタジー東海",
    "operation_time": "",
    "holiday": "",
    "latitude": "36.46317542",
    "longitude": "140.566906",
    "tel": "070-3100-5284",
    "address": "那珂郡東海村舟石川駅東4-1-1イオン2F",
    "access": "",
    "games": [
      "モンスター烈伝 オレカバトル2 パンドラのメダル"
    ]
  },
  {
    "name": "モーリーファンタジー金沢八景",
    "operation_time": "",
    "holiday": "",
    "latitude": "35.33370297",
    "longitude": "139.6223894",
    "tel": "070-3100-4623",
    "address": "横浜市金沢区泥亀1-27-1イオン2F",
    "access": "",
    "games": [
      "モンスター烈伝 オレカバトル2 パンドラのメダル"
    ]
  },
  {
    "name": "モーリーファンタジーソコラ南行徳",
    "operation_time": "",
    "holiday": "",
    "latitude": "35.66852929",
    "longitude": "139.9058786",
    "tel": "070-3100-3776",
    "address": "市川市南行徳2-20-25SOCOLA南行徳2F",
    "access": "",
    "games": [
      "モンスター烈伝 オレカバトル2 パンドラのメダル"
    ]
  },
  {
    "name": "タイトーFステーション市川妙典店",
    "operation_time": "施設の営業時間に準じる",
    "holiday": "施設の営業日に準じる",
    "latitude": "35.69246485",
    "longitude": "139.9267286",
    "tel": "047-318-3933",
    "address": "市川市妙典4-1-1イオン市川妙典店2番街2F",
    "access": "",
    "games": [
      "モンスター烈伝 オレカバトル2 パンドラのメダル"
    ]
  },
  {
    "name": "モーリーファンタジー鎌ヶ谷",
    "operation_time": "",
    "holiday": "",
    "latitude": "35.77845195",
    "longitude": "140.0011226",
    "tel": "070-3100-4995",
    "address": "鎌ヶ谷市新鎌ヶ谷2-7-1イオン鎌ヶ谷2F",
    "access": "",
    "games": [
      "モンスター烈伝 オレカバトル2 パンドラのメダル"
    ]
  },
  {
    "name": "モーリーファンタジー船橋",
    "operation_time": "",
    "holiday": "",
    "latitude": "35.71257666",
    "longitude": "139.9781064",
    "tel": "070-3100-4275",
    "address": "船橋市山手1-1-8イオン新船橋3F",
    "access": "",
    "games": [
      "モンスター烈伝 オレカバトル2 パンドラのメダル"
    ]
  },
  {
    "name": "モーリーファンタジー千葉ニュータウン",
    "operation_time": "",
    "holiday": "",
    "latitude": "35.80292717",
    "longitude": "140.1137334",
    "tel": "070-3100-4051",
    "address": "印西市中央北3-1-1イオン3F",
    "access": "",
    "games": [
      "モンスター烈伝 オレカバトル2 パンドラのメダル"
    ]
  },
  {
    "name": "モーリーファンタジー津田沼",
    "operation_time": "",
    "holiday": "",
    "latitude": "35.69025676",
    "longitude": "140.0249065",
    "tel": "070-3100-4960",
    "address": "習志野市津田沼1-23-1イオン津田沼3F",
    "access": "",
    "games": [
      "モンスター烈伝 オレカバトル2 パンドラのメダル"
    ]
  },
  {
    "name": "モーリーファンタジー八千代緑が丘",
    "operation_time": "",
    "holiday": "",
    "latitude": "35.72787699",
    "longitude": "140.0731703",
    "tel": "070-1596-6646",
    "address": "八千代市緑が丘2-1-3イオン八千代緑が丘4F",
    "access": "",
    "games": [
      "モンスター烈伝 オレカバトル2 パンドラのメダル"
    ]
  },
  {
    "name": "ラウンドワン習志野店",
    "operation_time": "",
    "holiday": "",
    "latitude": "35.660295",
    "longitude": "140.022576",
    "tel": "047-408-1901",
    "address": "習志野市芝園1-4-5",
    "access": "",
    "games": [
      "モンスター烈伝 オレカバトル2 パンドラのメダル"
    ]
  },
  {
    "name": "モーリーファンタジー幕張新都心",
    "operation_time": "",
    "holiday": "",
    "latitude": "35.65629236",
    "longitude": "140.026947",
    "tel": "070-3100-4250",
    "address": "千葉市美浜区豊砂1-5イオン幕張新都心エキマエ2F",
    "access": "",
    "games": [
      "モンスター烈伝 オレカバトル2 パンドラのメダル"
    ]
  },
  {
    "name": "モーリーファンタジー久里浜",
    "operation_time": "",
    "holiday": "",
    "latitude": "35.22846111",
    "longitude": "139.7040189",
    "tel": "070-3100-4842",
    "address": "横須賀市久里浜5-13-1イオン久里浜2F",
    "access": "",
    "games": [
      "モンスター烈伝 オレカバトル2 パンドラのメダル"
    ]
  },
  {
    "name": "ラッキー佐倉店",
    "operation_time": "10:00～23:45",
    "holiday": "無し",
    "latitude": "35.71839979",
    "longitude": "140.1362206",
    "tel": "043-460-5165",
    "address": "佐倉市井野1475",
    "access": "京成線勝田台駅下車徒歩10分 国道296号沿い",
    "games": [
      "モンスター烈伝 オレカバトル2 パンドラのメダル"
    ]
  },
  {
    "name": "モーリーファンタジーユーカリが丘",
    "operation_time": "",
    "holiday": "",
    "latitude": "35.72686548",
    "longitude": "140.1511016",
    "tel": "070-3100-3764",
    "address": "佐倉市西ユーカリが丘6-12-3イオンタウンユーカリが丘3F",
    "access": "",
    "games": [
      "モンスター烈伝 オレカバトル2 パンドラのメダル"
    ]
  },
  {
    "name": "スポーツウェーブ鉄腕24稲毛長沼店",
    "operation_time": "一部24時間営業",
    "holiday": "無し",
    "latitude": "35.66179317",
    "longitude": "140.1264239",
    "tel": "043-215-5560",
    "address": "千葉市稲毛区長沼原町697",
    "access": "東関東自動車道 千葉北ICから約5分 千葉総合運動場そば",
    "games": [
      "モンスター烈伝 オレカバトル2 パンドラのメダル"
    ]
  },
  {
    "name": "モーリーファンタジー木更津",
    "operation_time": "",
    "holiday": "",
    "latitude": "35.36729256",
    "longitude": "139.9080754",
    "tel": "070-3100-4232",
    "address": "木更津市築地1-4イオン木更津2F",
    "access": "",
    "games": [
      "モンスター烈伝 オレカバトル2 パンドラのメダル"
    ]
  },
  {
    "name": "タイトーステーションアリオ蘇我店",
    "operation_time": "10:00～22:00",
    "holiday": "無し",
    "latitude": "35.5875372",
    "longitude": "140.1222051",
    "tel": "043-209-6761",
    "address": "千葉市中央区川崎町52-7アリオ蘇我2F",
    "access": "JR蘇我駅西口より徒歩15分、無料シャトルバス有(9:00～22:00)",
    "games": [
      "モンスター烈伝 オレカバトル2 パンドラのメダル"
    ]
  },
  {
    "name": "モーリーファンタジー成田",
    "operation_time": "",
    "holiday": "",
    "latitude": "35.79456417",
    "longitude": "140.3207916",
    "tel": "070-3100-4025",
    "address": "成田市ウイング土屋24イオンスタイル2F",
    "access": "",
    "games": [
      "モンスター烈伝 オレカバトル2 パンドラのメダル"
    ]
  },
  {
    "name": "スポーツウェーブ鉄腕24浜野店",
    "operation_time": "一部24時間営業",
    "holiday": "無し",
    "latitude": "35.55423187",
    "longitude": "140.1264305",
    "tel": "043-300-8033",
    "address": "千葉市中央区浜野町1025-59",
    "access": "館山自動車道蘇我ICより車で8分",
    "games": [
      "モンスター烈伝 オレカバトル2 パンドラのメダル"
    ]
  },
  {
    "name": "ラウンドワン市原店",
    "operation_time": "",
    "holiday": "",
    "latitude": "35.54749256",
    "longitude": "140.1233239",
    "tel": "0436-44-8801",
    "address": "市原市八幡北町3-5-1",
    "access": "",
    "games": [
      "モンスター烈伝 オレカバトル2 パンドラのメダル"
    ]
  },
  {
    "name": "モーリーファンタジー佐原東",
    "operation_time": "",
    "holiday": "",
    "latitude": "35.91873776",
    "longitude": "140.4883368",
    "tel": "070-3100-4006",
    "address": "稲敷市西代1495パルナ2F",
    "access": "",
    "games": [
      "モンスター烈伝 オレカバトル2 パンドラのメダル"
    ]
  },
  {
    "name": "モーリーファンタジー館山",
    "operation_time": "",
    "holiday": "",
    "latitude": "35.00688805",
    "longitude": "139.8616275",
    "tel": "070-3100-7404",
    "address": "館山市八幡545-1イオン館山1F",
    "access": "",
    "games": [
      "モンスター烈伝 オレカバトル2 パンドラのメダル"
    ]
  },
  {
    "name": "モーリーファンタジー銚子",
    "operation_time": "",
    "holiday": "",
    "latitude": "35.71036621",
    "longitude": "140.7881638",
    "tel": "070-3100-4259",
    "address": "銚子市三崎町2-2660-1イオン銚子2F",
    "access": "",
    "games": [
      "モンスター烈伝 オレカバトル2 パンドラのメダル"
    ]
  }
]