[
  {
    "name": "G-pala小倉店",
    "operation_time": "",
    "holiday": "",
    "latitude": "33.83945824",
    "longitude": "130.9109857",
    "tel": "093-953-7405",
    "address": "北九州市小倉南区上葛原1-14-1",
    "access": "",
    "games": [
      "パワフルプロ野球 開幕メダルシリーズ！"
    ]
  },
  {
    "name": "アミパラ広島店",
    "operation_time": "10:00～24:00",
    "holiday": "無し",
    "latitude": "34.39350431",
    "longitude": "132.4360428",
    "tel": "082-297-7135",
    "address": "広島市西区西観音町3-17",
    "access": "平和大通り沿い、西区区役所から東へすぐ",
    "games": [
      "パワフルプロ野球 開幕メダルシリーズ！"
    ]
  },
  {
    "name": "アミパラ松山店",
    "operation_time": "10:00～24:00",
    "holiday": "無し",
    "latitude": "33.833875",
    "longitude": "132.744981",
    "tel": "089-913-5533",
    "address": "松山市生石町655-1",
    "access": "JR松山駅から南西1km 国道196号線沿い",
    "games": [
      "パワフルプロ野球 開幕メダルシリーズ！"
    ]
  },
  {
    "name": "あみぱらんど福山店",
    "operation_time": "10:00～24:00",
    "holiday": "無し",
    "latitude": "34.48795195",
    "longitude": "133.3784594",
    "tel": "0849-25-6188",
    "address": "福山市三吉町南2-8-24",
    "access": "国道2号線沿い、福山警察署から東へすぐ",
    "games": [
      "パワフルプロ野球 開幕メダルシリーズ！"
    ]
  },
  {
    "name": "アミパラ倉敷店",
    "operation_time": "10:00～24:00",
    "holiday": "無し",
    "latitude": "34.58364137",
    "longitude": "133.7712207",
    "tel": "086-430-2111",
    "address": "倉敷市西中新田624-1アミパラボウル1F",
    "access": "倉敷市役所前、アミパラボウル1F",
    "games": [
      "パワフルプロ野球 開幕メダルシリーズ！"
    ]
  },
  {
    "name": "アミパラ岡山店",
    "operation_time": "10:00～24:00",
    "holiday": "無し",
    "latitude": "34.63615978",
    "longitude": "133.919988",
    "tel": "086-235-3332",
    "address": "岡山市北区青江1-13-8",
    "access": "2号線バイパス・青江交差点から北へすぐ",
    "games": [
      "パワフルプロ野球 開幕メダルシリーズ！"
    ]
  },
  {
    "name": "アミパラ高松店",
    "operation_time": "",
    "holiday": "",
    "latitude": "34.30701859",
    "longitude": "134.0591822",
    "tel": "087-899-8868",
    "address": "高松市伏石町2168-2",
    "access": "",
    "games": [
      "パワフルプロ野球 開幕メダルシリーズ！"
    ]
  },
  {
    "name": "キャッツアイ新札幌店",
    "operation_time": "10:00～24:00",
    "holiday": "無し",
    "latitude": "43.04493545",
    "longitude": "141.4754191",
    "tel": "011-899-1500",
    "address": "札幌市厚別区厚別東5条1-2-10",
    "access": "JR、札幌市営地下鉄新札幌駅下車徒歩20分",
    "games": [
      "パワフルプロ野球 開幕メダルシリーズ！"
    ]
  },
  {
    "name": "ゲームSPOT207",
    "operation_time": "7:00～24:00",
    "holiday": "無し",
    "latitude": "36.73235328",
    "longitude": "137.0023356",
    "tel": "0766-26-2070",
    "address": "高岡市鐘紡町1655-3",
    "access": "JR高岡駅から車で15分",
    "games": [
      "パワフルプロ野球 開幕メダルシリーズ！"
    ]
  },
  {
    "name": "アミパラ久御山店",
    "operation_time": "",
    "holiday": "",
    "latitude": "34.895478",
    "longitude": "135.747069",
    "tel": "075-754-7722",
    "address": "久世郡久御山町大字森大内337イオンタウン久御山内",
    "access": "",
    "games": [
      "パワフルプロ野球 開幕メダルシリーズ！"
    ]
  },
  {
    "name": "アミパラ草津店",
    "operation_time": "",
    "holiday": "",
    "latitude": "35.01928425",
    "longitude": "135.9424723",
    "tel": "077-569-4499",
    "address": "草津市木川町72",
    "access": "",
    "games": [
      "パワフルプロ野球 開幕メダルシリーズ！"
    ]
  },
  {
    "name": "アミパラ橿原店",
    "operation_time": "",
    "holiday": "",
    "latitude": "34.52935645",
    "longitude": "135.7966131",
    "tel": "0744-25-0550",
    "address": "橿原市十市町1222-1ツインゲート橿原1F",
    "access": "",
    "games": [
      "パワフルプロ野球 開幕メダルシリーズ！"
    ]
  },
  {
    "name": "ハローズガーデン安城南",
    "operation_time": "",
    "holiday": "",
    "latitude": "34.920207",
    "longitude": "137.087751",
    "tel": "070-1275-2977",
    "address": "安城市桜井町貝戸尻60アピタ安城南店2F",
    "access": "",
    "games": [
      "パワフルプロ野球 開幕メダルシリーズ！"
    ]
  },
  {
    "name": "タイトーFステーションおやまゆうえん店",
    "operation_time": "",
    "holiday": "",
    "latitude": "36.334678",
    "longitude": "139.807785",
    "tel": "0285-25-8661",
    "address": "小山市喜沢1475-52ハーヴェストウォーク内",
    "access": "",
    "games": [
      "パワフルプロ野球 開幕メダルシリーズ！"
    ]
  }
]