[
  {
    "name": "ジョイジャングル石垣店",
    "operation_time": "",
    "holiday": "",
    "latitude": "24.33557408",
    "longitude": "124.179625",
    "tel": "0980-83-4171",
    "address": "石垣市字真栄里239-18",
    "access": "",
    "games": [
      "pop'n music シリーズ"
    ]
  },
  {
    "name": "三冠王",
    "operation_time": "10:00～24:00",
    "holiday": "無し",
    "latitude": "33.19079873",
    "longitude": "129.6528712",
    "tel": "0956-47-2141",
    "address": "佐世保市相浦町2689-1",
    "access": "松浦電鉄「相浦」下車車10分ほど。",
    "games": [
      "pop'n music シリーズ"
    ]
  },
  {
    "name": "アミパラ佐世保店",
    "operation_time": "10:00～24:00",
    "holiday": "無し",
    "latitude": "33.15005741",
    "longitude": "129.7804145",
    "tel": "0956-34-8880",
    "address": "佐世保市大塔町18-15",
    "access": "JR大塔駅徒歩3分",
    "games": [
      "pop'n music シリーズ"
    ]
  },
  {
    "name": "楽市楽座イオンモール福岡伊都店",
    "operation_time": "10:00～22:00",
    "holiday": "施設の営業日に準じる",
    "latitude": "33.577027",
    "longitude": "130.256399",
    "tel": "092-805-8900",
    "address": "福岡市西区北原1-3-1イオン伊都ショッピンクセンター別館",
    "access": "JR筑肥線 九大学研都市駅 南口すぐ",
    "games": [
      "pop'n music シリーズ"
    ]
  },
  {
    "name": "G-STAGE浜町店",
    "operation_time": "",
    "holiday": "",
    "latitude": "32.74478285",
    "longitude": "129.8775841",
    "tel": "095-895-5523",
    "address": "長崎市浜町2-26",
    "access": "",
    "games": [
      "pop'n music シリーズ"
    ]
  },
  {
    "name": "G-STAGE七隈店",
    "operation_time": "10:00～24:00",
    "holiday": "無し",
    "latitude": "33.55178855",
    "longitude": "130.3649354",
    "tel": "092-861-4856",
    "address": "福岡市城南区七隈8-4-8",
    "access": "七隈ファミリープラザ内",
    "games": [
      "pop'n music シリーズ"
    ]
  },
  {
    "name": "タイトーステーション福岡天神店",
    "operation_time": "10:00～翌1:00",
    "holiday": "無し",
    "latitude": "33.5896519",
    "longitude": "130.3962521",
    "tel": "092-737-5500",
    "address": "福岡市中央区天神2-6-35サザンクロスビル",
    "access": "西鉄福岡駅北口より徒歩2分",
    "games": [
      "pop'n music シリーズ"
    ]
  },
  {
    "name": "GiGO福岡天神",
    "operation_time": "",
    "holiday": "",
    "latitude": "33.589905",
    "longitude": "130.396633",
    "tel": "092-771-8121",
    "address": "福岡市中央区天神2-7-6天神DADAビル",
    "access": "",
    "games": [
      "pop'n music シリーズ"
    ]
  },
  {
    "name": "ラウンドワン福岡天神店",
    "operation_time": "",
    "holiday": "",
    "latitude": "33.58960223",
    "longitude": "130.3968402",
    "tel": "092-720-8101",
    "address": "福岡市中央区天神2-6-12",
    "access": "",
    "games": [
      "pop'n music シリーズ"
    ]
  },
  {
    "name": "パスカランド博多店",
    "operation_time": "",
    "holiday": "",
    "latitude": "33.61129",
    "longitude": "130.41146",
    "tel": "092-409-2622",
    "address": "福岡市東区東浜1-1-1ゆめタウン博多店2F",
    "access": "",
    "games": [
      "pop'n music シリーズ"
    ]
  },
  {
    "name": "楽市街道箱崎店2F",
    "operation_time": "10:00～27:00",
    "holiday": "無し",
    "latitude": "33.62410817",
    "longitude": "130.4195897",
    "tel": "092-642-0760",
    "address": "福岡市東区箱崎5-1-8楽市街道箱崎店内2F",
    "access": "",
    "games": [
      "pop'n music シリーズ"
    ]
  },
  {
    "name": "namco博多バスターミナル店",
    "operation_time": "",
    "holiday": "",
    "latitude": "33.591529",
    "longitude": "130.419887",
    "tel": "092-434-3721",
    "address": "福岡市博多区博多駅中央街2-1博多バスターミナル7F",
    "access": "",
    "games": [
      "pop'n music シリーズ"
    ]
  },
  {
    "name": "ラウンドワン博多半道橋店",
    "operation_time": "",
    "holiday": "",
    "latitude": "33.58394157",
    "longitude": "130.4382666",
    "tel": "092-475-6611",
    "address": "福岡市博多区半道橋2-2-8",
    "access": "",
    "games": [
      "pop'n music シリーズ"
    ]
  },
  {
    "name": "遊道楽 嘉瀬店",
    "operation_time": "11:00～24:00",
    "holiday": "無し",
    "latitude": "33.24215325",
    "longitude": "130.2565663",
    "tel": "0952-40-0952",
    "address": "佐賀市嘉瀬町大字中原2488-1",
    "access": "207号線沿い",
    "games": [
      "pop'n music シリーズ"
    ]
  },
  {
    "name": "ラウンドワン佐賀店",
    "operation_time": "",
    "holiday": "",
    "latitude": "33.27533631",
    "longitude": "130.3015536",
    "tel": "0952-36-7070",
    "address": "佐賀市兵庫北4-2-1",
    "access": "",
    "games": [
      "pop'n music シリーズ"
    ]
  },
  {
    "name": "ラウンドワン大野城店",
    "operation_time": "",
    "holiday": "",
    "latitude": "33.54646948",
    "longitude": "130.4822214",
    "tel": "092-504-7411",
    "address": "大野城市御笠川1-18-16",
    "access": "",
    "games": [
      "pop'n music シリーズ"
    ]
  },
  {
    "name": "楽市楽座黒崎店",
    "operation_time": "10:00～24:00",
    "holiday": "無し",
    "latitude": "33.86569306",
    "longitude": "130.7560829",
    "tel": "093-621-4800",
    "address": "北九州市八幡西区桜ヶ丘町1-3フレスポ黒崎2F",
    "access": "JR黒崎駅近く国道3号線沿い",
    "games": [
      "pop'n music シリーズ"
    ]
  },
  {
    "name": "ラウンドワン小倉店",
    "operation_time": "",
    "holiday": "",
    "latitude": "33.89742877",
    "longitude": "130.8598475",
    "tel": "093-562-8805",
    "address": "北九州市小倉北区西港町15-65",
    "access": "",
    "games": [
      "pop'n music シリーズ"
    ]
  },
  {
    "name": "遊道楽新合川",
    "operation_time": "10:00～24:00",
    "holiday": "無し",
    "latitude": "33.32176241",
    "longitude": "130.541007",
    "tel": "0942-45-3335",
    "address": "久留米市新合川1-6-7",
    "access": "国道210号線バイパス沿い",
    "games": [
      "pop'n music シリーズ"
    ]
  },
  {
    "name": "PEP魚町",
    "operation_time": "10:00～翌1:00",
    "holiday": "無し",
    "latitude": "33.88396547",
    "longitude": "130.880026",
    "tel": "093-513-1511",
    "address": "北九州市小倉北区魚町2-4-20",
    "access": "モノレール平和通り駅徒歩1分",
    "games": [
      "pop'n music シリーズ"
    ]
  },
  {
    "name": "G-STAGE小倉店",
    "operation_time": "10:00～20:00",
    "holiday": "無し",
    "latitude": "33.88758128",
    "longitude": "130.8847829",
    "tel": "093-551-3133",
    "address": "北九州市小倉北区浅野2-14-5",
    "access": "小倉駅前あるあるシティ2F",
    "games": [
      "pop'n music シリーズ"
    ]
  },
  {
    "name": "アミパラ下関長府店",
    "operation_time": "10:00～24:00",
    "holiday": "無し",
    "latitude": "34.02547781",
    "longitude": "131.0073811",
    "tel": "083-248-5008",
    "address": "下関市長府才川1-42-48",
    "access": "JR長府駅徒歩12分",
    "games": [
      "pop'n music シリーズ"
    ]
  },
  {
    "name": "G-pala小倉店",
    "operation_time": "",
    "holiday": "",
    "latitude": "33.83945824",
    "longitude": "130.9109857",
    "tel": "093-953-7405",
    "address": "北九州市小倉南区上葛原1-14-1",
    "access": "",
    "games": [
      "pop'n music シリーズ"
    ]
  },
  {
    "name": "パスカワールドグリーンランド",
    "operation_time": "10:00～翌3:00",
    "holiday": "無し",
    "latitude": "32.98790587",
    "longitude": "130.4711246",
    "tel": "0968-69-3001",
    "address": "荒尾市本井手1574-54",
    "access": "三井グリーンランドウルトラマンランド横",
    "games": [
      "pop'n music シリーズ"
    ]
  },
  {
    "name": "GAME･パフェ 萩店",
    "operation_time": "",
    "holiday": "",
    "latitude": "34.41659192",
    "longitude": "131.4100388",
    "tel": "083-223-3848",
    "address": "萩市大字椿東3000-5萩ロイヤルインテリジェントH 2F",
    "access": "",
    "games": [
      "pop'n music シリーズ"
    ]
  },
  {
    "name": "アレックス",
    "operation_time": "9:00～24:00",
    "holiday": "",
    "latitude": "33.999394",
    "longitude": "131.220089",
    "tel": "0836-39-3587",
    "address": "宇部市西宇部南3-5-53",
    "access": "",
    "games": [
      "pop'n music シリーズ"
    ]
  },
  {
    "name": "ラウンドワン熊本店",
    "operation_time": "",
    "holiday": "",
    "latitude": "32.78499883",
    "longitude": "130.6775647",
    "tel": "096-325-7200",
    "address": "熊本市西区春日7-25-15",
    "access": "",
    "games": [
      "pop'n music シリーズ"
    ]
  },
  {
    "name": "スポラ九品寺",
    "operation_time": "10:00～翌3:00",
    "holiday": "無し",
    "latitude": "32.79041868",
    "longitude": "130.7149285",
    "tel": "096-372-5700",
    "address": "熊本市中央区九品寺5-10-15",
    "access": "JR豊肥本線南熊本駅徒歩10分",
    "games": [
      "pop'n music シリーズ"
    ]
  },
  {
    "name": "トライセン中津店",
    "operation_time": "10:00～24:00",
    "holiday": "無し",
    "latitude": "33.58950451",
    "longitude": "131.2110968",
    "tel": "0979-85-0688",
    "address": "中津市下池永67-3",
    "access": "",
    "games": [
      "pop'n music シリーズ"
    ]
  },
  {
    "name": "タイトーFステーションニシムタ出水",
    "operation_time": "",
    "holiday": "",
    "latitude": "32.106272",
    "longitude": "130.345224",
    "tel": "0996-68-8150",
    "address": "出水市六月田町347",
    "access": "",
    "games": [
      "pop'n music シリーズ"
    ]
  },
  {
    "name": "PALO防府",
    "operation_time": "",
    "holiday": "",
    "latitude": "34.0522015",
    "longitude": "131.5685841",
    "tel": "070-3100-3731",
    "address": "防府市中央町1-3イオン防府店3F",
    "access": "",
    "games": [
      "pop'n music シリーズ"
    ]
  },
  {
    "name": "モーリーファンタジー那覇",
    "operation_time": "10:00～22:00",
    "holiday": "無し",
    "latitude": "26.19689585",
    "longitude": "127.6658336",
    "tel": "070-3100-5314",
    "address": "那覇市金城5-10-2イオン那覇3F",
    "access": "モノレール 小禄駅 正面 ジャスコ那覇店内3F",
    "games": [
      "pop'n music シリーズ"
    ]
  },
  {
    "name": "ラウンドワン沖縄･宜野湾店",
    "operation_time": "",
    "holiday": "",
    "latitude": "26.27580261",
    "longitude": "127.7310389",
    "tel": "098-870-2110",
    "address": "宜野湾市真志喜3-28-8",
    "access": "",
    "games": [
      "pop'n music シリーズ"
    ]
  },
  {
    "name": "ラウンドワン沖縄･南風原店",
    "operation_time": "",
    "holiday": "",
    "latitude": "26.19509176",
    "longitude": "127.7210653",
    "tel": "098-940-6670",
    "address": "島尻郡南風原町字兼城下茂原552",
    "access": "",
    "games": [
      "pop'n music シリーズ"
    ]
  },
  {
    "name": "ラウンドワン鹿児島宇宿店",
    "operation_time": "",
    "holiday": "",
    "latitude": "31.54388304",
    "longitude": "130.5427759",
    "tel": "099-284-0655",
    "address": "鹿児島市宇宿2-2-2",
    "access": "",
    "games": [
      "pop'n music シリーズ"
    ]
  },
  {
    "name": "アミューズメントスペース遊ランド稚内店",
    "operation_time": "",
    "holiday": "",
    "latitude": "45.40077226",
    "longitude": "141.6807113",
    "tel": "0162-22-2233",
    "address": "稚内市港5-8-15",
    "access": "",
    "games": [
      "pop'n music シリーズ"
    ]
  },
  {
    "name": "タイトーFステーションセントポルタ大分店",
    "operation_time": "",
    "holiday": "",
    "latitude": "33.235334",
    "longitude": "131.606448",
    "tel": "097-533-2716",
    "address": "大分市中央町2-1-1",
    "access": "",
    "games": [
      "pop'n music シリーズ"
    ]
  },
  {
    "name": "ラウンドワン大分店",
    "operation_time": "",
    "holiday": "",
    "latitude": "33.24885259",
    "longitude": "131.6402543",
    "tel": "097-573-2800",
    "address": "大分市萩原2-13-17",
    "access": "",
    "games": [
      "pop'n music シリーズ"
    ]
  },
  {
    "name": "スペースV1廿日市店",
    "operation_time": "10:00～24:00",
    "holiday": "無し",
    "latitude": "34.35185323",
    "longitude": "132.3340207",
    "tel": "0829-34-3311",
    "address": "廿日市市本町4-23",
    "access": "山陽本線廿日市駅下車2号線沿い東へ徒歩15分",
    "games": [
      "pop'n music シリーズ"
    ]
  },
  {
    "name": "PALO松江",
    "operation_time": "",
    "holiday": "",
    "latitude": "35.4639773",
    "longitude": "133.0683985",
    "tel": "070-3100-4323",
    "address": "松江市東朝日町151イオン松江3F",
    "access": "",
    "games": [
      "pop'n music シリーズ"
    ]
  },
  {
    "name": "トライセン萩原店",
    "operation_time": "ボウリングコーナー:10:00～24:00 ゲームコーナー:7:00～翌3:00",
    "holiday": "無し",
    "latitude": "33.249338",
    "longitude": "131.643415",
    "tel": "097-556-2188",
    "address": "大分市萩原4-227-1ACS内3F",
    "access": "臨界産業道路沿い 大洲総合運動公園近く",
    "games": [
      "pop'n music シリーズ"
    ]
  },
  {
    "name": "ブラックジャックアクア",
    "operation_time": "10:00～24:00",
    "holiday": "無し",
    "latitude": "34.46868445",
    "longitude": "132.4628776",
    "tel": "082-831-3344",
    "address": "広島市安佐南区大町東4-12-11",
    "access": "アストラムライン 毘沙門台駅 徒歩4分",
    "games": [
      "pop'n music シリーズ"
    ]
  },
  {
    "name": "モーリーファンタジーf広島祇園",
    "operation_time": "",
    "holiday": "",
    "latitude": "34.443849",
    "longitude": "132.461514",
    "tel": "070-3100-4142",
    "address": "広島市安佐南区祇園3-2-1イオンモール広島祇園店3F",
    "access": "",
    "games": [
      "pop'n music シリーズ"
    ]
  },
  {
    "name": "アミパラ広島店",
    "operation_time": "10:00～24:00",
    "holiday": "無し",
    "latitude": "34.39350431",
    "longitude": "132.4360428",
    "tel": "082-297-7135",
    "address": "広島市西区西観音町3-17",
    "access": "平和大通り沿い、西区区役所から東へすぐ",
    "games": [
      "pop'n music シリーズ"
    ]
  },
  {
    "name": "タイトーステーション広島紙屋町店",
    "operation_time": "平日10:00～24:00 土日祝9:00～24:00",
    "holiday": "無し",
    "latitude": "34.394034",
    "longitude": "132.456154",
    "tel": "082-544-3961",
    "address": "広島市中区紙屋町2-2-21",
    "access": "広島電鉄 紙屋町西電停より徒歩2分",
    "games": [
      "pop'n music シリーズ"
    ]
  },
  {
    "name": "ラウンドワン広島店",
    "operation_time": "",
    "holiday": "",
    "latitude": "34.39365895",
    "longitude": "132.4600423",
    "tel": "082-545-8910",
    "address": "広島市中区立町3-11",
    "access": "",
    "games": [
      "pop'n music シリーズ"
    ]
  },
  {
    "name": "タイトーステーション広島本通店",
    "operation_time": "10:00～24:00",
    "holiday": "無し",
    "latitude": "34.3929912",
    "longitude": "132.4599026",
    "tel": "082-541-6345",
    "address": "広島市中区本通3-5せらかぐ本通ビル",
    "access": "広島電鉄・立町駅より徒歩5分",
    "games": [
      "pop'n music シリーズ"
    ]
  },
  {
    "name": "ビバーチャ",
    "operation_time": "",
    "holiday": "",
    "latitude": "34.37953351",
    "longitude": "132.4613726",
    "tel": "082-504-8665",
    "address": "広島市中区南竹屋町10-17",
    "access": "",
    "games": [
      "pop'n music シリーズ"
    ]
  },
  {
    "name": "PALO境港",
    "operation_time": "",
    "holiday": "",
    "latitude": "35.52243536",
    "longitude": "133.2524414",
    "tel": "070-3100-5063",
    "address": "境港市竹内団地81-3",
    "access": "",
    "games": [
      "pop'n music シリーズ"
    ]
  },
  {
    "name": "アミパラがいな店",
    "operation_time": "10:00 ～ 24:00",
    "holiday": "無し",
    "latitude": "35.43797411",
    "longitude": "133.3392651",
    "tel": "0859-39-1800",
    "address": "米子市日ノ出町1-8-13",
    "access": "米子しんまち天満屋から南西へ300m",
    "games": [
      "pop'n music シリーズ"
    ]
  },
  {
    "name": "モーリーファンタジー米子駅前",
    "operation_time": "",
    "holiday": "",
    "latitude": "35.42297667",
    "longitude": "133.3329762",
    "tel": "070-3100-4311",
    "address": "米子市末広町311イオン米子駅前3F",
    "access": "",
    "games": [
      "pop'n music シリーズ"
    ]
  },
  {
    "name": "アミパラここじゃ店",
    "operation_time": "10:00～24:00",
    "holiday": "無し",
    "latitude": "34.40752689",
    "longitude": "132.7155261",
    "tel": "082-424-4747",
    "address": "東広島市西条町下見6-10-19山手電気内",
    "access": "広島大学前の交差点より西へすぐ。山手電気内",
    "games": [
      "pop'n music シリーズ"
    ]
  },
  {
    "name": "GiGO広",
    "operation_time": "10:00～24:00",
    "holiday": "無し",
    "latitude": "34.22860722",
    "longitude": "132.6293589",
    "tel": "070-1459-4743",
    "address": "呉市広中町1-9フタバ図書TSUTAYA広店2F",
    "access": "呉線広駅前下車すぐ185号線沿いフタバ図書内",
    "games": [
      "pop'n music シリーズ"
    ]
  },
  {
    "name": "ラウンドワン宮崎店",
    "operation_time": "",
    "holiday": "",
    "latitude": "31.89458335",
    "longitude": "131.4170876",
    "tel": "0985-63-1210",
    "address": "宮崎市中村東3-4-60",
    "access": "",
    "games": [
      "pop'n music シリーズ"
    ]
  },
  {
    "name": "ラウンドワン松山店",
    "operation_time": "",
    "holiday": "",
    "latitude": "33.8664873",
    "longitude": "132.751593",
    "tel": "089-911-5511",
    "address": "松山市東長戸1-3-10",
    "access": "",
    "games": [
      "pop'n music シリーズ"
    ]
  },
  {
    "name": "宮西スタジアム",
    "operation_time": "",
    "holiday": "無し",
    "latitude": "33.848559",
    "longitude": "132.7518258",
    "tel": "089-924-5070",
    "address": "松山市宮西2-4-41",
    "access": "JR松山駅より徒歩15分",
    "games": [
      "pop'n music シリーズ"
    ]
  },
  {
    "name": "アミューズメントパークMGキスケ店",
    "operation_time": "",
    "holiday": "無し",
    "latitude": "33.84135404",
    "longitude": "132.753158",
    "tel": "089-933-2737",
    "address": "松山市宮田町4キスケボール1F内ゲームコーナー",
    "access": "JR松山駅より徒歩3分",
    "games": [
      "pop'n music シリーズ"
    ]
  },
  {
    "name": "アミューズメントパークMG大街道店",
    "operation_time": "",
    "holiday": "",
    "latitude": "33.837872",
    "longitude": "132.769877",
    "tel": "089-968-2440",
    "address": "松山市大街道1-4-17",
    "access": "",
    "games": [
      "pop'n music シリーズ"
    ]
  },
  {
    "name": "スーパーヒーロー倉吉",
    "operation_time": "10:00～翌3:00/土・休前日/10:00～翌5:00",
    "holiday": "無し",
    "latitude": "35.43833291",
    "longitude": "133.8393183",
    "tel": "0858-23-5255",
    "address": "倉吉市見日町633",
    "access": "バス・西倉吉方面行き/厚生病院前下車徒歩3分",
    "games": [
      "pop'n music シリーズ"
    ]
  },
  {
    "name": "アミューズメントパークMGジアス店",
    "operation_time": "",
    "holiday": "無し",
    "latitude": "34.44068975",
    "longitude": "133.2607402",
    "tel": "084-939-7733",
    "address": "福山市柳津町1-7-60",
    "access": "",
    "games": [
      "pop'n music シリーズ"
    ]
  },
  {
    "name": "ラウンドワン福山店",
    "operation_time": "",
    "holiday": "",
    "latitude": "34.489155",
    "longitude": "133.3925782",
    "tel": "084-973-9891",
    "address": "福山市明神町1-9-28",
    "access": "",
    "games": [
      "pop'n music シリーズ"
    ]
  },
  {
    "name": "アミューズメントパークMG東予店",
    "operation_time": "",
    "holiday": "",
    "latitude": "33.9205621",
    "longitude": "133.0775644",
    "tel": "0898-35-3222",
    "address": "西条市周布715-1フジ東予店 別棟",
    "access": "",
    "games": [
      "pop'n music シリーズ"
    ]
  },
  {
    "name": "メカランド サルビア",
    "operation_time": "10:00～翌3:00",
    "holiday": "無し",
    "latitude": "35.51980336",
    "longitude": "134.2034528",
    "tel": "0857-31-0000",
    "address": "鳥取市南隈860",
    "access": "ジャスコ鳥取北店より徒歩15分",
    "games": [
      "pop'n music シリーズ"
    ]
  },
  {
    "name": "ファンタジスタ",
    "operation_time": "12:00～24:00",
    "holiday": "店舗にお問合わせください",
    "latitude": "34.5583269",
    "longitude": "133.6767549",
    "tel": "086-526-0438",
    "address": "倉敷市新倉敷駅前5-194",
    "access": "JR西日本山陽本線「新倉敷」駅から南西に徒歩10分",
    "games": [
      "pop'n music シリーズ"
    ]
  },
  {
    "name": "ユーズランド倉敷店",
    "operation_time": "10:00～21:00",
    "holiday": "無し",
    "latitude": "34.60290341",
    "longitude": "133.7454258",
    "tel": "086-430-5234",
    "address": "倉敷市水江1イオン倉敷ショッピングセンター2F",
    "access": "イオン倉敷SC2F倉敷駅北口1番乗場よりバスで10分山陽自動車道倉敷ICより約7分",
    "games": [
      "pop'n music シリーズ"
    ]
  },
  {
    "name": "アミパラ倉敷店",
    "operation_time": "10:00～24:00",
    "holiday": "無し",
    "latitude": "34.58364137",
    "longitude": "133.7712207",
    "tel": "086-430-2111",
    "address": "倉敷市西中新田624-1アミパラボウル1F",
    "access": "倉敷市役所前、アミパラボウル1F",
    "games": [
      "pop'n music シリーズ"
    ]
  },
  {
    "name": "ラウンドワン岡山妹尾店",
    "operation_time": "",
    "holiday": "",
    "latitude": "34.62318926",
    "longitude": "133.8694608",
    "tel": "086-282-8851",
    "address": "岡山市南区妹尾3413-1",
    "access": "",
    "games": [
      "pop'n music シリーズ"
    ]
  },
  {
    "name": "アミパラテクノランド店",
    "operation_time": "10:00～24:00",
    "holiday": "",
    "latitude": "34.679221",
    "longitude": "133.927419",
    "tel": "086-225-3377",
    "address": "岡山市北区大和町1-7-12",
    "access": "法界院駅から徒歩10分",
    "games": [
      "pop'n music シリーズ"
    ]
  },
  {
    "name": "アミパラ岡山店",
    "operation_time": "10:00～24:00",
    "holiday": "無し",
    "latitude": "34.63615978",
    "longitude": "133.919988",
    "tel": "086-235-3332",
    "address": "岡山市北区青江1-13-8",
    "access": "2号線バイパス・青江交差点から北へすぐ",
    "games": [
      "pop'n music シリーズ"
    ]
  },
  {
    "name": "アミューズメントパークMG伊予三島店",
    "operation_time": "",
    "holiday": "",
    "latitude": "33.97450223",
    "longitude": "133.5286622",
    "tel": "0896-72-7177",
    "address": "四国中央市中之庄町汐汲道75-1",
    "access": "",
    "games": [
      "pop'n music シリーズ"
    ]
  },
  {
    "name": "ウェアハウス四万十店",
    "operation_time": "9:00～22:00",
    "holiday": "無し",
    "latitude": "32.98710457",
    "longitude": "132.9393438",
    "tel": "0880-31-0152",
    "address": "四万十市右山五月町8-13アピアさつき2F",
    "access": "",
    "games": [
      "pop'n music シリーズ"
    ]
  },
  {
    "name": "マックスプラザ善通寺",
    "operation_time": "",
    "holiday": "",
    "latitude": "34.24362494",
    "longitude": "133.7639965",
    "tel": "0877-63-4333",
    "address": "善通寺市中村町1798-2",
    "access": "",
    "games": [
      "pop'n music シリーズ"
    ]
  },
  {
    "name": "GiGOイオン札幌手稲駅前SC",
    "operation_time": "ゲームコーナー9:00～26:00 / メダルコーナー9:00～24:00",
    "holiday": "無し",
    "latitude": "43.12045749",
    "longitude": "141.2452406",
    "tel": "080-7127-7065",
    "address": "札幌市手稲区前田1条11-3F",
    "access": "西友手稲店3F",
    "games": [
      "pop'n music シリーズ"
    ]
  },
  {
    "name": "キャッツアイ篠路店",
    "operation_time": "10:00～24:00",
    "holiday": "無し",
    "latitude": "43.14070168",
    "longitude": "141.3571701",
    "tel": "011-776-1500",
    "address": "札幌市北区篠路1条4-6-30",
    "access": "JR篠路駅下車徒歩20分",
    "games": [
      "pop'n music シリーズ"
    ]
  },
  {
    "name": "Feedy Diner&Arcade綾川店",
    "operation_time": "",
    "holiday": "",
    "latitude": "34.251612",
    "longitude": "133.931129",
    "tel": "070-3100-3490",
    "address": "綾歌郡綾川町萱原822-1イオンモール綾川3F",
    "access": "",
    "games": [
      "pop'n music シリーズ"
    ]
  },
  {
    "name": "ラウンドワン札幌北21条店",
    "operation_time": "",
    "holiday": "",
    "latitude": "43.08681907",
    "longitude": "141.3495671",
    "tel": "011-733-8801",
    "address": "札幌市東区北21条東1-1-21",
    "access": "",
    "games": [
      "pop'n music シリーズ"
    ]
  },
  {
    "name": "タイトーステーション札幌狸小路2丁目店",
    "operation_time": "",
    "holiday": "",
    "latitude": "43.05729",
    "longitude": "141.355525",
    "tel": "011-213-1115",
    "address": "札幌市中央区南三条西2-14ニコービル",
    "access": "",
    "games": [
      "pop'n music シリーズ"
    ]
  },
  {
    "name": "ラウンドワン札幌すすきの店",
    "operation_time": "",
    "holiday": "",
    "latitude": "43.05431311",
    "longitude": "141.3540587",
    "tel": "011-520-1022",
    "address": "札幌市中央区南五条西3-6-1札幌東宝公楽ビル",
    "access": "",
    "games": [
      "pop'n music シリーズ"
    ]
  },
  {
    "name": "ラウンドワン高松店",
    "operation_time": "",
    "holiday": "",
    "latitude": "34.33898638",
    "longitude": "134.0669994",
    "tel": "087-812-6115",
    "address": "高松市松島町2-7-43",
    "access": "",
    "games": [
      "pop'n music シリーズ"
    ]
  },
  {
    "name": "ラウンドワン高知店",
    "operation_time": "",
    "holiday": "",
    "latitude": "33.55793713",
    "longitude": "133.554676",
    "tel": "088-804-3070",
    "address": "高知市南宝永町4-12",
    "access": "",
    "games": [
      "pop'n music シリーズ"
    ]
  },
  {
    "name": "アミューズメントパークMGレインボー店",
    "operation_time": "",
    "holiday": "無し",
    "latitude": "34.29965389",
    "longitude": "134.0588105",
    "tel": "087-868-6610",
    "address": "高松市多肥下町字凹原630マルナカパワシティレインボー店2F",
    "access": "マルナカレインボー店内",
    "games": [
      "pop'n music シリーズ"
    ]
  },
  {
    "name": "ラウンドワン札幌白石本通店",
    "operation_time": "",
    "holiday": "",
    "latitude": "43.03673108",
    "longitude": "141.4328227",
    "tel": "011-865-8051",
    "address": "札幌市白石区本通-16-北1-50",
    "access": "",
    "games": [
      "pop'n music シリーズ"
    ]
  },
  {
    "name": "キャッツアイ新札幌店",
    "operation_time": "10:00～24:00",
    "holiday": "無し",
    "latitude": "43.04493545",
    "longitude": "141.4754191",
    "tel": "011-899-1500",
    "address": "札幌市厚別区厚別東5条1-2-10",
    "access": "JR、札幌市営地下鉄新札幌駅下車徒歩20分",
    "games": [
      "pop'n music シリーズ"
    ]
  },
  {
    "name": "キャッツアイ清田店",
    "operation_time": "10:00～24:00",
    "holiday": "無し",
    "latitude": "43.00286736",
    "longitude": "141.4364379",
    "tel": "011-884-2828",
    "address": "札幌市清田区清田1条1-20-1",
    "access": "国道36号線、札幌ドームより車5分",
    "games": [
      "pop'n music シリーズ"
    ]
  },
  {
    "name": "ソユーゲームフィールド旭川西店",
    "operation_time": "10:00～21:00",
    "holiday": "不定休",
    "latitude": "43.79429834",
    "longitude": "142.3255915",
    "tel": "0166-59-7131",
    "address": "旭川市緑町23-2161-3イオンモール旭川西3F",
    "access": "JR旭川駅より車で15分",
    "games": [
      "pop'n music シリーズ"
    ]
  },
  {
    "name": "遊ランド春光店",
    "operation_time": "11:00～翌4:00",
    "holiday": "無し",
    "latitude": "43.798192",
    "longitude": "142.373983",
    "tel": "0166-55-3355",
    "address": "旭川市春光1条7-2-25",
    "access": "JR旭川駅車20分",
    "games": [
      "pop'n music シリーズ"
    ]
  },
  {
    "name": "モーリーファンタジー三笠",
    "operation_time": "",
    "holiday": "",
    "latitude": "43.24413666",
    "longitude": "141.8054248",
    "tel": "070-3100-7326",
    "address": "三笠市岡山1059-1イオンスーパーセンター三笠1F",
    "access": "",
    "games": [
      "pop'n music シリーズ"
    ]
  },
  {
    "name": "ラウンドワン旭川店",
    "operation_time": "",
    "holiday": "",
    "latitude": "43.78651521",
    "longitude": "142.397308",
    "tel": "0166-49-5071",
    "address": "旭川市永山3条1-4-7",
    "access": "",
    "games": [
      "pop'n music シリーズ"
    ]
  },
  {
    "name": "遊ランド西御料店",
    "operation_time": "平日12:00～翌3:00 金・土・祝前日11:00～翌5:00",
    "holiday": "無し",
    "latitude": "43.723884",
    "longitude": "142.368924",
    "tel": "0166-60-5050",
    "address": "旭川市西御料5条2-64-19",
    "access": "旭川環状線1号から美瑛・富良野方面へお進み下さいませ",
    "games": [
      "pop'n music シリーズ"
    ]
  },
  {
    "name": "GiGO室蘭",
    "operation_time": "10:00～24:00",
    "holiday": "無し",
    "latitude": "42.34253462",
    "longitude": "141.026287",
    "tel": "080-7434-6759",
    "address": "室蘭市東町4-31-3",
    "access": "JR東室蘭駅下車徒歩15分",
    "games": [
      "pop'n music シリーズ"
    ]
  },
  {
    "name": "キャッツアイ恵庭店",
    "operation_time": "10:00～24:00",
    "holiday": "無し",
    "latitude": "42.87586684",
    "longitude": "141.5834741",
    "tel": "0123-32-1500",
    "address": "恵庭市住吉町2-9-1",
    "access": "JR恵庭駅下車徒歩20分",
    "games": [
      "pop'n music シリーズ"
    ]
  },
  {
    "name": "ラウンドワン姫路飾磨店",
    "operation_time": "",
    "holiday": "",
    "latitude": "34.79228629",
    "longitude": "134.6871127",
    "tel": "079-243-1830",
    "address": "姫路市飾磨区中島1-254",
    "access": "",
    "games": [
      "pop'n music シリーズ"
    ]
  },
  {
    "name": "アピナ姫路店",
    "operation_time": "",
    "holiday": "",
    "latitude": "34.82687",
    "longitude": "134.7151",
    "tel": "079-222-8811",
    "address": "姫路市東郷町1454-3姫路リオス2F",
    "access": "",
    "games": [
      "pop'n music シリーズ"
    ]
  },
  {
    "name": "モーリーファンタジーf加西北条",
    "operation_time": "9:00～21:00",
    "holiday": "施設の営業日に準じる",
    "latitude": "34.930446",
    "longitude": "134.828473",
    "tel": "070-3100-3488",
    "address": "加西市北条町北条308-1イオン加西北条2F",
    "access": "北条鉄道 北条町駅 徒歩7分",
    "games": [
      "pop'n music シリーズ"
    ]
  },
  {
    "name": "タイトーステーション千歳店",
    "operation_time": "10:00-24:00",
    "holiday": "無し",
    "latitude": "42.833396",
    "longitude": "141.6439587",
    "tel": "0123-42-4195",
    "address": "千歳市北栄2-12-5",
    "access": "千歳駅から札幌方面に徒歩10分",
    "games": [
      "pop'n music シリーズ"
    ]
  },
  {
    "name": "あそVIVA本店",
    "operation_time": "9:00～24:00",
    "holiday": "無し",
    "latitude": "35.28971907",
    "longitude": "135.1348229",
    "tel": "0773-25-5055",
    "address": "福知山市字堀小字上高田2146-1あそVIVA1F",
    "access": "",
    "games": [
      "pop'n music シリーズ"
    ]
  },
  {
    "name": "ラウンドワン函館店",
    "operation_time": "",
    "holiday": "",
    "latitude": "41.82459206",
    "longitude": "140.7173548",
    "tel": "0138-49-8401",
    "address": "函館市西桔梗町848-11",
    "access": "",
    "games": [
      "pop'n music シリーズ"
    ]
  },
  {
    "name": "ホムスタ加古川店",
    "operation_time": "10:00～24:00",
    "holiday": "無し",
    "latitude": "34.74552902",
    "longitude": "134.8355115",
    "tel": "0794-56-2121",
    "address": "加古川市尾上町安田351-1メガコート",
    "access": "",
    "games": [
      "pop'n music シリーズ"
    ]
  },
  {
    "name": "ラウンドワン加古川店",
    "operation_time": "",
    "holiday": "",
    "latitude": "34.74708002",
    "longitude": "134.836935",
    "tel": "0794-29-2513",
    "address": "加古川市尾上町安田字小河原325番6号",
    "access": "",
    "games": [
      "pop'n music シリーズ"
    ]
  },
  {
    "name": "GiGOイオンモール苫小牧",
    "operation_time": "ゲームコーナー9:00～24:00 / メダルコーナー9:00～23:30",
    "holiday": "無し",
    "latitude": "42.65619751",
    "longitude": "141.6419704",
    "tel": "0144-52-1212",
    "address": "苫小牧市柳町3-1-20イオンモール苫小牧2F",
    "access": "JR苫小牧駅よりバス20分",
    "games": [
      "pop'n music シリーズ"
    ]
  },
  {
    "name": "アミューズメントパフェ パレパレ",
    "operation_time": "10:00～24:00",
    "holiday": "無し",
    "latitude": "34.08586633",
    "longitude": "134.5426759",
    "tel": "088-677-8991",
    "address": "徳島市南田宮2-2-46",
    "access": "国道11号線から田宮街道を西に車で5分",
    "games": [
      "pop'n music シリーズ"
    ]
  },
  {
    "name": "ホムスタ玉津店",
    "operation_time": "10:00～24:00",
    "holiday": "無し",
    "latitude": "34.67922481",
    "longitude": "134.9831791",
    "tel": "078-920-3337",
    "address": "神戸市西区丸塚2-9-18メガパレス2F",
    "access": "第二神名玉津IC下車車5分",
    "games": [
      "pop'n music シリーズ"
    ]
  },
  {
    "name": "ラウンドワン徳島･万代店",
    "operation_time": "",
    "holiday": "",
    "latitude": "34.064828",
    "longitude": "134.564699",
    "tel": "088-612-0025",
    "address": "徳島市万代町4-19-1",
    "access": "",
    "games": [
      "pop'n music シリーズ"
    ]
  },
  {
    "name": "PALO小松島",
    "operation_time": "",
    "holiday": "",
    "latitude": "34.00568188",
    "longitude": "134.5726547",
    "tel": "070-3100-5034",
    "address": "小松島市小松島町字領田20小松島ショッピングプラザルピア1F",
    "access": "",
    "games": [
      "pop'n music シリーズ"
    ]
  },
  {
    "name": "アミューズメント ミール",
    "operation_time": "10:00～24:00",
    "holiday": "無し",
    "latitude": "34.88047252",
    "longitude": "135.2295927",
    "tel": "0795-64-5678",
    "address": "三田市対中町5-21",
    "access": "神戸電鉄三田本町駅下車国道176号線側へ徒歩5分。車の場合はガリバー三田店より176号を三田方面へ、ブックプラザ三田店の向かい。",
    "games": [
      "pop'n music シリーズ"
    ]
  },
  {
    "name": "ベティ",
    "operation_time": "",
    "holiday": "",
    "latitude": "37.06731535",
    "longitude": "136.9070025",
    "tel": "0767-68-6211",
    "address": "七尾市舟尾町ウ-38",
    "access": "国道249号線沿い田鶴浜町地内",
    "games": [
      "pop'n music シリーズ"
    ]
  },
  {
    "name": "アルゴ",
    "operation_time": "11:15～23:30",
    "holiday": "無し",
    "latitude": "34.69392181",
    "longitude": "135.1914556",
    "tel": "078-334-3031",
    "address": "神戸市中央区下山手通1-1-8",
    "access": "JR三ノ宮駅下車徒歩5分生田神社前",
    "games": [
      "pop'n music シリーズ"
    ]
  },
  {
    "name": "遊･スペース マジカル",
    "operation_time": "9:00～24:00",
    "holiday": "無し",
    "latitude": "34.69551577",
    "longitude": "135.1950261",
    "tel": "078-414-8844",
    "address": "神戸市中央区琴ノ緒町5-2-3協律三宮センタービル3F",
    "access": "JR三ノ宮駅下車徒歩5分",
    "games": [
      "pop'n music シリーズ"
    ]
  },
  {
    "name": "ラウンドワン三宮駅前店",
    "operation_time": "",
    "holiday": "",
    "latitude": "34.69403073",
    "longitude": "135.1973402",
    "tel": "078-252-7200",
    "address": "神戸市中央区小野柄通り6-1-17",
    "access": "",
    "games": [
      "pop'n music シリーズ"
    ]
  },
  {
    "name": "金沢メトロポリス",
    "operation_time": "",
    "holiday": "",
    "latitude": "36.6011252",
    "longitude": "136.6140038",
    "tel": "076-266-5780",
    "address": "金沢市無量寺4-121-1金沢コロナワールド",
    "access": "",
    "games": [
      "pop'n music シリーズ"
    ]
  },
  {
    "name": "バイパスレジャーランド藤江新館",
    "operation_time": "",
    "holiday": "",
    "latitude": "36.58375651",
    "longitude": "136.6206642",
    "tel": "076-268-7518",
    "address": "金沢市藤江南2-105",
    "access": "",
    "games": [
      "pop'n music シリーズ"
    ]
  },
  {
    "name": "Let's Waku2 ベル店",
    "operation_time": "",
    "holiday": "",
    "latitude": "36.03383952",
    "longitude": "136.2120541",
    "tel": "0776-34-3965",
    "address": "福井市花堂南2-16-1",
    "access": "",
    "games": [
      "pop'n music シリーズ"
    ]
  },
  {
    "name": "福井レジャーランド板垣店",
    "operation_time": "",
    "holiday": "",
    "latitude": "36.042283",
    "longitude": "136.233748",
    "tel": "0776-33-5510",
    "address": "福井市下馬3-112",
    "access": "",
    "games": [
      "pop'n music シリーズ"
    ]
  },
  {
    "name": "ラウンドワン金沢店",
    "operation_time": "",
    "holiday": "",
    "latitude": "36.54211559",
    "longitude": "136.626054",
    "tel": "076-245-1850",
    "address": "金沢市横川6-120-1",
    "access": "",
    "games": [
      "pop'n music シリーズ"
    ]
  },
  {
    "name": "タイトーステーション金沢店",
    "operation_time": "10:00～24:00 金・土・祝前日10:00～翌1:00",
    "holiday": "無し",
    "latitude": "36.561336",
    "longitude": "136.652994",
    "tel": "0762-65-5316",
    "address": "金沢市片町2-1-7宇都宮片町ビル1F",
    "access": "香林坊バス停より徒歩1分",
    "games": [
      "pop'n music シリーズ"
    ]
  },
  {
    "name": "タロフォフォ",
    "operation_time": "10:30～23:00",
    "holiday": "無し",
    "latitude": "34.73671946",
    "longitude": "135.3365567",
    "tel": "0798-32-0099",
    "address": "西宮市田中町5-21TSビル",
    "access": "阪神西宮駅下車徒歩2分",
    "games": [
      "pop'n music シリーズ"
    ]
  },
  {
    "name": "ラウンドワン伊丹店",
    "operation_time": "",
    "holiday": "",
    "latitude": "34.77891327",
    "longitude": "135.3932572",
    "tel": "0727-75-4150",
    "address": "伊丹市昆陽7-29",
    "access": "",
    "games": [
      "pop'n music シリーズ"
    ]
  },
  {
    "name": "タカラ島 亀岡店",
    "operation_time": "10:00～22:00",
    "holiday": "無し",
    "latitude": "35.00139704",
    "longitude": "135.6029062",
    "tel": "0771-25-9886",
    "address": "亀岡市篠町野条上又11-1アルプラザ亀岡店3F",
    "access": "嵯峨野線馬堀駅徒歩15分",
    "games": [
      "pop'n music シリーズ"
    ]
  },
  {
    "name": "ラウンドワンJR尼崎駅前店",
    "operation_time": "",
    "holiday": "",
    "latitude": "34.73331738",
    "longitude": "135.4329448",
    "tel": "06-6495-4177",
    "address": "尼崎市潮江1-4-5プラストいきいきビル4F",
    "access": "",
    "games": [
      "pop'n music シリーズ"
    ]
  },
  {
    "name": "PALO五所川原",
    "operation_time": "",
    "holiday": "",
    "latitude": "40.80095013",
    "longitude": "140.4614581",
    "tel": "070-3100-5496",
    "address": "五所川原市大字唐笠柳字藤巻641-1",
    "access": "",
    "games": [
      "pop'n music シリーズ"
    ]
  },
  {
    "name": "ラウンドワン豊中店",
    "operation_time": "",
    "holiday": "",
    "latitude": "34.75733488",
    "longitude": "135.465555",
    "tel": "06-6865-2200",
    "address": "豊中市名神口1-1-1",
    "access": "",
    "games": [
      "pop'n music シリーズ"
    ]
  },
  {
    "name": "ピタゴラス和歌山店",
    "operation_time": "",
    "holiday": "",
    "latitude": "34.25253983",
    "longitude": "135.1463143",
    "tel": "070-1479-6710",
    "address": "和歌山市土入73-1",
    "access": "",
    "games": [
      "pop'n music シリーズ"
    ]
  },
  {
    "name": "パルケ上賀茂店",
    "operation_time": "平日12:00～24:00 土11:00～24:00 日12:00～24:00",
    "holiday": "",
    "latitude": "35.06680723",
    "longitude": "135.7462635",
    "tel": "075-711-4622",
    "address": "京都市北区上賀茂西河原町1-1",
    "access": "",
    "games": [
      "pop'n music シリーズ"
    ]
  },
  {
    "name": "あそVIVA阪急茨木店",
    "operation_time": "",
    "holiday": "",
    "latitude": "34.817929",
    "longitude": "135.576325",
    "tel": "072-631-6606",
    "address": "茨木市永代町6-2スポーツプラザ茨木2F",
    "access": "",
    "games": [
      "pop'n music シリーズ"
    ]
  },
  {
    "name": "ラウンドワン東淀川店",
    "operation_time": "",
    "holiday": "",
    "latitude": "34.74289355",
    "longitude": "135.5255278",
    "tel": "06-6160-2221",
    "address": "大阪市東淀川区菅原7-14-29",
    "access": "",
    "games": [
      "pop'n music シリーズ"
    ]
  },
  {
    "name": "namco梅田店",
    "operation_time": "",
    "holiday": "",
    "latitude": "34.70278573",
    "longitude": "135.5003716",
    "tel": "06-6313-0778",
    "address": "大阪市北区小松原町3-3OSビル2F",
    "access": "",
    "games": [
      "pop'n music シリーズ"
    ]
  },
  {
    "name": "ラウンドワン梅田店",
    "operation_time": "",
    "holiday": "",
    "latitude": "34.70337769",
    "longitude": "135.5009178",
    "tel": "06-6312-6800",
    "address": "大阪市北区小松原町4-16",
    "access": "",
    "games": [
      "pop'n music シリーズ"
    ]
  },
  {
    "name": "アミューズメントCUE京都円町店",
    "operation_time": "",
    "holiday": "",
    "latitude": "35.01880055",
    "longitude": "135.7309726",
    "tel": "075-462-9316",
    "address": "京都市中京区西ノ京西円町40",
    "access": "",
    "games": [
      "pop'n music シリーズ"
    ]
  },
  {
    "name": "ゲームパニック堺",
    "operation_time": "10:00～23:45",
    "holiday": "無し",
    "latitude": "34.597817",
    "longitude": "135.447433",
    "tel": "072-224-8295",
    "address": "堺市堺区築港八幡町1-1堺浜シーサイド内堺浜えんため館",
    "access": "南海バス20系統「堺市内北回り」 堺駅西口→堺浜シーサイドステージ約17分 堺東駅→堺浜シーサイドステージ約25分",
    "games": [
      "pop'n music シリーズ"
    ]
  },
  {
    "name": "ザ･インドアゲーム",
    "operation_time": "平日12:00～24:00 土日祝11:00～24:00",
    "holiday": "無し",
    "latitude": "34.72953957",
    "longitude": "135.5440365",
    "tel": "06-6955-4494",
    "address": "大阪市旭区中宮5-6-19",
    "access": "大阪工業大学正門前通り",
    "games": [
      "pop'n music シリーズ"
    ]
  },
  {
    "name": "ラウンドワン千日前店",
    "operation_time": "",
    "holiday": "",
    "latitude": "34.667424",
    "longitude": "135.5026714",
    "tel": "06-4708-2600",
    "address": "大阪市中央区難波1-3-1",
    "access": "",
    "games": [
      "pop'n music シリーズ"
    ]
  },
  {
    "name": "GiGO難波アビオン",
    "operation_time": "",
    "holiday": "",
    "latitude": "34.66278737",
    "longitude": "135.5032116",
    "tel": "070-1458-1437",
    "address": "大阪市浪速区難波中2-3-15MMOビル1-2F",
    "access": "",
    "games": [
      "pop'n music シリーズ"
    ]
  },
  {
    "name": "モーリーファンタジー能代",
    "operation_time": "",
    "holiday": "",
    "latitude": "40.20908577",
    "longitude": "140.0246075",
    "tel": "070-3100-4928",
    "address": "能代市柳町11-1イオン3F",
    "access": "",
    "games": [
      "pop'n music シリーズ"
    ]
  },
  {
    "name": "タイトーステーション大阪日本橋店",
    "operation_time": "10:00～24:00",
    "holiday": "無し",
    "latitude": "34.660362",
    "longitude": "135.506113",
    "tel": "06-6630-7270",
    "address": "大阪市浪速区日本橋4-9-14",
    "access": "地下鉄なんば駅・日本橋駅・恵美須町駅から約7分ほど。",
    "games": [
      "pop'n music シリーズ"
    ]
  },
  {
    "name": "ラウンドワン高槻店",
    "operation_time": "",
    "holiday": "",
    "latitude": "34.83266921",
    "longitude": "135.6301782",
    "tel": "072-672-9933",
    "address": "高槻市辻子3-6-4",
    "access": "",
    "games": [
      "pop'n music シリーズ"
    ]
  },
  {
    "name": "ラウンドワン和歌山店",
    "operation_time": "",
    "holiday": "",
    "latitude": "34.19849168",
    "longitude": "135.1859428",
    "tel": "073-421-8210",
    "address": "和歌山市小雑賀739-3",
    "access": "",
    "games": [
      "pop'n music シリーズ"
    ]
  },
  {
    "name": "ラウンドワン京都河原町店",
    "operation_time": "",
    "holiday": "",
    "latitude": "35.00699573",
    "longitude": "135.7685149",
    "tel": "075-213-8400",
    "address": "京都市中京区河原町通り三条下ル山崎町250",
    "access": "",
    "games": [
      "pop'n music シリーズ"
    ]
  },
  {
    "name": "ラウンドワン守口店",
    "operation_time": "",
    "holiday": "",
    "latitude": "34.7562488",
    "longitude": "135.5886793",
    "tel": "06-6907-9270",
    "address": "守口市佐太東町2-6-14ジャガーグリーン2F",
    "access": "",
    "games": [
      "pop'n music シリーズ"
    ]
  },
  {
    "name": "GiGOあべのアポロ",
    "operation_time": "10:00～24:00",
    "holiday": "",
    "latitude": "34.646623",
    "longitude": "135.511677",
    "tel": "06-6647-0716",
    "address": "大阪市阿倍野区阿倍野筋1-5-31アポロビル3F･4F",
    "access": "JR 天王寺駅・近鉄あべの橋駅より徒歩3分 アポロビル 3F",
    "games": [
      "pop'n music シリーズ"
    ]
  },
  {
    "name": "GiGOイオンモール日根野",
    "operation_time": "",
    "holiday": "",
    "latitude": "34.393093",
    "longitude": "135.333584",
    "tel": "080-7363-8474",
    "address": "泉佐野市日根野2496-1イオンモール日根野2F",
    "access": "",
    "games": [
      "pop'n music シリーズ"
    ]
  },
  {
    "name": "ラウンドワン堺駅前店",
    "operation_time": "",
    "holiday": "",
    "latitude": "34.58340412",
    "longitude": "135.468425",
    "tel": "072-222-0120",
    "address": "堺市堺区戎島町4-44-3",
    "access": "",
    "games": [
      "pop'n music シリーズ"
    ]
  },
  {
    "name": "星狩物語岸和田店",
    "operation_time": "10:00～24:00",
    "holiday": "無し",
    "latitude": "34.45453199",
    "longitude": "135.3850619",
    "tel": "072-432-3841",
    "address": "岸和田市作才町1047",
    "access": "南海岸和田駅より徒歩10分",
    "games": [
      "pop'n music シリーズ"
    ]
  },
  {
    "name": "ラウンドワン岸和田店",
    "operation_time": "",
    "holiday": "",
    "latitude": "34.45649962",
    "longitude": "135.3885278",
    "tel": "072-429-1100",
    "address": "岸和田市八阪町2-11-1",
    "access": "",
    "games": [
      "pop'n music シリーズ"
    ]
  },
  {
    "name": "ラウンドワン城東放出店",
    "operation_time": "",
    "holiday": "",
    "latitude": "34.69651235",
    "longitude": "135.559648",
    "tel": "06-6936-0100",
    "address": "大阪市城東区今福南3-4-38",
    "access": "",
    "games": [
      "pop'n music シリーズ"
    ]
  },
  {
    "name": "ラウンドワン京都伏見店",
    "operation_time": "",
    "holiday": "",
    "latitude": "34.93599659",
    "longitude": "135.746198",
    "tel": "075-622-9911",
    "address": "京都市伏見区下鳥羽平塚町131",
    "access": "",
    "games": [
      "pop'n music シリーズ"
    ]
  },
  {
    "name": "GiGO北見",
    "operation_time": "10:00～24:00",
    "holiday": "無し",
    "latitude": "43.79655355",
    "longitude": "143.8426866",
    "tel": "080-7437-9057",
    "address": "北見市西三輪5-1-16",
    "access": "国道39号 大雪大通沿い",
    "games": [
      "pop'n music シリーズ"
    ]
  },
  {
    "name": "エースレーン堅田",
    "operation_time": "10:00～23:45",
    "holiday": "無し",
    "latitude": "35.12458935",
    "longitude": "135.9194764",
    "tel": "077-571-1226",
    "address": "大津市今堅田2-40-10ACT堅田ビル2F",
    "access": "JR湖西線堅田駅下車徒歩10分",
    "games": [
      "pop'n music シリーズ"
    ]
  },
  {
    "name": "スペースファンタジーインフィニ",
    "operation_time": "10:00～23:00",
    "holiday": "無し",
    "latitude": "40.60673278",
    "longitude": "140.495868",
    "tel": "0172-26-2661",
    "address": "弘前市城東北3-10-1さくら野弘前店4F",
    "access": "",
    "games": [
      "pop'n music シリーズ"
    ]
  },
  {
    "name": "トップラン東大阪",
    "operation_time": "",
    "holiday": "",
    "latitude": "34.69383",
    "longitude": "135.61757",
    "tel": "072-970-6923",
    "address": "東大阪市東鴻池町1-6-30イオンタウン東大阪2F",
    "access": "",
    "games": [
      "pop'n music シリーズ"
    ]
  },
  {
    "name": "PALOむつ",
    "operation_time": "",
    "holiday": "",
    "latitude": "41.2869745",
    "longitude": "141.1838083",
    "tel": "070-3100-4671",
    "address": "むつ市中央2-7-8",
    "access": "",
    "games": [
      "pop'n music シリーズ"
    ]
  },
  {
    "name": "ラウンドワンららぽーと和泉店",
    "operation_time": "",
    "holiday": "",
    "latitude": "34.435599",
    "longitude": "135.447876",
    "tel": "0725-51-2100",
    "address": "和泉市あゆみ野4-4-7ららぽーと和泉店 4F 42100",
    "access": "",
    "games": [
      "pop'n music シリーズ"
    ]
  },
  {
    "name": "ラウンドワン堺中央環状店",
    "operation_time": "",
    "holiday": "",
    "latitude": "34.55707895",
    "longitude": "135.5362412",
    "tel": "072-253-9559",
    "address": "堺市東区石原町2-241",
    "access": "",
    "games": [
      "pop'n music シリーズ"
    ]
  },
  {
    "name": "ラウンドワン東大阪店",
    "operation_time": "",
    "holiday": "",
    "latitude": "34.6531932",
    "longitude": "135.60637",
    "tel": "06-6224-1700",
    "address": "東大阪市若江南町1-2-12",
    "access": "",
    "games": [
      "pop'n music シリーズ"
    ]
  },
  {
    "name": "ラウンドワン浜大津アーカス店",
    "operation_time": "",
    "holiday": "",
    "latitude": "35.010557",
    "longitude": "135.866804",
    "tel": "077-526-8722",
    "address": "大津市浜町2-1浜大津アーカス4F",
    "access": "",
    "games": [
      "pop'n music シリーズ"
    ]
  },
  {
    "name": "トヤマレジャーランド呉羽店",
    "operation_time": "一部24時間営業",
    "holiday": "無し",
    "latitude": "36.71545083",
    "longitude": "137.1579046",
    "tel": "076-434-5336",
    "address": "富山市高木字貝塚2054",
    "access": "県道44号線沿い呉羽本町交差点を富山方面方向に車で3分",
    "games": [
      "pop'n music シリーズ"
    ]
  },
  {
    "name": "滋賀レジャーランド大津店",
    "operation_time": "",
    "holiday": "",
    "latitude": "35.003875",
    "longitude": "135.883431",
    "tel": "077-548-7851",
    "address": "大津市におの浜3-1-43",
    "access": "",
    "games": [
      "pop'n music シリーズ"
    ]
  },
  {
    "name": "タイトーステーション青森アムゼ店",
    "operation_time": "10:00～22:00",
    "holiday": "無し",
    "latitude": "40.80791373",
    "longitude": "140.7533047",
    "tel": "017-721-1713",
    "address": "青森市緑3-9-2アムゼ内",
    "access": "JR青森駅より南東へ車で15分",
    "games": [
      "pop'n music シリーズ"
    ]
  },
  {
    "name": "ラウンドワン青森店",
    "operation_time": "",
    "holiday": "",
    "latitude": "40.79867718",
    "longitude": "140.7483213",
    "tel": "017-762-3591",
    "address": "青森市浜田3-1-1",
    "access": "",
    "games": [
      "pop'n music シリーズ"
    ]
  },
  {
    "name": "アミパラ草津店",
    "operation_time": "",
    "holiday": "",
    "latitude": "35.01928425",
    "longitude": "135.9424723",
    "tel": "077-569-4499",
    "address": "草津市木川町72",
    "access": "",
    "games": [
      "pop'n music シリーズ"
    ]
  },
  {
    "name": "アピナ富山豊田店",
    "operation_time": "10:00～24:00",
    "holiday": "無し",
    "latitude": "36.7211336",
    "longitude": "137.2352552",
    "tel": "076-433-3355",
    "address": "富山市豊田町2-12-66",
    "access": "国道8号線豊田東交差点近く",
    "games": [
      "pop'n music シリーズ"
    ]
  },
  {
    "name": "エースレーン草津",
    "operation_time": "10:00～24:00",
    "holiday": "無し",
    "latitude": "34.99965692",
    "longitude": "135.9463199",
    "tel": "077-569-0472",
    "address": "草津市野路3-1-11",
    "access": "JR東海道線南草津駅より徒歩10分。国道1号線南田山交差点そば",
    "games": [
      "pop'n music シリーズ"
    ]
  },
  {
    "name": "タイトーFステーションイオン近江八幡店",
    "operation_time": "",
    "holiday": "",
    "latitude": "35.12047338",
    "longitude": "136.1037493",
    "tel": "0748-38-5172",
    "address": "近江八幡市鷹飼町190-9イオン近江八幡2番街 1F",
    "access": "",
    "games": [
      "pop'n music シリーズ"
    ]
  },
  {
    "name": "ゲームスポットアップル",
    "operation_time": "",
    "holiday": "",
    "latitude": "36.8255737",
    "longitude": "137.4142933",
    "tel": "0765-24-7740",
    "address": "魚津市吉島2-407-1",
    "access": "",
    "games": [
      "pop'n music シリーズ"
    ]
  },
  {
    "name": "ラウンドワン奈良ミナーラ店",
    "operation_time": "",
    "holiday": "",
    "latitude": "34.685231",
    "longitude": "135.802224",
    "tel": "0742-32-3900",
    "address": "奈良市二条大路南1-3-1ミ･ナーラ5F",
    "access": "",
    "games": [
      "pop'n music シリーズ"
    ]
  },
  {
    "name": "トムソーヤのなかまたち鷹巣店",
    "operation_time": "施設の営業時間に準じる",
    "holiday": "",
    "latitude": "40.229809",
    "longitude": "140.384714",
    "tel": "080-7195-3578",
    "address": "北秋田市栄字中綱31-1イオンタウン鷹巣店",
    "access": "",
    "games": [
      "pop'n music シリーズ"
    ]
  },
  {
    "name": "アミューズメントCUE奈良三条店",
    "operation_time": "10:00～24:00",
    "holiday": "無し",
    "latitude": "34.68177805",
    "longitude": "135.8221257",
    "tel": "0742-25-5115",
    "address": "奈良市三条町478-1",
    "access": "JR奈良駅から三条通りを東へすぐ",
    "games": [
      "pop'n music シリーズ"
    ]
  },
  {
    "name": "彦根パスカ",
    "operation_time": "13:00～24:00",
    "holiday": "無し",
    "latitude": "35.25868777",
    "longitude": "136.2653241",
    "tel": "070-3166-4833",
    "address": "彦根市西沼波町166",
    "access": "近江鉄道ひこね芹川駅下車徒歩10分",
    "games": [
      "pop'n music シリーズ"
    ]
  },
  {
    "name": "GiGOドリームタウン白樺",
    "operation_time": "9:00～翌3:00",
    "holiday": "無し",
    "latitude": "42.91947724",
    "longitude": "143.174195",
    "tel": "080-7422-4566",
    "address": "帯広市白樺16条西2ドリームタウン白樺内",
    "access": "ドリームタウン白樺内",
    "games": [
      "pop'n music シリーズ"
    ]
  },
  {
    "name": "アミューズメントCUE大和高田",
    "operation_time": "10:00～24:00",
    "holiday": "無し",
    "latitude": "34.49978101",
    "longitude": "135.7354379",
    "tel": "0745-25-3335",
    "address": "大和高田市東中2-11-16",
    "access": "国道166号線東宝交差点そば",
    "games": [
      "pop'n music シリーズ"
    ]
  },
  {
    "name": "アミパラ橿原店",
    "operation_time": "",
    "holiday": "",
    "latitude": "34.52935645",
    "longitude": "135.7966131",
    "tel": "0744-25-0550",
    "address": "橿原市十市町1222-1ツインゲート橿原1F",
    "access": "",
    "games": [
      "pop'n music シリーズ"
    ]
  },
  {
    "name": "ラウンドワン秋田店",
    "operation_time": "",
    "holiday": "",
    "latitude": "39.70235247",
    "longitude": "140.1092394",
    "tel": "018-896-6711",
    "address": "秋田市卸町1-1-2",
    "access": "",
    "games": [
      "pop'n music シリーズ"
    ]
  },
  {
    "name": "ロックンボウル",
    "operation_time": "10:00～翌5:00",
    "holiday": "無し",
    "latitude": "39.71725634",
    "longitude": "140.1434496",
    "tel": "018-831-6900",
    "address": "秋田市広面字長沼301",
    "access": "",
    "games": [
      "pop'n music シリーズ"
    ]
  },
  {
    "name": "アミューズメントスペースコミ丸アリババ大垣店",
    "operation_time": "10:00～24:00",
    "holiday": "無し",
    "latitude": "35.38404596",
    "longitude": "136.5956139",
    "tel": "050-3575-0530",
    "address": "大垣市池尻町940-1",
    "access": "関が原バイパス沿い",
    "games": [
      "pop'n music シリーズ"
    ]
  },
  {
    "name": "ソユーゲームフィールド御所野店",
    "operation_time": "10:00～24:00",
    "holiday": "不定休",
    "latitude": "39.6633375",
    "longitude": "140.1609952",
    "tel": "018-889-6549",
    "address": "秋田市御所野地蔵田1-1-1イオンモール秋田2F",
    "access": "JR奥羽本線・羽越線東口より秋田市営バス御所野ニュータウン行きニュータウン入口下車徒歩2分",
    "games": [
      "pop'n music シリーズ"
    ]
  },
  {
    "name": "アピナ本巣店",
    "operation_time": "",
    "holiday": "",
    "latitude": "35.43269599",
    "longitude": "136.6400994",
    "tel": "058-323-3311",
    "address": "本巣市政田字下西浦1986イオンタウン本巣内",
    "access": "",
    "games": [
      "pop'n music シリーズ"
    ]
  },
  {
    "name": "ラウンドワンモレラ岐阜店",
    "operation_time": "",
    "holiday": "",
    "latitude": "35.455121",
    "longitude": "136.672955",
    "tel": "058-323-6600",
    "address": "本巣市三橋1100",
    "access": "",
    "games": [
      "pop'n music シリーズ"
    ]
  },
  {
    "name": "岐阜レジャーランド穂積店",
    "operation_time": "7:00～24:00",
    "holiday": "無し",
    "latitude": "35.38432479",
    "longitude": "136.6846653",
    "tel": "058-326-1133",
    "address": "瑞穂市稲里630",
    "access": "国道21号線沿い瑞穂市野田新田交差点近く",
    "games": [
      "pop'n music シリーズ"
    ]
  },
  {
    "name": "モーリーファンタジーf岐阜",
    "operation_time": "10:00～22:00",
    "holiday": "無し",
    "latitude": "35.44803841",
    "longitude": "136.7447554",
    "tel": "070-3100-3566",
    "address": "岐阜市正木中1-2-1マーサ21 北館3F",
    "access": "ジャスコ岐阜店北側3階",
    "games": [
      "pop'n music シリーズ"
    ]
  },
  {
    "name": "モーリーファンタジー本荘",
    "operation_time": "",
    "holiday": "",
    "latitude": "39.39161012",
    "longitude": "140.026304",
    "tel": "080-3476-8892",
    "address": "由利本荘市石脇字田中138イオンスーパーセンター本荘店1F",
    "access": "",
    "games": [
      "pop'n music シリーズ"
    ]
  },
  {
    "name": "ゲームファンタジアン柳津店",
    "operation_time": "一部24時間営業",
    "holiday": "無し",
    "latitude": "35.37596826",
    "longitude": "136.7145391",
    "tel": "058-279-0085",
    "address": "岐阜市柳津町上佐波西3-68",
    "access": "岐阜県ふれあい会館から南に4分",
    "games": [
      "pop'n music シリーズ"
    ]
  },
  {
    "name": "イーグルボウル",
    "operation_time": "",
    "holiday": "",
    "latitude": "40.60882",
    "longitude": "141.22112",
    "tel": "0176-25-1233",
    "address": "十和田市東四番町3-39",
    "access": "",
    "games": [
      "pop'n music シリーズ"
    ]
  },
  {
    "name": "A.Cグランド",
    "operation_time": "9:00～24:00",
    "holiday": "無し",
    "latitude": "35.38308553",
    "longitude": "136.7461998",
    "tel": "058-275-0351",
    "address": "岐阜市茜部大川1-77",
    "access": "名鉄新岐阜駅15分",
    "games": [
      "pop'n music シリーズ"
    ]
  },
  {
    "name": "アピナ上越インター店",
    "operation_time": "10:00～24:00",
    "holiday": "無し",
    "latitude": "37.15427822",
    "longitude": "138.2556225",
    "tel": "025-520-7013",
    "address": "上越市富岡3439",
    "access": "リージョンプラザ近くかに池交差点",
    "games": [
      "pop'n music シリーズ"
    ]
  },
  {
    "name": "ゲームアルカナ",
    "operation_time": "",
    "holiday": "",
    "latitude": "35.25180865",
    "longitude": "136.7788584",
    "tel": "0587-50-6605",
    "address": "稲沢市朝府町2-33",
    "access": "",
    "games": [
      "pop'n music シリーズ"
    ]
  },
  {
    "name": "アミュージアム津島店",
    "operation_time": "",
    "holiday": "",
    "latitude": "35.174616",
    "longitude": "136.746635",
    "tel": "0567-26-3055",
    "address": "津島市大字津島字北新開351ヨシヅヤ津島本店シネマ館2F",
    "access": "",
    "games": [
      "pop'n music シリーズ"
    ]
  },
  {
    "name": "楽市楽座イオンモール扶桑店",
    "operation_time": "10:00～21:00",
    "holiday": "無し",
    "latitude": "35.36209526",
    "longitude": "136.8990146",
    "tel": "0587-93-7132",
    "address": "丹羽郡扶桑町南山名字高塚5イオンモール扶桑2F",
    "access": "名鉄犬山線「扶桑駅」より車で10分。イオン扶桑店2F。",
    "games": [
      "pop'n music シリーズ"
    ]
  },
  {
    "name": "アミューズメントスペースコミ丸四日市店",
    "operation_time": "",
    "holiday": "",
    "latitude": "34.96631",
    "longitude": "136.61633",
    "tel": "059-325-7685",
    "address": "四日市市鵜の森1-3-19",
    "access": "",
    "games": [
      "pop'n music シリーズ"
    ]
  },
  {
    "name": "アピナ四日市店",
    "operation_time": "",
    "holiday": "",
    "latitude": "34.94000426",
    "longitude": "136.6070666",
    "tel": "059-349-5011",
    "address": "四日市市泊小柳町4-34",
    "access": "",
    "games": [
      "pop'n music シリーズ"
    ]
  },
  {
    "name": "ラウンドワン名古屋西春店",
    "operation_time": "",
    "holiday": "",
    "latitude": "35.25506282",
    "longitude": "136.8439405",
    "tel": "0568-26-4001",
    "address": "北名古屋市宇福寺神明15",
    "access": "",
    "games": [
      "pop'n music シリーズ"
    ]
  },
  {
    "name": "ラウンドワンみえ川越IC店",
    "operation_time": "",
    "holiday": "",
    "latitude": "35.02319916",
    "longitude": "136.6836502",
    "tel": "059-361-2130",
    "address": "三重郡川越町大字南福崎851-1",
    "access": "",
    "games": [
      "pop'n music シリーズ"
    ]
  },
  {
    "name": "ラウンドワン新潟店",
    "operation_time": "",
    "holiday": "",
    "latitude": "37.88807436",
    "longitude": "139.0177537",
    "tel": "025-280-1322",
    "address": "新潟市中央区美咲町2-1-38",
    "access": "",
    "games": [
      "pop'n music シリーズ"
    ]
  },
  {
    "name": "プレイハウスエリナ",
    "operation_time": "",
    "holiday": "",
    "latitude": "37.71741366",
    "longitude": "138.8908286",
    "tel": "0256-82-4541",
    "address": "新潟市西蒲区津雲田640",
    "access": "JR「岩室駅」より車で5分。駅より国道116号を南下し国道沿い右側。",
    "games": [
      "pop'n music シリーズ"
    ]
  },
  {
    "name": "ファンタジープラザ名古屋店",
    "operation_time": "10:00～翌5:00",
    "holiday": "無し",
    "latitude": "35.22569311",
    "longitude": "136.908786",
    "tel": "052-938-3461",
    "address": "名古屋市北区玄馬町234-1クロスタウン2F",
    "access": "比良駅徒歩6分/大我麻交差点付近",
    "games": [
      "pop'n music シリーズ"
    ]
  },
  {
    "name": "namco新潟店",
    "operation_time": "",
    "holiday": "",
    "latitude": "37.90823",
    "longitude": "139.064009",
    "tel": "025-384-4980",
    "address": "新潟市中央区南笹口1-1-1ひもろぎビル2F",
    "access": "",
    "games": [
      "pop'n music シリーズ"
    ]
  },
  {
    "name": "BOX.Q3",
    "operation_time": "10:00～24:00",
    "holiday": "無し",
    "latitude": "35.17310098",
    "longitude": "136.876603",
    "tel": "052-452-0920",
    "address": "名古屋市中村区則武1-16-8第一Uコーポ1F",
    "access": "各線名古屋駅 太閤口徒歩5分",
    "games": [
      "pop'n music シリーズ"
    ]
  },
  {
    "name": "コムテックタワー",
    "operation_time": "平日10:00～24:00、土日祝9:00～24:00",
    "holiday": "",
    "latitude": "35.16941986",
    "longitude": "136.885993",
    "tel": "052-565-6471",
    "address": "名古屋市中村区名駅4-10-20",
    "access": "JR名古屋駅徒歩5分",
    "games": [
      "pop'n music シリーズ"
    ]
  },
  {
    "name": "ラウンドワン津･高茶屋店",
    "operation_time": "",
    "holiday": "",
    "latitude": "34.6726828",
    "longitude": "136.5194663",
    "tel": "059-238-0011",
    "address": "津市高茶屋小森町277-8",
    "access": "",
    "games": [
      "pop'n music シリーズ"
    ]
  },
  {
    "name": "GiGOマーケットスクエアささしま",
    "operation_time": "",
    "holiday": "",
    "latitude": "35.162736",
    "longitude": "136.884929",
    "tel": "070-1458-1766",
    "address": "名古屋市中村区平池町4-60-14",
    "access": "",
    "games": [
      "pop'n music シリーズ"
    ]
  },
  {
    "name": "ラウンドワン中川一号線店",
    "operation_time": "",
    "holiday": "",
    "latitude": "35.12338322",
    "longitude": "136.8636484",
    "tel": "052-665-5353",
    "address": "名古屋市中川区法蔵町2-23",
    "access": "",
    "games": [
      "pop'n music シリーズ"
    ]
  },
  {
    "name": "アピナ鶴岡店",
    "operation_time": "",
    "holiday": "",
    "latitude": "38.75839782",
    "longitude": "139.8439993",
    "tel": "0235-29-1141",
    "address": "鶴岡市文下字広野1-1",
    "access": "",
    "games": [
      "pop'n music シリーズ"
    ]
  },
  {
    "name": "タイトーFステーション八戸店",
    "operation_time": "",
    "holiday": "",
    "latitude": "40.509433",
    "longitude": "141.490509",
    "tel": "017-838-3757",
    "address": "八戸市三日町27",
    "access": "",
    "games": [
      "pop'n music シリーズ"
    ]
  },
  {
    "name": "カプコサーカス新潟東店",
    "operation_time": "",
    "holiday": "",
    "latitude": "37.92475865",
    "longitude": "139.1146465",
    "tel": "025-275-3777",
    "address": "新潟市東区大形本町3-1-2イオン新潟東店",
    "access": "",
    "games": [
      "pop'n music シリーズ"
    ]
  },
  {
    "name": "ファンタジードーム八戸店",
    "operation_time": "10:00～20:00",
    "holiday": "無し",
    "latitude": "40.5217548",
    "longitude": "141.5034775",
    "tel": "0178-47-1370",
    "address": "八戸市江陽2-14-1ラピア八戸別棟",
    "access": "長崎屋八戸店内",
    "games": [
      "pop'n music シリーズ"
    ]
  },
  {
    "name": "アピナ名古屋栄店",
    "operation_time": "",
    "holiday": "",
    "latitude": "35.17020888",
    "longitude": "136.9063926",
    "tel": "052-959-5539",
    "address": "名古屋市中区錦3-17-15ドン･キホーテ栄本店B1F-B3F",
    "access": "",
    "games": [
      "pop'n music シリーズ"
    ]
  },
  {
    "name": "キングジョイ",
    "operation_time": "9:00～24:00",
    "holiday": "無し",
    "latitude": "35.16797694",
    "longitude": "136.9050444",
    "tel": "052-241-9515",
    "address": "名古屋市中区栄3-3-32",
    "access": "地下鉄栄駅徒歩3分",
    "games": [
      "pop'n music シリーズ"
    ]
  },
  {
    "name": "ゆりの木ボウル",
    "operation_time": "",
    "holiday": "",
    "latitude": "40.506688",
    "longitude": "141.493379",
    "tel": "0178-45-1022",
    "address": "八戸市鷹匠小路10-3",
    "access": "",
    "games": [
      "pop'n music シリーズ"
    ]
  },
  {
    "name": "スイーツ･ハートイオン春日井店",
    "operation_time": "",
    "holiday": "",
    "latitude": "35.237945",
    "longitude": "136.962431",
    "tel": "0568-41-9409",
    "address": "春日井市柏井町4-17イオン春日井店内4F",
    "access": "",
    "games": [
      "pop'n music シリーズ"
    ]
  },
  {
    "name": "モーリーファンタジーf新潟亀田インター",
    "operation_time": "9:00～22:00",
    "holiday": "無し",
    "latitude": "37.87624975",
    "longitude": "139.0816577",
    "tel": "070-3100-4212",
    "address": "新潟市江南区下早通柳田1-1-1イオンモール新潟亀田インター2F",
    "access": "新潟亀田ICから約5分。 JR新潟駅から約4キロ、JR亀田駅から約2.5キロ",
    "games": [
      "pop'n music シリーズ"
    ]
  },
  {
    "name": "ゲームパニック大須",
    "operation_time": "",
    "holiday": "",
    "latitude": "35.16021164",
    "longitude": "136.9053459",
    "tel": "052-228-2407",
    "address": "名古屋市中区大須3-30-93メガタウンB1F",
    "access": "",
    "games": [
      "pop'n music シリーズ"
    ]
  },
  {
    "name": "タイトーステーションフェドラ大須店",
    "operation_time": "10:00～24:00",
    "holiday": "無し",
    "latitude": "35.15945319",
    "longitude": "136.9054236",
    "tel": "052-242-2011",
    "address": "名古屋市中区大須3-30-31萬松寺駐車場ビル1F･2F",
    "access": "地下鉄名城線上前津駅より徒歩1分",
    "games": [
      "pop'n music シリーズ"
    ]
  },
  {
    "name": "ラウンドワンイーアス春日井店",
    "operation_time": "",
    "holiday": "",
    "latitude": "35.25898",
    "longitude": "136.98241",
    "tel": "0568-86-1600",
    "address": "春日井市六軒屋町東丘22区画番号3010",
    "access": "",
    "games": [
      "pop'n music シリーズ"
    ]
  },
  {
    "name": "コムテックスクウェア金山",
    "operation_time": "9:00～24:00",
    "holiday": "",
    "latitude": "35.14401179",
    "longitude": "136.8999767",
    "tel": "052-321-5601",
    "address": "名古屋市中区金山1-16-8",
    "access": "名鉄金山駅徒歩3分",
    "games": [
      "pop'n music シリーズ"
    ]
  },
  {
    "name": "GiGO金山",
    "operation_time": "",
    "holiday": "",
    "latitude": "35.14264312",
    "longitude": "136.9023578",
    "tel": "052-323-0121",
    "address": "名古屋市熱田区金山町1-19-2",
    "access": "",
    "games": [
      "pop'n music シリーズ"
    ]
  },
  {
    "name": "ラウンドワン千種店",
    "operation_time": "",
    "holiday": "",
    "latitude": "35.16799971",
    "longitude": "136.9279985",
    "tel": "052-238-1615",
    "address": "名古屋市千種区新栄3-20-17タイホウ千種駅前南ビル8F",
    "access": "",
    "games": [
      "pop'n music シリーズ"
    ]
  },
  {
    "name": "ADXマミー春日井出川店",
    "operation_time": "",
    "holiday": "",
    "latitude": "35.26729521",
    "longitude": "137.012739",
    "tel": "0568-54-8590",
    "address": "春日井市不二が丘1-5",
    "access": "",
    "games": [
      "pop'n music シリーズ"
    ]
  },
  {
    "name": "プラサカプコン大曲店",
    "operation_time": "",
    "holiday": "",
    "latitude": "39.437678",
    "longitude": "140.5092836",
    "tel": "0187-86-3444",
    "address": "大仙市和合字坪立177イオンモール大曲2F",
    "access": "",
    "games": [
      "pop'n music シリーズ"
    ]
  },
  {
    "name": "名古屋レジャーランド内田橋店",
    "operation_time": "一部24時間営業",
    "holiday": "無し",
    "latitude": "35.1137072",
    "longitude": "136.9098069",
    "tel": "052-694-6051",
    "address": "名古屋市南区内田橋2-26-22",
    "access": "名鉄常滑線豊田本町駅近く",
    "games": [
      "pop'n music シリーズ"
    ]
  },
  {
    "name": "ゲームチャオ松阪店",
    "operation_time": "10:00～24:00",
    "holiday": "無し",
    "latitude": "34.58867016",
    "longitude": "136.5257638",
    "tel": "0598-53-3918",
    "address": "松阪市船江町782",
    "access": "国道42号線沿い、松阪駅から車で5分",
    "games": [
      "pop'n music シリーズ"
    ]
  },
  {
    "name": "ポート24八事店",
    "operation_time": "09:00～24:00",
    "holiday": "無休",
    "latitude": "35.1371687",
    "longitude": "136.964233",
    "tel": "052-834-9200",
    "address": "名古屋市昭和区広路町字北石坂102-4",
    "access": "地下鉄 八事駅  1分",
    "games": [
      "pop'n music シリーズ"
    ]
  },
  {
    "name": "アピナ長岡店",
    "operation_time": "10:00～24:00",
    "holiday": "無し",
    "latitude": "37.45794202",
    "longitude": "138.8125194",
    "tel": "0258-22-5510",
    "address": "長岡市堺東町22",
    "access": "国道8号線長岡バイパス堺交差点近く",
    "games": [
      "pop'n music シリーズ"
    ]
  },
  {
    "name": "メジャーロード見附店",
    "operation_time": "10:00～24:00",
    "holiday": "無し",
    "latitude": "37.54318868",
    "longitude": "138.8915351",
    "tel": "0258-66-8080",
    "address": "見附市上新田町516-1",
    "access": "高速「中之島見附IC」より車で5分。国道8号線を北上し「今町」交差点先の右側。",
    "games": [
      "pop'n music シリーズ"
    ]
  },
  {
    "name": "ラウンドワン鳴海店",
    "operation_time": "",
    "holiday": "",
    "latitude": "35.09913151",
    "longitude": "136.9528735",
    "tel": "052-899-0700",
    "address": "名古屋市緑区鳴海町字杜若28",
    "access": "",
    "games": [
      "pop'n music シリーズ"
    ]
  },
  {
    "name": "ゲームパニック大高",
    "operation_time": "9:00～23:45",
    "holiday": "無し",
    "latitude": "35.04850561",
    "longitude": "136.9496236",
    "tel": "052-625-5360",
    "address": "名古屋市緑区忠治山201グランドボウルB2F",
    "access": "国道23号線大高町共和IC側道グランドボウルB2階",
    "games": [
      "pop'n music シリーズ"
    ]
  },
  {
    "name": "ゲームセンターテクノポリス",
    "operation_time": "10:00～24:00",
    "holiday": "無し",
    "latitude": "37.42498834",
    "longitude": "138.8377613",
    "tel": "0258-33-1516",
    "address": "長岡市要町1-8-50",
    "access": "JR「宮内駅」西口より徒歩で5分。県道498号線沿い。",
    "games": [
      "pop'n music シリーズ"
    ]
  },
  {
    "name": "GiGO長久手",
    "operation_time": "9:00～24:00",
    "holiday": "無し",
    "latitude": "35.17139252",
    "longitude": "137.045573",
    "tel": "0561-64-5205",
    "address": "長久手市武蔵塚705",
    "access": "",
    "games": [
      "pop'n music シリーズ"
    ]
  },
  {
    "name": "アピナ川中島店",
    "operation_time": "10:00～24:00",
    "holiday": "無し",
    "latitude": "36.597909",
    "longitude": "138.157802",
    "tel": "026-214-6699",
    "address": "長野市川中島町御厨967-1",
    "access": "77号線長野南郵便局隣",
    "games": [
      "pop'n music シリーズ"
    ]
  },
  {
    "name": "ダイナソアエイジ",
    "operation_time": "",
    "holiday": "",
    "latitude": "35.03099",
    "longitude": "136.95617",
    "tel": "0562-47-1234",
    "address": "大府市東新町3-88",
    "access": "",
    "games": [
      "pop'n music シリーズ"
    ]
  },
  {
    "name": "タイトーFステーション南紀",
    "operation_time": "10:00～21:00",
    "holiday": "無し",
    "latitude": "33.67212987",
    "longitude": "135.9704993",
    "tel": "0735-31-3375",
    "address": "新宮市佐野3-11-19スーパーセンターオオクワ1F",
    "access": "JR紀勢本線紀伊佐野駅下車徒歩10分",
    "games": [
      "pop'n music シリーズ"
    ]
  },
  {
    "name": "ラウンドワン長野店",
    "operation_time": "",
    "holiday": "",
    "latitude": "36.65105714",
    "longitude": "138.225192",
    "tel": "026-254-5801",
    "address": "長野市大字東和田827-6",
    "access": "",
    "games": [
      "pop'n music シリーズ"
    ]
  },
  {
    "name": "モーリーファンタジー中標津",
    "operation_time": "",
    "holiday": "",
    "latitude": "43.53540619",
    "longitude": "144.9776846",
    "tel": "070-3100-4473",
    "address": "標津郡中標津町南町3-10東武サウスヒルズ1F",
    "access": "",
    "games": [
      "pop'n music シリーズ"
    ]
  },
  {
    "name": "M'sPARK刈谷店",
    "operation_time": "10:00～24:00",
    "holiday": "無し",
    "latitude": "35.00549344",
    "longitude": "137.0014494",
    "tel": "0566-27-5822",
    "address": "刈谷市稲場町3-206",
    "access": "155号沿い",
    "games": [
      "pop'n music シリーズ"
    ]
  },
  {
    "name": "半田メトロポリス",
    "operation_time": "平日10:00～23:50 土日祝日前 9:00～23:50",
    "holiday": "無し",
    "latitude": "34.87469206",
    "longitude": "136.9217723",
    "tel": "0569-24-5226",
    "address": "半田市旭町3-11-1半田コロナワールド内2F",
    "access": "JR武豊線東成岩駅より徒歩1分",
    "games": [
      "pop'n music シリーズ"
    ]
  },
  {
    "name": "トムソーヤのなかまたち湯沢店",
    "operation_time": "",
    "holiday": "",
    "latitude": "39.150546",
    "longitude": "140.469263",
    "tel": "0183-72-2811",
    "address": "湯沢市字上荻生田162イオンスーパーセンター湯沢店内",
    "access": "",
    "games": [
      "pop'n music シリーズ"
    ]
  },
  {
    "name": "ラウンドワン半田店",
    "operation_time": "",
    "holiday": "",
    "latitude": "34.88609688",
    "longitude": "136.9412056",
    "tel": "0569-25-7351",
    "address": "半田市瑞穂町6-7-8",
    "access": "",
    "games": [
      "pop'n music シリーズ"
    ]
  },
  {
    "name": "アピナ松本",
    "operation_time": "10:00～24:00",
    "holiday": "無し",
    "latitude": "36.21052692",
    "longitude": "137.9610526",
    "tel": "0263-24-1133",
    "address": "松本市双葉19-10",
    "access": "国道19号線沿い、イトーヨーカドーそば",
    "games": [
      "pop'n music シリーズ"
    ]
  },
  {
    "name": "HapipiLand十日町店",
    "operation_time": "",
    "holiday": "",
    "latitude": "37.13648",
    "longitude": "138.7456",
    "tel": "080-7143-5507",
    "address": "十日町市丑735-1",
    "access": "",
    "games": [
      "pop'n music シリーズ"
    ]
  },
  {
    "name": "タイトーステーション豊田GAZA店",
    "operation_time": "10:00～21:00",
    "holiday": "元日のみ",
    "latitude": "35.08804753",
    "longitude": "137.157265",
    "tel": "0565-31-4350",
    "address": "豊田市喜多町1-140GAZAビル3F",
    "access": "豊田市駅から徒歩1分、GAZA館3F。",
    "games": [
      "pop'n music シリーズ"
    ]
  },
  {
    "name": "M'Sパーク豊田店",
    "operation_time": "一部24時間営業",
    "holiday": "",
    "latitude": "35.0565113",
    "longitude": "137.1404324",
    "tel": "0565-71-0027",
    "address": "豊田市寿町3-10-11",
    "access": "愛知環状鉄道三河豊田駅10分。名鉄三河線土橋駅より徒歩10分。",
    "games": [
      "pop'n music シリーズ"
    ]
  },
  {
    "name": "アピナ上田店",
    "operation_time": "",
    "holiday": "",
    "latitude": "36.416102",
    "longitude": "138.223307",
    "tel": "0268-75-8055",
    "address": "上田市秋和359-1",
    "access": "",
    "games": [
      "pop'n music シリーズ"
    ]
  },
  {
    "name": "タイトーステーション盛岡マッハランド店",
    "operation_time": "10:00～24:00",
    "holiday": "無し",
    "latitude": "39.723902",
    "longitude": "141.126913",
    "tel": "019-648-1408",
    "address": "盛岡市上堂1-2-38",
    "access": "国道4号線沿い、マッハランド内。",
    "games": [
      "pop'n music シリーズ"
    ]
  },
  {
    "name": "ラウンドワン盛岡店",
    "operation_time": "",
    "holiday": "",
    "latitude": "39.70035197",
    "longitude": "141.133077",
    "tel": "019-654-9011",
    "address": "盛岡市盛岡駅西通2-10-35",
    "access": "",
    "games": [
      "pop'n music シリーズ"
    ]
  },
  {
    "name": "サンシャイン",
    "operation_time": "10:00～24:00",
    "holiday": "無し",
    "latitude": "39.70320065",
    "longitude": "141.1454348",
    "tel": "019-622-9516",
    "address": "盛岡市大通2-7-21",
    "access": "盛岡大通り沿い",
    "games": [
      "pop'n music シリーズ"
    ]
  },
  {
    "name": "ADXマミー岡崎店",
    "operation_time": "",
    "holiday": "",
    "latitude": "34.97692806",
    "longitude": "137.161659",
    "tel": "0564-83-6262",
    "address": "岡崎市井田新町6-1",
    "access": "",
    "games": [
      "pop'n music シリーズ"
    ]
  },
  {
    "name": "GiGO北岡崎",
    "operation_time": "9:00～24:00",
    "holiday": "無し",
    "latitude": "34.97365547",
    "longitude": "137.1600268",
    "tel": "070-1393-5583",
    "address": "岡崎市錦町2-4",
    "access": "国道248号線沿い、愛知環状線北岡崎駅から徒歩3分",
    "games": [
      "pop'n music シリーズ"
    ]
  },
  {
    "name": "GiGO新庄",
    "operation_time": "",
    "holiday": "",
    "latitude": "38.76416135",
    "longitude": "140.3089553",
    "tel": "080-7037-0268",
    "address": "新庄市金沢字沖1068",
    "access": "",
    "games": [
      "pop'n music シリーズ"
    ]
  },
  {
    "name": "ゲームゾーン岡谷",
    "operation_time": "",
    "holiday": "",
    "latitude": "36.0601829",
    "longitude": "138.0483111",
    "tel": "0266-78-6008",
    "address": "岡谷市中央町2-2-1",
    "access": "",
    "games": [
      "pop'n music シリーズ"
    ]
  },
  {
    "name": "プレイゾーンバンブー",
    "operation_time": "11:00～24:00",
    "holiday": "無し",
    "latitude": "37.051028",
    "longitude": "138.868007",
    "tel": "025-782-5277",
    "address": "南魚沼市竹俣60-6",
    "access": "JR「六日町」より車で5分。国道17号線沿い。",
    "games": [
      "pop'n music シリーズ"
    ]
  },
  {
    "name": "ポート24幸田",
    "operation_time": "10:00～24:00",
    "holiday": "無休",
    "latitude": "34.89016302",
    "longitude": "137.1632649",
    "tel": "0564-63-6588",
    "address": "額田郡幸田町大字高力字沖原15カメリアガーデン幸田内",
    "access": "東名高速音羽蒲郡ICから車で30分",
    "games": [
      "pop'n music シリーズ"
    ]
  },
  {
    "name": "ソユーファミリーゲームフィールド花巻店",
    "operation_time": "",
    "holiday": "",
    "latitude": "39.38633946",
    "longitude": "141.1360354",
    "tel": "0198-21-1030",
    "address": "花巻市高木第16地割68-6銀河モール花巻内",
    "access": "",
    "games": [
      "pop'n music シリーズ"
    ]
  },
  {
    "name": "アピナ飯田店",
    "operation_time": "10:00～24:00",
    "holiday": "無し",
    "latitude": "35.52993571",
    "longitude": "137.8596325",
    "tel": "026-559-7711",
    "address": "飯田市座光寺3728-1",
    "access": "国道153号線座光寺交差点近く",
    "games": [
      "pop'n music シリーズ"
    ]
  },
  {
    "name": "アピナ佐久インター店",
    "operation_time": "10:00～24:00",
    "holiday": "無し",
    "latitude": "36.284455",
    "longitude": "138.482344",
    "tel": "026-778-3399",
    "address": "佐久市岩村田北1-13-1",
    "access": "佐久インター近く",
    "games": [
      "pop'n music シリーズ"
    ]
  },
  {
    "name": "アピナ豊橋店",
    "operation_time": "",
    "holiday": "",
    "latitude": "34.744231",
    "longitude": "137.3717807",
    "tel": "0532-46-8822",
    "address": "豊橋市藤沢町141ホリデイ･スクエアAM棟1F",
    "access": "",
    "games": [
      "pop'n music シリーズ"
    ]
  },
  {
    "name": "GiGO天童",
    "operation_time": "10:00～24:00",
    "holiday": "無し",
    "latitude": "38.34302924",
    "longitude": "140.3739732",
    "tel": "023-656-9370",
    "address": "天童市南町1-5-26",
    "access": "JR「天童駅」より車で10分。国道13号線を南下し国道沿い左側。",
    "games": [
      "pop'n music シリーズ"
    ]
  },
  {
    "name": "テクノワールド",
    "operation_time": "店舗にてご確認ください",
    "holiday": "無し",
    "latitude": "39.179225",
    "longitude": "141.162155",
    "tel": "0197-47-3619",
    "address": "奥州市江刺愛宕梁川127-1",
    "access": "",
    "games": [
      "pop'n music シリーズ"
    ]
  },
  {
    "name": "ゲームゾーントレジャー北町店",
    "operation_time": "",
    "holiday": "",
    "latitude": "38.268738",
    "longitude": "140.329329",
    "tel": "023-682-3356",
    "address": "山形市北町2-2-45山形ファミリーボウル内",
    "access": "",
    "games": [
      "pop'n music シリーズ"
    ]
  },
  {
    "name": "ラウンドワン豊橋店",
    "operation_time": "",
    "holiday": "",
    "latitude": "34.7239242",
    "longitude": "137.4323261",
    "tel": "0532-65-2212",
    "address": "豊橋市大岩町字岩田27-2",
    "access": "",
    "games": [
      "pop'n music シリーズ"
    ]
  },
  {
    "name": "あそビレッジ山形店",
    "operation_time": "10:00～24:00",
    "holiday": "無し",
    "latitude": "38.20856169",
    "longitude": "140.3177262",
    "tel": "023-689-0366",
    "address": "山形市成沢西5-3-27",
    "access": "ヤマザワ成沢店側",
    "games": [
      "pop'n music シリーズ"
    ]
  },
  {
    "name": "PALO喜多方",
    "operation_time": "",
    "holiday": "",
    "latitude": "37.6469272",
    "longitude": "139.8595843",
    "tel": "070-3100-4648",
    "address": "喜多方市字押切南2-42-1リオンドールガーデンスクエア店内",
    "access": "",
    "games": [
      "pop'n music シリーズ"
    ]
  },
  {
    "name": "モーリーファンタジー米沢",
    "operation_time": "",
    "holiday": "",
    "latitude": "37.92310414",
    "longitude": "140.1084042",
    "tel": "070-3100-5149",
    "address": "米沢市春日2-13-4イオン米沢2F",
    "access": "",
    "games": [
      "pop'n music シリーズ"
    ]
  },
  {
    "name": "GiGO一関",
    "operation_time": "",
    "holiday": "",
    "latitude": "38.93370091",
    "longitude": "141.1183454",
    "tel": "070-6518-4359",
    "address": "一関市山目字中野92-1",
    "access": "",
    "games": [
      "pop'n music シリーズ"
    ]
  },
  {
    "name": "GiGO会津若松",
    "operation_time": "9:00～24:00",
    "holiday": "無し",
    "latitude": "37.51832577",
    "longitude": "139.9222191",
    "tel": "0242-37-0777",
    "address": "会津若松市町北町上荒久田字宮下142",
    "access": "磐越道会津若松IC側",
    "games": [
      "pop'n music シリーズ"
    ]
  },
  {
    "name": "ポート24浜松店",
    "operation_time": "10:00～24:00",
    "holiday": "無休",
    "latitude": "34.68017431",
    "longitude": "137.6443768",
    "tel": "053-440-5588",
    "address": "浜松市中央区坪井町4183",
    "access": "東名高速浜松西ICから車で15分",
    "games": [
      "pop'n music シリーズ"
    ]
  },
  {
    "name": "ユーズランド高崎店",
    "operation_time": "10:00～21:00",
    "holiday": "",
    "latitude": "36.39047889",
    "longitude": "139.0067302",
    "tel": "027-310-9113",
    "address": "高崎市棟高町1400イオン高崎SC2F",
    "access": "",
    "games": [
      "pop'n music シリーズ"
    ]
  },
  {
    "name": "楽市楽座サンストリート浜北店",
    "operation_time": "10:00～22:00",
    "holiday": "無し",
    "latitude": "34.79467266",
    "longitude": "137.7607979",
    "tel": "0535-84-6136",
    "address": "浜松市浜名区平口2861サンストリート浜北内 M-207",
    "access": "",
    "games": [
      "pop'n music シリーズ"
    ]
  },
  {
    "name": "タイトーステーション新浜松ザザシティ店",
    "operation_time": "10:00～20:00",
    "holiday": "ザザシティ休館日",
    "latitude": "34.705137",
    "longitude": "137.729441",
    "tel": "053-413-5256",
    "address": "浜松市中央区鍛冶町15ザザシティ浜松西館2F",
    "access": "JR「浜松駅」・遠鉄「新浜松駅」から徒歩5分",
    "games": [
      "pop'n music シリーズ"
    ]
  },
  {
    "name": "群馬レジャーランド高崎駅東口店",
    "operation_time": "一部24時間営業",
    "holiday": "無し",
    "latitude": "36.32992086",
    "longitude": "139.0128661",
    "tel": "027-330-3002",
    "address": "高崎市江木町333-1高崎EXビル2F",
    "access": "JR高崎駅東口徒歩10分",
    "games": [
      "pop'n music シリーズ"
    ]
  },
  {
    "name": "ラウンドワン浜松店",
    "operation_time": "",
    "holiday": "",
    "latitude": "34.73795995",
    "longitude": "137.7638799",
    "tel": "053-461-1101",
    "address": "浜松市中央区天王町諏訪1981-17",
    "access": "",
    "games": [
      "pop'n music シリーズ"
    ]
  },
  {
    "name": "マトリクス前橋店",
    "operation_time": "10:00～24:00",
    "holiday": "無し",
    "latitude": "36.37294244",
    "longitude": "139.059637",
    "tel": "027-212-3133",
    "address": "前橋市小相木町563-3",
    "access": "県道13号線小相木交差点を高崎方面へ150m",
    "games": [
      "pop'n music シリーズ"
    ]
  },
  {
    "name": "ラウンドワン前橋店",
    "operation_time": "",
    "holiday": "",
    "latitude": "36.36888377",
    "longitude": "139.1051864",
    "tel": "027-287-1501",
    "address": "前橋市天川大島町1101-1",
    "access": "",
    "games": [
      "pop'n music シリーズ"
    ]
  },
  {
    "name": "プラサカプコン甲府店",
    "operation_time": "",
    "holiday": "",
    "latitude": "35.642855",
    "longitude": "138.5462901",
    "tel": "055-236-6555",
    "address": "中巨摩郡昭和町西条3717",
    "access": "",
    "games": [
      "pop'n music シリーズ"
    ]
  },
  {
    "name": "ゲームパニック甲府",
    "operation_time": "",
    "holiday": "",
    "latitude": "35.64182781",
    "longitude": "138.547239",
    "tel": "080-3350-2893",
    "address": "甲府市国母5-20-24",
    "access": "",
    "games": [
      "pop'n music シリーズ"
    ]
  },
  {
    "name": "アピナ富谷店",
    "operation_time": "",
    "holiday": "",
    "latitude": "38.36528256",
    "longitude": "140.8765988",
    "tel": "022-341-5177",
    "address": "富谷市大清水1-33-1イオンモール109シネマズ富谷1F",
    "access": "",
    "games": [
      "pop'n music シリーズ"
    ]
  },
  {
    "name": "GAME BANK",
    "operation_time": "9:00～24:00",
    "holiday": "無し",
    "latitude": "38.352801",
    "longitude": "140.877385",
    "tel": "022-776-5677",
    "address": "仙台市泉区大沢2-5-4",
    "access": "東北自動車道 泉インター直ぐ",
    "games": [
      "pop'n music シリーズ"
    ]
  },
  {
    "name": "ラウンドワンスタジアム仙台泉店",
    "operation_time": "",
    "holiday": "",
    "latitude": "38.35192551",
    "longitude": "140.8797545",
    "tel": "022-347-4471",
    "address": "仙台市泉区大沢2-12-4仙台泉インターシティ1F",
    "access": "",
    "games": [
      "pop'n music シリーズ"
    ]
  },
  {
    "name": "アピナ磐田店",
    "operation_time": "",
    "holiday": "",
    "latitude": "34.727905",
    "longitude": "137.877149",
    "tel": "0538-36-2626",
    "address": "磐田市西貝塚横須賀道北3690イオンタウン磐田内",
    "access": "",
    "games": [
      "pop'n music シリーズ"
    ]
  },
  {
    "name": "インターワールド伊勢崎店",
    "operation_time": "10:00～24:00",
    "holiday": "無し",
    "latitude": "36.3315169",
    "longitude": "139.1624928",
    "tel": "0270-25-4338",
    "address": "伊勢崎市宮子町3425-4",
    "access": "関東自動車道駒形ICから5分。伊勢崎オートレース近く",
    "games": [
      "pop'n music シリーズ"
    ]
  },
  {
    "name": "群馬レジャーランド伊勢崎店",
    "operation_time": "一部24時間営業",
    "holiday": "無し",
    "latitude": "36.31824274",
    "longitude": "139.1723592",
    "tel": "0270-40-5330",
    "address": "伊勢崎市連取町3066-1",
    "access": "伊勢崎市内県道2号線沿い伊勢崎オート近く",
    "games": [
      "pop'n music シリーズ"
    ]
  },
  {
    "name": "ラウンドワンさいたま･上里店",
    "operation_time": "",
    "holiday": "",
    "latitude": "36.259925",
    "longitude": "139.137383",
    "tel": "0495-35-2201",
    "address": "児玉郡上里町大字金久保字周川394-1",
    "access": "",
    "games": [
      "pop'n music シリーズ"
    ]
  },
  {
    "name": "タイトーステーション仙台クリスロード店",
    "operation_time": "9:00～24:00",
    "holiday": "無し",
    "latitude": "38.261006",
    "longitude": "140.875705",
    "tel": "022-262-2541",
    "address": "仙台市青葉区中央2-3-25",
    "access": "JR仙台駅・地下鉄仙台駅より徒歩8分(ハピナ名掛丁アーケード内)",
    "games": [
      "pop'n music シリーズ"
    ]
  },
  {
    "name": "GiGO仙台",
    "operation_time": "",
    "holiday": "",
    "latitude": "38.26181",
    "longitude": "140.87675",
    "tel": "022-211-1922",
    "address": "仙台市青葉区中央2-5-5三経60ビル",
    "access": "",
    "games": [
      "pop'n music シリーズ"
    ]
  },
  {
    "name": "タイトーステーション仙台名掛丁店",
    "operation_time": "9:00～24:00",
    "holiday": "無し",
    "latitude": "38.262028",
    "longitude": "140.879112",
    "tel": "022-215-1664",
    "address": "仙台市青葉区中央1-7-13",
    "access": "JR仙台駅・地下鉄仙台駅より徒歩5分(ハピナ名掛丁アケード内)",
    "games": [
      "pop'n music シリーズ"
    ]
  },
  {
    "name": "タイトーステーション仙台ベガロポリス店",
    "operation_time": "10:00～24:00",
    "holiday": "無し",
    "latitude": "38.21973354",
    "longitude": "140.8479417",
    "tel": "022-307-3685",
    "address": "仙台市太白区西多賀5-24-1",
    "access": "国道286号沿い、JR長町駅より車で10分",
    "games": [
      "pop'n music シリーズ"
    ]
  },
  {
    "name": "ラウンドワン仙台苦竹店",
    "operation_time": "",
    "holiday": "",
    "latitude": "38.26828399",
    "longitude": "140.9172614",
    "tel": "022-788-2581",
    "address": "仙台市宮城野区苦竹1-7-10",
    "access": "",
    "games": [
      "pop'n music シリーズ"
    ]
  },
  {
    "name": "GiGO利府",
    "operation_time": "10:00～24:00",
    "holiday": "無し",
    "latitude": "38.32801132",
    "longitude": "140.9756135",
    "tel": "080-7500-4898",
    "address": "宮城郡利府町加瀬字新前谷地55-1",
    "access": "三陸自動車道 利府中IC下車利府バイパス沿い車で5分",
    "games": [
      "pop'n music シリーズ"
    ]
  },
  {
    "name": "ラウンドワン福島店",
    "operation_time": "",
    "holiday": "",
    "latitude": "37.75259469",
    "longitude": "140.4562354",
    "tel": "024-525-4731",
    "address": "福島市太田町14-18",
    "access": "",
    "games": [
      "pop'n music シリーズ"
    ]
  },
  {
    "name": "ゲームワンダーランド2東店",
    "operation_time": "一部24時間",
    "holiday": "無し",
    "latitude": "36.32856",
    "longitude": "139.247267",
    "tel": "027-061-0891",
    "address": "伊勢崎市東小保方町3464-1",
    "access": "291号線沿い流通団地交差点近く",
    "games": [
      "pop'n music シリーズ"
    ]
  },
  {
    "name": "GiGO福島南",
    "operation_time": "10:00～24:00",
    "holiday": "無し",
    "latitude": "37.72791083",
    "longitude": "140.4671033",
    "tel": "024-544-0280",
    "address": "福島市黒岩字中島7-2",
    "access": "高速福島西ICより車で15分。国道4号線を右折し「黒岩」交差点手前左側。",
    "games": [
      "pop'n music シリーズ"
    ]
  },
  {
    "name": "ゲームコーナー東部",
    "operation_time": "9:00～24:00",
    "holiday": "無し",
    "latitude": "38.25101621",
    "longitude": "140.9438974",
    "tel": "022-287-5880",
    "address": "仙台市若林区六丁の目中町26-60",
    "access": "六丁目の交差点より多賀城方面へ向かい車で5分。産業通り沿い。",
    "games": [
      "pop'n music シリーズ"
    ]
  },
  {
    "name": "プラサカプコン石巻店",
    "operation_time": "",
    "holiday": "",
    "latitude": "38.44750581",
    "longitude": "141.2660435",
    "tel": "0225-21-5366",
    "address": "石巻市茜平4-104イオンモール石巻2F",
    "access": "",
    "games": [
      "pop'n music シリーズ"
    ]
  },
  {
    "name": "ビデオゲームミュージアムロボット深谷店",
    "operation_time": "10:00～24:00",
    "holiday": "無し",
    "latitude": "36.17966807",
    "longitude": "139.2987761",
    "tel": "048-573-3951",
    "address": "深谷市上柴町西4-12-1",
    "access": "",
    "games": [
      "pop'n music シリーズ"
    ]
  },
  {
    "name": "群馬レジャーランド太田店",
    "operation_time": "一部24時間営業",
    "holiday": "無し",
    "latitude": "36.26802219",
    "longitude": "139.3761382",
    "tel": "0276-47-8030",
    "address": "太田市西矢島町162-2",
    "access": "",
    "games": [
      "pop'n music シリーズ"
    ]
  },
  {
    "name": "ユーズランド太田店",
    "operation_time": "10:00～21:00",
    "holiday": "無し",
    "latitude": "36.29327372",
    "longitude": "139.4001931",
    "tel": "0276-47-8722",
    "address": "太田市石原町81イオンモール太田2F",
    "access": "イオン太田SC2F東武伊勢崎線太田駅よりバスで10分東北道館林ICよりR354～R122(太田バイパス)経由約30分",
    "games": [
      "pop'n music シリーズ"
    ]
  },
  {
    "name": "アピナ太田店",
    "operation_time": "10:00～24:00",
    "holiday": "無し",
    "latitude": "36.28282169",
    "longitude": "139.3983139",
    "tel": "0276-48-1489",
    "address": "太田市内ヶ島町907-1",
    "access": "太田駅より車で5分富士重工近く",
    "games": [
      "pop'n music シリーズ"
    ]
  },
  {
    "name": "ドラマ足利店",
    "operation_time": "10:00～24:00",
    "holiday": "無し",
    "latitude": "36.32220259",
    "longitude": "139.4503607",
    "tel": "0284-73-9559",
    "address": "足利市朝倉町244-1",
    "access": "東武伊勢崎線足利市駅より徒歩10分",
    "games": [
      "pop'n music シリーズ"
    ]
  },
  {
    "name": "オレンジハット沖之郷店",
    "operation_time": "一部24時間",
    "holiday": "無し",
    "latitude": "36.295256",
    "longitude": "139.437192",
    "tel": "027-646-8050",
    "address": "太田市沖之郷町447-3",
    "access": "",
    "games": [
      "pop'n music シリーズ"
    ]
  },
  {
    "name": "ラウンドワン静岡･駿河店",
    "operation_time": "",
    "holiday": "",
    "latitude": "34.950991",
    "longitude": "138.360524",
    "tel": "054-201-1601",
    "address": "静岡市駿河区向手越1-10-1",
    "access": "",
    "games": [
      "pop'n music シリーズ"
    ]
  },
  {
    "name": "タイトーFステーション静岡店",
    "operation_time": "直接店舗にお問い合わせください",
    "holiday": "直接店舗にお問い合わせください",
    "latitude": "34.97439418",
    "longitude": "138.3832297",
    "tel": "054-251-3200",
    "address": "静岡市葵区呉服町2-5-4ふしみや第2ビル 5F",
    "access": "静岡駅より徒歩8分、新静岡駅より徒歩5分",
    "games": [
      "pop'n music シリーズ"
    ]
  },
  {
    "name": "ラウンドワン郡山店",
    "operation_time": "",
    "holiday": "",
    "latitude": "37.40229903",
    "longitude": "140.3957065",
    "tel": "024-941-3191",
    "address": "郡山市向河原町4-55",
    "access": "",
    "games": [
      "pop'n music シリーズ"
    ]
  },
  {
    "name": "namcoイオンタウン郡山店",
    "operation_time": "",
    "holiday": "",
    "latitude": "37.389283",
    "longitude": "140.390809",
    "tel": "024-943-2715",
    "address": "郡山市松木町2-88イオンタウン郡山",
    "access": "",
    "games": [
      "pop'n music シリーズ"
    ]
  },
  {
    "name": "アップル新北街道店",
    "operation_time": "10:00～24:00",
    "holiday": "無休",
    "latitude": "34.99831803",
    "longitude": "138.4134069",
    "tel": "054-261-9109",
    "address": "静岡市葵区沓谷5-13-4",
    "access": "東名高速静岡ICから車で20分",
    "games": [
      "pop'n music シリーズ"
    ]
  },
  {
    "name": "アップルグランリバー 大井川店",
    "operation_time": "10:00～24:00",
    "holiday": "無し",
    "latitude": "34.80971624",
    "longitude": "138.2732243",
    "tel": "054-270-3244",
    "address": "焼津市下江留1327",
    "access": "東名高速道路、吉田ICより車で10分",
    "games": [
      "pop'n music シリーズ"
    ]
  },
  {
    "name": "ゲームスペースA-3",
    "operation_time": "10:00～24:00",
    "holiday": "無し",
    "latitude": "37.12433442",
    "longitude": "140.1824915",
    "tel": "0248-23-3421",
    "address": "西白河郡西郷村豊作西15-16-17",
    "access": "新白河駅高原口より徒歩3分",
    "games": [
      "pop'n music シリーズ"
    ]
  },
  {
    "name": "アピナ焼津店",
    "operation_time": "",
    "holiday": "",
    "latitude": "34.83371431",
    "longitude": "138.3059489",
    "tel": "054-623-8555",
    "address": "焼津市道原585",
    "access": "",
    "games": [
      "pop'n music シリーズ"
    ]
  },
  {
    "name": "大田原スポーツランド",
    "operation_time": "10:00～翌2:00",
    "holiday": "無し",
    "latitude": "36.85195131",
    "longitude": "139.9934495",
    "tel": "0287-36-7137",
    "address": "那須塩原市一区町104-60",
    "access": "大田原ゴルフセンター入口付近(パチンコニラク前)",
    "games": [
      "pop'n music シリーズ"
    ]
  },
  {
    "name": "モーリーファンタジーf富士南",
    "operation_time": "",
    "holiday": "",
    "latitude": "35.13920415",
    "longitude": "138.6760841",
    "tel": "070-3100-4493",
    "address": "富士市鮫島118-10イオンタウン2F",
    "access": "",
    "games": [
      "pop'n music シリーズ"
    ]
  },
  {
    "name": "ラウンドワン富士店",
    "operation_time": "",
    "holiday": "",
    "latitude": "35.15310644",
    "longitude": "138.6938016",
    "tel": "0545-51-3636",
    "address": "富士市八代町4-15",
    "access": "",
    "games": [
      "pop'n music シリーズ"
    ]
  },
  {
    "name": "シーサイドリゾート",
    "operation_time": "10:00～24:00",
    "holiday": "無し",
    "latitude": "36.56327652",
    "longitude": "139.8604649",
    "tel": "028-632-5006",
    "address": "宇都宮市睦町7-3",
    "access": "鹿沼街道沿い",
    "games": [
      "pop'n music シリーズ"
    ]
  },
  {
    "name": "アミューズメントヒカリ",
    "operation_time": "",
    "holiday": "",
    "latitude": "36.56004",
    "longitude": "139.88167",
    "tel": "028-632-0382",
    "address": "宇都宮市江野町7-13ヒカリビル1F",
    "access": "",
    "games": [
      "pop'n music シリーズ"
    ]
  },
  {
    "name": "ラウンドワンさいたま･鴻巣店",
    "operation_time": "",
    "holiday": "",
    "latitude": "36.08064011",
    "longitude": "139.4902201",
    "tel": "048-595-2001",
    "address": "鴻巣市箕田3163-7",
    "access": "",
    "games": [
      "pop'n music シリーズ"
    ]
  },
  {
    "name": "ラウンドワン宇都宮店",
    "operation_time": "",
    "holiday": "",
    "latitude": "36.54080987",
    "longitude": "139.8868656",
    "tel": "028-614-8171",
    "address": "宇都宮市江曽島町2072-1",
    "access": "",
    "games": [
      "pop'n music シリーズ"
    ]
  },
  {
    "name": "キャロム 坂戸店",
    "operation_time": "12:00～翌3:00/祝前日、土曜日 午前5:00まで",
    "holiday": "無し",
    "latitude": "35.95251751",
    "longitude": "139.3985348",
    "tel": "0492-84-7821",
    "address": "坂戸市関間2-151-1",
    "access": "西入間警察署裏",
    "games": [
      "pop'n music シリーズ"
    ]
  },
  {
    "name": "キャロム青梅店",
    "operation_time": "10:00～翌5:00",
    "holiday": "",
    "latitude": "35.78660433",
    "longitude": "139.2700032",
    "tel": "0428-23-9208",
    "address": "青梅市千ヶ瀬町4-326-1",
    "access": "",
    "games": [
      "pop'n music シリーズ"
    ]
  },
  {
    "name": "インターパークプラスワン 宇都宮店",
    "operation_time": "9:00～24:00",
    "holiday": "無し",
    "latitude": "36.48822111",
    "longitude": "139.9053211",
    "tel": "028-657-6789",
    "address": "宇都宮市インターパーク6-5-1",
    "access": "国道4号線、北関東自動車道、宇都宮上三川インターインター降りてすぐ",
    "games": [
      "pop'n music シリーズ"
    ]
  },
  {
    "name": "ラウンドワン入間店",
    "operation_time": "",
    "holiday": "",
    "latitude": "35.82812299",
    "longitude": "139.3755366",
    "tel": "042-960-1521",
    "address": "入間市小谷田3-7-25",
    "access": "",
    "games": [
      "pop'n music シリーズ"
    ]
  },
  {
    "name": "タイトーFステーションおやまゆうえん店",
    "operation_time": "",
    "holiday": "",
    "latitude": "36.334678",
    "longitude": "139.807785",
    "tel": "0285-25-8661",
    "address": "小山市喜沢1475-52ハーヴェストウォーク内",
    "access": "",
    "games": [
      "pop'n music シリーズ"
    ]
  },
  {
    "name": "ソユーゲームフィールド菖蒲店",
    "operation_time": "",
    "holiday": "",
    "latitude": "36.07514072",
    "longitude": "139.6116324",
    "tel": "0480-87-1955",
    "address": "久喜市菖蒲町菖蒲6005-1モラージュ菖蒲3F",
    "access": "",
    "games": [
      "pop'n music シリーズ"
    ]
  },
  {
    "name": "モナコ川越店",
    "operation_time": "9:00～24:00",
    "holiday": "無し",
    "latitude": "35.91326113",
    "longitude": "139.483165",
    "tel": "0492-24-2454",
    "address": "川越市新富町2-4-1",
    "access": "東武東上線川越駅徒歩5分",
    "games": [
      "pop'n music シリーズ"
    ]
  },
  {
    "name": "アピナ小山店",
    "operation_time": "10:00～24:00",
    "holiday": "無し",
    "latitude": "36.300419",
    "longitude": "139.809126",
    "tel": "0285-31-0050",
    "address": "小山市駅南町4-27-18",
    "access": "国道50号線沿い駅南町交差点",
    "games": [
      "pop'n music シリーズ"
    ]
  },
  {
    "name": "ゲームパドック プラスワン",
    "operation_time": "9:00～24:00",
    "holiday": "無し",
    "latitude": "36.2067047",
    "longitude": "139.7580433",
    "tel": "0280-98-5161",
    "address": "古河市小堤1916-1",
    "access": "国道125号、古河方面から下妻方面に走行、新幹線のガードをくくって500m左手",
    "games": [
      "pop'n music シリーズ"
    ]
  },
  {
    "name": "サープラ沼津あそびタウン",
    "operation_time": "10:00～24:00",
    "holiday": "無し",
    "latitude": "35.10266451",
    "longitude": "138.8598883",
    "tel": "055-926-7739",
    "address": "沼津市大手町1-1-5",
    "access": "JR沼津駅徒歩5分",
    "games": [
      "pop'n music シリーズ"
    ]
  },
  {
    "name": "沼津バッティングセンター",
    "operation_time": "9:00～24:00",
    "holiday": "無休",
    "latitude": "35.12119934",
    "longitude": "138.8770362",
    "tel": "055-923-4199",
    "address": "沼津市岡一色字三竹道19-2",
    "access": "東名高速沼津IC下りて沼津方面車で5分",
    "games": [
      "pop'n music シリーズ"
    ]
  },
  {
    "name": "アピナ上尾店",
    "operation_time": "",
    "holiday": "",
    "latitude": "35.987191",
    "longitude": "139.579877",
    "tel": "048-783-4747",
    "address": "上尾市緑丘3-3-11-2プリンセス棟別棟",
    "access": "",
    "games": [
      "pop'n music シリーズ"
    ]
  },
  {
    "name": "アピナ川越店",
    "operation_time": "10:00～24:00",
    "holiday": "無し",
    "latitude": "35.9037481",
    "longitude": "139.5155363",
    "tel": "049-230-1068",
    "address": "川越市泉町1-1",
    "access": "JR川越線南古谷駅徒歩3分",
    "games": [
      "pop'n music シリーズ"
    ]
  },
  {
    "name": "ラウンドワン武蔵村山店",
    "operation_time": "",
    "holiday": "",
    "latitude": "35.73563714",
    "longitude": "139.3826993",
    "tel": "042-520-3211",
    "address": "武蔵村山市伊奈平3-1-1",
    "access": "",
    "games": [
      "pop'n music シリーズ"
    ]
  },
  {
    "name": "ラウンドワンさいたま･栗橋店",
    "operation_time": "",
    "holiday": "",
    "latitude": "36.12348469",
    "longitude": "139.7152159",
    "tel": "0480-55-0831",
    "address": "久喜市小右衛門192-1",
    "access": "",
    "games": [
      "pop'n music シリーズ"
    ]
  },
  {
    "name": "ラウンドワン上尾店",
    "operation_time": "",
    "holiday": "",
    "latitude": "35.98574121",
    "longitude": "139.6078308",
    "tel": "048-778-3411",
    "address": "上尾市大字平塚917-1",
    "access": "",
    "games": [
      "pop'n music シリーズ"
    ]
  },
  {
    "name": "シルクハット八王子",
    "operation_time": "10:00～24:45",
    "holiday": "",
    "latitude": "35.65636374",
    "longitude": "139.3384725",
    "tel": "",
    "address": "八王子市旭町2-5八王子ツインタワービル3F",
    "access": "JR八王子駅前",
    "games": [
      "pop'n music シリーズ"
    ]
  },
  {
    "name": "ドラマ八王子高倉店",
    "operation_time": "10:00～24:00",
    "holiday": "無し",
    "latitude": "35.66506526",
    "longitude": "139.3664795",
    "tel": "0426-45-7050",
    "address": "八王子市高倉町55-4",
    "access": "国道20号、八王子市高倉町「高倉町西」交差点を日野バイパス豊田方面右手",
    "games": [
      "pop'n music シリーズ"
    ]
  },
  {
    "name": "ラウンドワン所沢店",
    "operation_time": "",
    "holiday": "",
    "latitude": "35.78935214",
    "longitude": "139.4700049",
    "tel": "04-2940-8631",
    "address": "所沢市東町5-22TOCOTOCO SQUARE6F",
    "access": "",
    "games": [
      "pop'n music シリーズ"
    ]
  },
  {
    "name": "タイトーステーション所沢店",
    "operation_time": "09:00～24:00",
    "holiday": "無し",
    "latitude": "35.7881",
    "longitude": "139.47243",
    "tel": "04-2925-9071",
    "address": "所沢市日吉町3-7",
    "access": "所沢駅西口プロペ通りを徒歩3分",
    "games": [
      "pop'n music シリーズ"
    ]
  },
  {
    "name": "タイトーステーション立川北口店",
    "operation_time": "",
    "holiday": "",
    "latitude": "35.699058",
    "longitude": "139.412162",
    "tel": "042-512-9651",
    "address": "立川市曙町2-4-5OSJ TACHIKAWA2･3F",
    "access": "",
    "games": [
      "pop'n music シリーズ"
    ]
  },
  {
    "name": "GiGO立川",
    "operation_time": "",
    "holiday": "",
    "latitude": "35.6972343",
    "longitude": "139.4142917",
    "tel": "042-521-3050",
    "address": "立川市柴崎町3-2-1サザンビル1F",
    "access": "",
    "games": [
      "pop'n music シリーズ"
    ]
  },
  {
    "name": "ウェアハウス三橋店",
    "operation_time": "一部24時間営業",
    "holiday": "無し",
    "latitude": "35.91589833",
    "longitude": "139.5959286",
    "tel": "048-795-8380",
    "address": "さいたま市西区三橋6-955-1",
    "access": "国道17号バイパス三橋六丁目交差点",
    "games": [
      "pop'n music シリーズ"
    ]
  },
  {
    "name": "アピナ橋本店",
    "operation_time": "10:00～24:00",
    "holiday": "無し",
    "latitude": "35.597682",
    "longitude": "139.337035",
    "tel": "042-703-6033",
    "address": "相模原市緑区西橋本5-1-1ラ･フロール駐車場棟1F",
    "access": "橋本駅から徒歩10分 八王子バイパスから津久井街道へ繋がる側道に入ってすぐ",
    "games": [
      "pop'n music シリーズ"
    ]
  },
  {
    "name": "WORLD GAME CIRCUS",
    "operation_time": "",
    "holiday": "",
    "latitude": "35.69651",
    "longitude": "139.42878",
    "tel": "042-512-5610",
    "address": "立川市羽衣町2-4-13羽衣長田ビル101",
    "access": "",
    "games": [
      "pop'n music シリーズ"
    ]
  },
  {
    "name": "ラウンドワン大宮店",
    "operation_time": "",
    "holiday": "",
    "latitude": "35.91078012",
    "longitude": "139.6254963",
    "tel": "048-658-5666",
    "address": "さいたま市大宮区宮町4-90-7",
    "access": "",
    "games": [
      "pop'n music シリーズ"
    ]
  },
  {
    "name": "埼玉レジャーランド大宮駅東口店",
    "operation_time": "",
    "holiday": "",
    "latitude": "35.90800635",
    "longitude": "139.6245445",
    "tel": "048-788-4340",
    "address": "さいたま市大宮区宮町1-8大宮セントラルビルB1F-2F",
    "access": "",
    "games": [
      "pop'n music シリーズ"
    ]
  },
  {
    "name": "埼玉レジャーランド大宮ラクーン店",
    "operation_time": "",
    "holiday": "",
    "latitude": "35.90775385",
    "longitude": "139.6256741",
    "tel": "048-871-5539",
    "address": "さいたま市大宮区宮町1-60大宮ラクーン5F",
    "access": "",
    "games": [
      "pop'n music シリーズ"
    ]
  },
  {
    "name": "タイトーステーション大宮店",
    "operation_time": "9:00～翌1:00",
    "holiday": "無し",
    "latitude": "35.907441",
    "longitude": "139.625505",
    "tel": "048-782-5461",
    "address": "さいたま市大宮区大門町1-1",
    "access": "大宮駅東口徒歩1分",
    "games": [
      "pop'n music シリーズ"
    ]
  },
  {
    "name": "フリスポ下館",
    "operation_time": "",
    "holiday": "",
    "latitude": "36.30255879",
    "longitude": "139.9564543",
    "tel": "0296-22-7552",
    "address": "筑西市神分472",
    "access": "国道50号を下館から小山方面へ10分",
    "games": [
      "pop'n music シリーズ"
    ]
  },
  {
    "name": "GiGO相模原",
    "operation_time": "10:00～24:00",
    "holiday": "無し",
    "latitude": "35.57350902",
    "longitude": "139.3710322",
    "tel": "080-7465-6268",
    "address": "相模原市中央区中央2-1-5ムトス内",
    "access": "JR横浜線相模原駅徒歩15分国道16号線近く",
    "games": [
      "pop'n music シリーズ"
    ]
  },
  {
    "name": "タイトーステーション国分寺店",
    "operation_time": "",
    "holiday": "",
    "latitude": "35.701889",
    "longitude": "139.480156",
    "tel": "042-401-0592",
    "address": "国分寺市本町3-5-11",
    "access": "",
    "games": [
      "pop'n music シリーズ"
    ]
  },
  {
    "name": "Amusement&Game MAGHREB",
    "operation_time": "10:00～24:00",
    "holiday": "無し",
    "latitude": "35.624024",
    "longitude": "139.423196",
    "tel": "042-371-5556",
    "address": "多摩市落合1-39-2マグレブビル1F",
    "access": "京王線・小田急線 多摩センター駅 徒歩3分/多摩モノレール多摩センター駅 徒歩1分",
    "games": [
      "pop'n music シリーズ"
    ]
  },
  {
    "name": "永山コパボウル",
    "operation_time": "",
    "holiday": "",
    "latitude": "35.63150676",
    "longitude": "139.4479486",
    "tel": "042-339-9966",
    "address": "多摩市永山1-3-4ヒューマックスパビリオン6F",
    "access": "",
    "games": [
      "pop'n music シリーズ"
    ]
  },
  {
    "name": "ラウンドワン府中本町駅前店",
    "operation_time": "",
    "holiday": "",
    "latitude": "35.667312",
    "longitude": "139.477387",
    "tel": "042-340-4901",
    "address": "府中市本町1-13-3カネタビル",
    "access": "",
    "games": [
      "pop'n music シリーズ"
    ]
  },
  {
    "name": "ラウンドワン朝霞店",
    "operation_time": "",
    "holiday": "",
    "latitude": "35.79026242",
    "longitude": "139.5796756",
    "tel": "048-450-1822",
    "address": "朝霞市膝折町2-16-10",
    "access": "",
    "games": [
      "pop'n music シリーズ"
    ]
  },
  {
    "name": "タイトーステーション小田原店",
    "operation_time": "10:00～24:00",
    "holiday": "無し",
    "latitude": "35.25494514",
    "longitude": "139.1561641",
    "tel": "0465-23-2473",
    "address": "小田原市栄町1-3-12",
    "access": "小田原駅東口を出てすぐ",
    "games": [
      "pop'n music シリーズ"
    ]
  },
  {
    "name": "アミューズメントクラブ浦和",
    "operation_time": "10:00～23:45",
    "holiday": "無し",
    "latitude": "35.86027333",
    "longitude": "139.6535096",
    "tel": "048-814-0200",
    "address": "さいたま市浦和区仲町1-10-7",
    "access": "浦和駅西口徒歩8分",
    "games": [
      "pop'n music シリーズ"
    ]
  },
  {
    "name": "タイトーステーション小田原シティモール店",
    "operation_time": "10:00～24:00",
    "holiday": "無し",
    "latitude": "35.281376",
    "longitude": "139.193786",
    "tel": "0465-45-5052",
    "address": "小田原市前川120小田原シティーモールC棟2F",
    "access": "JR鴨宮駅より、徒歩約20分。",
    "games": [
      "pop'n music シリーズ"
    ]
  },
  {
    "name": "アドアーズ和光店",
    "operation_time": "10:00～23:30",
    "holiday": "無し",
    "latitude": "35.78829096",
    "longitude": "139.6116504",
    "tel": "048-463-5108",
    "address": "和光市本町3-5Million Annex 和光1-3F",
    "access": "和光市駅南口駅前交番前",
    "games": [
      "pop'n music シリーズ"
    ]
  },
  {
    "name": "タイトーステーション和光店",
    "operation_time": "10:00～24:00",
    "holiday": "無し",
    "latitude": "35.78667068",
    "longitude": "139.613806",
    "tel": "048-465-7161",
    "address": "和光市丸山台1-4-5",
    "access": "東武東上線・和光市駅より徒歩5分",
    "games": [
      "pop'n music シリーズ"
    ]
  },
  {
    "name": "神奈川レジャーランド厚木店",
    "operation_time": "一部24時間営業",
    "holiday": "無し",
    "latitude": "35.44802433",
    "longitude": "139.3431365",
    "tel": "050-1722-4336",
    "address": "厚木市戸室5-31-1",
    "access": "小田急本厚木駅よりバスにてアンリツ前バス停下車徒歩1分",
    "games": [
      "pop'n music シリーズ"
    ]
  },
  {
    "name": "ラウンドワンわらび店",
    "operation_time": "",
    "holiday": "",
    "latitude": "35.83078787",
    "longitude": "139.6742521",
    "tel": "048-447-8080",
    "address": "蕨市北町5-1-6",
    "access": "",
    "games": [
      "pop'n music シリーズ"
    ]
  },
  {
    "name": "GiGO成増",
    "operation_time": "",
    "holiday": "",
    "latitude": "35.7774666",
    "longitude": "139.6312648",
    "tel": "070-1459-3563",
    "address": "板橋区成増2-17-24五曠第6ビルB1F-1F",
    "access": "",
    "games": [
      "pop'n music シリーズ"
    ]
  },
  {
    "name": "ラウンドワン町田店",
    "operation_time": "",
    "holiday": "",
    "latitude": "35.54409488",
    "longitude": "139.4432407",
    "tel": "042-710-0091",
    "address": "町田市森野1-13-14",
    "access": "",
    "games": [
      "pop'n music シリーズ"
    ]
  },
  {
    "name": "GiGOイオンモール浦和美園",
    "operation_time": "9:00～23:00",
    "holiday": "無し",
    "latitude": "35.8909712",
    "longitude": "139.7311429",
    "tel": "080-4831-9105",
    "address": "さいたま市緑区美園5-50-1イオンモール浦和美園2F",
    "access": "イオン浦和美園ショッピングセンター内 2階",
    "games": [
      "pop'n music シリーズ"
    ]
  },
  {
    "name": "イミグランデ本厚木店",
    "operation_time": "10:00～24:00",
    "holiday": "無し",
    "latitude": "35.43943108",
    "longitude": "139.3616156",
    "tel": "0462-24-9933",
    "address": "厚木市中町3-2-1",
    "access": "小田急「本厚木」駅徒歩3分",
    "games": [
      "pop'n music シリーズ"
    ]
  },
  {
    "name": "GiGO町田",
    "operation_time": "",
    "holiday": "",
    "latitude": "35.54392",
    "longitude": "139.446987",
    "tel": "042-723-6701",
    "address": "町田市原町田6-13-17アーバンミサワビル",
    "access": "",
    "games": [
      "pop'n music シリーズ"
    ]
  },
  {
    "name": "シルクハット本厚木",
    "operation_time": "9:00～23:45",
    "holiday": "無し",
    "latitude": "35.44024066",
    "longitude": "139.3629959",
    "tel": "",
    "address": "厚木市中町3-4-22第二会田ビル2F",
    "access": "小田急「本厚木駅」北口より徒歩1分 第二会田ビル",
    "games": [
      "pop'n music シリーズ"
    ]
  },
  {
    "name": "東京レジャーランド吉祥寺店",
    "operation_time": "",
    "holiday": "",
    "latitude": "35.7036243",
    "longitude": "139.5786419",
    "tel": "0422-27-2200",
    "address": "武蔵野市吉祥寺本町1-3-7YSビル",
    "access": "",
    "games": [
      "pop'n music シリーズ"
    ]
  },
  {
    "name": "ラウンドワン吉祥寺店",
    "operation_time": "",
    "holiday": "",
    "latitude": "35.706276",
    "longitude": "139.580884",
    "tel": "0422-29-1051",
    "address": "武蔵野市吉祥寺本町1-11-22",
    "access": "",
    "games": [
      "pop'n music シリーズ"
    ]
  },
  {
    "name": "タイトーステーション町田店",
    "operation_time": "10:00～24:00",
    "holiday": "無し",
    "latitude": "35.542593",
    "longitude": "139.448333",
    "tel": "042-739-6196",
    "address": "町田市原町田6-21-23松山ビル1F",
    "access": "JR横浜線町田駅より徒歩3分・小田急線町田駅より徒歩5分",
    "games": [
      "pop'n music シリーズ"
    ]
  },
  {
    "name": "モーリーファンタジー下妻",
    "operation_time": "",
    "holiday": "",
    "latitude": "36.18994",
    "longitude": "139.990025",
    "tel": "070-3100-4886",
    "address": "下妻市堀籠972-1イオン下妻2F",
    "access": "",
    "games": [
      "pop'n music シリーズ"
    ]
  },
  {
    "name": "アドアーズ蕨店",
    "operation_time": "10:00～23:45",
    "holiday": "無し",
    "latitude": "35.82774017",
    "longitude": "139.6915296",
    "tel": "048-433-3886",
    "address": "蕨市塚越1-4-4花見屋第2ビル2F",
    "access": "塚越東口一番街通りを直進50m",
    "games": [
      "pop'n music シリーズ"
    ]
  },
  {
    "name": "ウェアハウス越谷店",
    "operation_time": "10:00～24:00",
    "holiday": "無し",
    "latitude": "35.91195206",
    "longitude": "139.7637557",
    "tel": "048-973-4311",
    "address": "越谷市大字南荻島841-1",
    "access": "越谷岩槻線沿い、国道4号から車で1分",
    "games": [
      "pop'n music シリーズ"
    ]
  },
  {
    "name": "タイトーステーション海老名ビナウォーク店",
    "operation_time": "10:00～24:00",
    "holiday": "無し",
    "latitude": "35.452455",
    "longitude": "139.395834",
    "tel": "046-292-5160",
    "address": "海老名市中央1-18-1ビナウォーク6番館2F",
    "access": "JR相模線、相鉄線、小田急線、海老名駅より徒歩5分",
    "games": [
      "pop'n music シリーズ"
    ]
  },
  {
    "name": "ミラクル イン 中村橋",
    "operation_time": "10:00～24:00",
    "holiday": "無し",
    "latitude": "35.73696054",
    "longitude": "139.6383659",
    "tel": "03-5933-9312",
    "address": "練馬区貫井1-1-2",
    "access": "西武池袋線中村橋駅徒歩2分",
    "games": [
      "pop'n music シリーズ"
    ]
  },
  {
    "name": "テクモピア座間店",
    "operation_time": "",
    "holiday": "",
    "latitude": "35.48001079",
    "longitude": "139.431891",
    "tel": "046-205-4719",
    "address": "座間市ひばりが丘4-11-48",
    "access": "",
    "games": [
      "pop'n music シリーズ"
    ]
  },
  {
    "name": "ラウンドワン板橋店",
    "operation_time": "",
    "holiday": "",
    "latitude": "35.77658",
    "longitude": "139.67879",
    "tel": "03-5922-3521",
    "address": "板橋区相生町16-13",
    "access": "",
    "games": [
      "pop'n music シリーズ"
    ]
  },
  {
    "name": "アピナ野田七光台店",
    "operation_time": "",
    "holiday": "",
    "latitude": "35.98235422",
    "longitude": "139.8501674",
    "tel": "0471-27-1137",
    "address": "野田市七光台4-2ロックタウン内",
    "access": "",
    "games": [
      "pop'n music シリーズ"
    ]
  },
  {
    "name": "イミグランデ大和店",
    "operation_time": "10:00～24:00",
    "holiday": "無し",
    "latitude": "35.49148588",
    "longitude": "139.4547647",
    "tel": "046-277-8571",
    "address": "大和市鶴間2-12-27",
    "access": "小田急鶴間駅徒歩5分",
    "games": [
      "pop'n music シリーズ"
    ]
  },
  {
    "name": "タイトーFステーション向ヶ丘遊園店",
    "operation_time": "",
    "holiday": "",
    "latitude": "35.616404",
    "longitude": "139.565109",
    "tel": "044-281-3500",
    "address": "川崎市多摩区登戸2718-1",
    "access": "",
    "games": [
      "pop'n music シリーズ"
    ]
  },
  {
    "name": "千葉レジャーランド野田店",
    "operation_time": "一部24時間営業",
    "holiday": "無し",
    "latitude": "35.97154747",
    "longitude": "139.8653487",
    "tel": "04-7120-3535",
    "address": "野田市吉春776-1",
    "access": "国道16号線沿い野田市吉春地内",
    "games": [
      "pop'n music シリーズ"
    ]
  },
  {
    "name": "ゲームシティ川口店",
    "operation_time": "10:00～23:50",
    "holiday": "無し",
    "latitude": "35.80263316",
    "longitude": "139.7255584",
    "tel": "048-250-3855",
    "address": "川口市栄町1-10-5",
    "access": "JR川口駅東口徒歩10分",
    "games": [
      "pop'n music シリーズ"
    ]
  },
  {
    "name": "ゲームスタジオキューブ高円寺",
    "operation_time": "10:00～翌1:00",
    "holiday": "無し",
    "latitude": "35.7049194",
    "longitude": "139.6495113",
    "tel": "03-3315-4448",
    "address": "杉並区高円寺南4-26-12福丸ビルB1F",
    "access": "JR中央線高円寺駅徒歩2分",
    "games": [
      "pop'n music シリーズ"
    ]
  },
  {
    "name": "ラウンドワンららぽーと湘南平塚店",
    "operation_time": "",
    "holiday": "",
    "latitude": "35.335825",
    "longitude": "139.354769",
    "tel": "0463-25-4051",
    "address": "平塚市天沼10-1ららぽーと湘南平塚店3F",
    "access": "",
    "games": [
      "pop'n music シリーズ"
    ]
  },
  {
    "name": "ゲームサファリ大山",
    "operation_time": "10:00～24:00",
    "holiday": "無し",
    "latitude": "35.74900603",
    "longitude": "139.7022497",
    "tel": "03-5248-4743",
    "address": "板橋区大山東町60-10パチンコやすだ2F",
    "access": "東武東上線大山駅徒歩1分",
    "games": [
      "pop'n music シリーズ"
    ]
  },
  {
    "name": "ウェアハウス入谷店",
    "operation_time": "10:00～24:00",
    "holiday": "無し",
    "latitude": "35.80112943",
    "longitude": "139.760997",
    "tel": "03-3856-5833",
    "address": "足立区入谷7-8-11",
    "access": "足立ICから車で3分",
    "games": [
      "pop'n music シリーズ"
    ]
  },
  {
    "name": "ユーズランド越谷店",
    "operation_time": "10:00～21:00",
    "holiday": "無し",
    "latitude": "35.87763779",
    "longitude": "139.8247477",
    "tel": "048-934-3342",
    "address": "越谷市レイクタウン4-2-2イオンレイクタウンKAZE 3F",
    "access": "武蔵野線レイクタウン駅下車徒歩1分",
    "games": [
      "pop'n music シリーズ"
    ]
  },
  {
    "name": "タイトーステーション池袋ロサ店",
    "operation_time": "10:00～24:00",
    "holiday": "無し",
    "latitude": "35.732483",
    "longitude": "139.709305",
    "tel": "03-3982-1270",
    "address": "豊島区西池袋1-37-12ロサ会館1F",
    "access": "JR池袋駅西口、北口より徒歩3分",
    "games": [
      "pop'n music シリーズ"
    ]
  },
  {
    "name": "タイトーステーション池袋西口店",
    "operation_time": "",
    "holiday": "",
    "latitude": "35.73058948",
    "longitude": "139.709706",
    "tel": "03-6907-3560",
    "address": "豊島区西池袋1-15-9第一西池ビル",
    "access": "",
    "games": [
      "pop'n music シリーズ"
    ]
  },
  {
    "name": "ラウンドワン池袋店",
    "operation_time": "",
    "holiday": "",
    "latitude": "35.730175",
    "longitude": "139.714846",
    "tel": "03-5928-0221",
    "address": "豊島区東池袋1-14-1池袋スクエア",
    "access": "",
    "games": [
      "pop'n music シリーズ"
    ]
  },
  {
    "name": "GiGO総本店",
    "operation_time": "",
    "holiday": "",
    "latitude": "35.72930775",
    "longitude": "139.7150562",
    "tel": "080-7018-7351",
    "address": "豊島区東池袋1-13-6ロクマルゲート池袋B1F-3F",
    "access": "",
    "games": [
      "pop'n music シリーズ"
    ]
  },
  {
    "name": "東京レジャーランド池袋店",
    "operation_time": "",
    "holiday": "",
    "latitude": "35.73071",
    "longitude": "139.71644",
    "tel": "03-5904-8388",
    "address": "豊島区東池袋1-29-1マルビル池袋2-3F",
    "access": "",
    "games": [
      "pop'n music シリーズ"
    ]
  },
  {
    "name": "タイトーステーションBIGBOX高田馬場",
    "operation_time": "10:00～24:00",
    "holiday": "無し",
    "latitude": "35.712933",
    "longitude": "139.70419",
    "tel": "03-5272-9855",
    "address": "新宿区高田馬場1-35-3BIGBOX6F",
    "access": "西武新宿線・高田馬場駅より徒歩1分",
    "games": [
      "pop'n music シリーズ"
    ]
  },
  {
    "name": "タイトーステーション溝の口店",
    "operation_time": "",
    "holiday": "",
    "latitude": "35.600042",
    "longitude": "139.61245",
    "tel": "044-328-9262",
    "address": "川崎市高津区溝口1-11-8",
    "access": "",
    "games": [
      "pop'n music シリーズ"
    ]
  },
  {
    "name": "ラウンドワン草加店",
    "operation_time": "",
    "holiday": "",
    "latitude": "35.81240056",
    "longitude": "139.7878993",
    "tel": "048-920-3701",
    "address": "草加市谷塚上町204-1",
    "access": "",
    "games": [
      "pop'n music シリーズ"
    ]
  },
  {
    "name": "イミグランデ溝口店",
    "operation_time": "10:00～24:00",
    "holiday": "無し",
    "latitude": "35.60052965",
    "longitude": "139.6144859",
    "tel": "044-819-8595",
    "address": "川崎市高津区溝口1-14-7第二カスタムビル",
    "access": "",
    "games": [
      "pop'n music シリーズ"
    ]
  },
  {
    "name": "ゲームファクトリーマグマ",
    "operation_time": "～24:00",
    "holiday": "無し",
    "latitude": "35.82819969",
    "longitude": "139.8024875",
    "tel": "0489-24-9800",
    "address": "草加市氷川町2125-1",
    "access": "東武伊勢崎線草加駅徒歩1分",
    "games": [
      "pop'n music シリーズ"
    ]
  },
  {
    "name": "ゲームパニック新宿歌舞伎町",
    "operation_time": "",
    "holiday": "",
    "latitude": "35.69606337",
    "longitude": "139.7012777",
    "tel": "03-6265-9021",
    "address": "新宿区歌舞伎町1-20-1ヒューマックスパビリオン1-2F",
    "access": "",
    "games": [
      "pop'n music シリーズ"
    ]
  },
  {
    "name": "GiGO新宿西口",
    "operation_time": "",
    "holiday": "",
    "latitude": "35.68945769",
    "longitude": "139.6973935",
    "tel": "03-3349-0257",
    "address": "新宿区西新宿1-12-5",
    "access": "",
    "games": [
      "pop'n music シリーズ"
    ]
  },
  {
    "name": "新宿スポーツランド本館",
    "operation_time": "",
    "holiday": "",
    "latitude": "35.69316847",
    "longitude": "139.7018443",
    "tel": "03-3352-5489",
    "address": "新宿区新宿3-22-12",
    "access": "",
    "games": [
      "pop'n music シリーズ"
    ]
  },
  {
    "name": "タイトーステーション新宿南口ゲームワールド店",
    "operation_time": "10:00～25:00",
    "holiday": "無し",
    "latitude": "35.689926",
    "longitude": "139.702372",
    "tel": "03-3226-0395",
    "address": "新宿区新宿3-35-8",
    "access": "JR・新宿駅より徒歩1分",
    "games": [
      "pop'n music シリーズ"
    ]
  },
  {
    "name": "ル･モンド 巣鴨店",
    "operation_time": "10:00～24:00",
    "holiday": "無し",
    "latitude": "35.734042",
    "longitude": "139.739662",
    "tel": "03-5944-5166",
    "address": "豊島区巣鴨2-5-9",
    "access": "",
    "games": [
      "pop'n music シリーズ"
    ]
  },
  {
    "name": "ウェアハウス保木間店",
    "operation_time": "10:00～24:00",
    "holiday": "無し",
    "latitude": "35.78913885",
    "longitude": "139.8032547",
    "tel": "03-3860-7822",
    "address": "足立区保木間1-1-19-1F",
    "access": "竹の塚駅より車で7分",
    "games": [
      "pop'n music シリーズ"
    ]
  },
  {
    "name": "ラウンドワンららぽーと新三郷店",
    "operation_time": "",
    "holiday": "",
    "latitude": "35.859813",
    "longitude": "139.865774",
    "tel": "048-950-7501",
    "address": "三郷市新三郷ららシティ3-1-1ららぽーと新三郷 2F",
    "access": "",
    "games": [
      "pop'n music シリーズ"
    ]
  },
  {
    "name": "ゲームパニック三郷",
    "operation_time": "",
    "holiday": "",
    "latitude": "35.84215546",
    "longitude": "139.8548102",
    "tel": "048-953-8295",
    "address": "三郷市ピアラシティ1-1-200",
    "access": "",
    "games": [
      "pop'n music シリーズ"
    ]
  },
  {
    "name": "ドラマ藤沢店",
    "operation_time": "10:00～24:00",
    "holiday": "無し",
    "latitude": "35.35751243",
    "longitude": "139.4682681",
    "tel": "0466-82-0328",
    "address": "藤沢市本藤沢5-6-8",
    "access": "小田急江ノ島線善行駅より徒歩15分",
    "games": [
      "pop'n music シリーズ"
    ]
  },
  {
    "name": "ASO:VIBA!",
    "operation_time": "10:00～24:00",
    "holiday": "無し",
    "latitude": "35.64677066",
    "longitude": "139.7109583",
    "tel": "03-3444-4912",
    "address": "渋谷区恵比寿1-10-5",
    "access": "JR山手線恵比寿駅徒歩1分",
    "games": [
      "pop'n music シリーズ"
    ]
  },
  {
    "name": "楽市楽座湘南藤沢店",
    "operation_time": "10:00～22:00",
    "holiday": "無し",
    "latitude": "35.34049487",
    "longitude": "139.4648408",
    "tel": "0466-30-2332",
    "address": "藤沢市辻堂新町4-3-5ミスターマックス湘南藤沢内",
    "access": "ミスターマックス湘南藤沢SC2F",
    "games": [
      "pop'n music シリーズ"
    ]
  },
  {
    "name": "タイトーステーション上野アメ横店",
    "operation_time": "10:00～24:00",
    "holiday": "無し",
    "latitude": "35.710538",
    "longitude": "139.774356",
    "tel": "03-3831-5800",
    "address": "台東区上野4-10-17",
    "access": "上野駅から徒歩2分!アメヤ横丁入ってすぐ",
    "games": [
      "pop'n music シリーズ"
    ]
  },
  {
    "name": "イミグランデ日吉店",
    "operation_time": "8:00～24:00",
    "holiday": "無し",
    "latitude": "35.554136",
    "longitude": "139.646509",
    "tel": "045-624-8633",
    "address": "横浜市港北区日吉2-2-4日吉ビル",
    "access": "",
    "games": [
      "pop'n music シリーズ"
    ]
  },
  {
    "name": "東京レジャーランド秋葉原店",
    "operation_time": "10:00～25:00",
    "holiday": "無し",
    "latitude": "35.69887947",
    "longitude": "139.7701404",
    "tel": "03-5298-1360",
    "address": "千代田区外神田1-9-5",
    "access": "JR秋葉原駅徒歩5分",
    "games": [
      "pop'n music シリーズ"
    ]
  },
  {
    "name": "東京レジャーランド秋葉原2号店",
    "operation_time": "10:00～25:00",
    "holiday": "無し",
    "latitude": "35.70073433",
    "longitude": "139.7718424",
    "tel": "03-5209-5650",
    "address": "千代田区外神田4-3-3",
    "access": "JR秋葉原駅より徒歩5分",
    "games": [
      "pop'n music シリーズ"
    ]
  },
  {
    "name": "GiGO秋葉原3号館",
    "operation_time": "",
    "holiday": "",
    "latitude": "35.699336",
    "longitude": "139.770908",
    "tel": "03-5297-3601",
    "address": "千代田区外神田1-11-11外神田1丁目ビルディング",
    "access": "",
    "games": [
      "pop'n music シリーズ"
    ]
  },
  {
    "name": "タイトーステーション秋葉原店",
    "operation_time": "10:00～24:00",
    "holiday": "無し",
    "latitude": "35.70025258",
    "longitude": "139.7716985",
    "tel": "03-5289-8445",
    "address": "千代田区外神田4-2-2貴三ビル",
    "access": "JR秋葉原駅電気街口を出て徒歩3分",
    "games": [
      "pop'n music シリーズ"
    ]
  },
  {
    "name": "シルクハット秋葉原",
    "operation_time": "",
    "holiday": "",
    "latitude": "35.69871026",
    "longitude": "139.7709979",
    "tel": "",
    "address": "千代田区外神田1-10-9",
    "access": "",
    "games": [
      "pop'n music シリーズ"
    ]
  },
  {
    "name": "ゲームパニック秋葉原",
    "operation_time": "",
    "holiday": "",
    "latitude": "35.69891",
    "longitude": "139.77165",
    "tel": "03-6285-2820",
    "address": "千代田区外神田1-13-1第122東京ビル",
    "access": "",
    "games": [
      "pop'n music シリーズ"
    ]
  },
  {
    "name": "ラウンドワン横浜綱島店",
    "operation_time": "",
    "holiday": "",
    "latitude": "35.53198182",
    "longitude": "139.6371126",
    "tel": "045-533-6151",
    "address": "横浜市港北区樽町2-6-40T-PLATZ",
    "access": "",
    "games": [
      "pop'n music シリーズ"
    ]
  },
  {
    "name": "タイトーステーション戸塚西口店",
    "operation_time": "10:00～24:00",
    "holiday": "無し",
    "latitude": "35.399502",
    "longitude": "139.531856",
    "tel": "045-881-6757",
    "address": "横浜市戸塚区戸塚町4023",
    "access": "JR戸塚駅西口・市営地下鉄戸塚駅より徒歩5分。",
    "games": [
      "pop'n music シリーズ"
    ]
  },
  {
    "name": "タイトーステーション藤沢店",
    "operation_time": "10:00～23:50",
    "holiday": "無し",
    "latitude": "35.337282",
    "longitude": "139.487332",
    "tel": "0466-47-9153",
    "address": "藤沢市南藤沢21-1",
    "access": "",
    "games": [
      "pop'n music シリーズ"
    ]
  },
  {
    "name": "ゲームメガつくば店",
    "operation_time": "",
    "holiday": "",
    "latitude": "36.07682559",
    "longitude": "140.1047877",
    "tel": "029-846-1200",
    "address": "つくば市小野崎177-2",
    "access": "",
    "games": [
      "pop'n music シリーズ"
    ]
  },
  {
    "name": "東京レジャーランド亀有店",
    "operation_time": "",
    "holiday": "",
    "latitude": "35.765462",
    "longitude": "139.84798",
    "tel": "03-5680-8893",
    "address": "葛飾区亀有3-21-2",
    "access": "",
    "games": [
      "pop'n music シリーズ"
    ]
  },
  {
    "name": "GiGOデイズタウンつくば",
    "operation_time": "10:00～24:00",
    "holiday": "無休",
    "latitude": "36.07768145",
    "longitude": "140.1153322",
    "tel": "070-1459-0875",
    "address": "つくば市竹園1-9-2デイズタウンつくばB1F",
    "access": "つくば駅徒歩5分デイズタウンつくばB1F",
    "games": [
      "pop'n music シリーズ"
    ]
  },
  {
    "name": "嶺宝スポーツセンター",
    "operation_time": "11:00～23:00",
    "holiday": "火曜日",
    "latitude": "36.97400283",
    "longitude": "140.8903913",
    "tel": "0246-58-8093",
    "address": "いわき市小名浜住吉字折返2-2",
    "access": "6号バイパス住吉交差点横",
    "games": [
      "pop'n music シリーズ"
    ]
  },
  {
    "name": "ラウンドワン横浜駅西口店",
    "operation_time": "",
    "holiday": "",
    "latitude": "35.46393717",
    "longitude": "139.6180549",
    "tel": "045-412-0880",
    "address": "横浜市西区南幸2-8-16",
    "access": "",
    "games": [
      "pop'n music シリーズ"
    ]
  },
  {
    "name": "タイトーステーション横浜西口五番街店",
    "operation_time": "平日10:00～23:50 土日祝日9:00～23:50",
    "holiday": "無し",
    "latitude": "35.464648",
    "longitude": "139.619593",
    "tel": "045-411-5288",
    "address": "横浜市西区南幸1-12-9",
    "access": "JR・相鉄線・東横線・みなとみらい線 横浜駅より徒歩3分",
    "games": [
      "pop'n music シリーズ"
    ]
  },
  {
    "name": "タイトーFステーションオリナス錦糸町店",
    "operation_time": "10:00～23:45",
    "holiday": "無し",
    "latitude": "35.700721",
    "longitude": "139.816024",
    "tel": "03-5610-7376",
    "address": "墨田区太平4-1-2オリナスB1F",
    "access": "JR総武線錦糸町駅北口から徒歩5分",
    "games": [
      "pop'n music シリーズ"
    ]
  },
  {
    "name": "アドアーズ亀戸店",
    "operation_time": "10:00～23:45",
    "holiday": "無し",
    "latitude": "35.69873199",
    "longitude": "139.8259341",
    "tel": "03-5836-5761",
    "address": "江東区亀戸5-2-6サンエービル1-5F",
    "access": "明治通りラーメン「日高屋」隣",
    "games": [
      "pop'n music シリーズ"
    ]
  },
  {
    "name": "シルクハット蒲田西口",
    "operation_time": "10:00～24:45",
    "holiday": "",
    "latitude": "35.56301591",
    "longitude": "139.7158447",
    "tel": "",
    "address": "大田区西蒲田7-2-3第二醍醐ビルB1-2F",
    "access": "",
    "games": [
      "pop'n music シリーズ"
    ]
  },
  {
    "name": "namco松戸店",
    "operation_time": "",
    "holiday": "",
    "latitude": "35.783581",
    "longitude": "139.900789",
    "tel": "047-711-7274",
    "address": "松戸市松戸1230-1ピアザ松戸1F",
    "access": "",
    "games": [
      "pop'n music シリーズ"
    ]
  },
  {
    "name": "ゲームガリバー柏",
    "operation_time": "8:30～23:00",
    "holiday": "無し",
    "latitude": "35.86153036",
    "longitude": "139.970926",
    "tel": "04-7164-9818",
    "address": "柏市柏1-1-11ファミリかしわB1F",
    "access": "JR柏駅東口および南口マルイ地下1階",
    "games": [
      "pop'n music シリーズ"
    ]
  },
  {
    "name": "ラウンドワンダイバーシティ東京プラザ店",
    "operation_time": "",
    "holiday": "",
    "latitude": "35.62521",
    "longitude": "139.775732",
    "tel": "03-3527-8491",
    "address": "江東区青海1-1-10ダイバーシティ東京6F-6100",
    "access": "",
    "games": [
      "pop'n music シリーズ"
    ]
  },
  {
    "name": "タイトーステーション柏店",
    "operation_time": "10:00～24:00",
    "holiday": "無し",
    "latitude": "35.86145714",
    "longitude": "139.972664",
    "tel": "04-7164-0866",
    "address": "柏市柏2-3-1",
    "access": "JR常磐線・柏駅より徒歩3分",
    "games": [
      "pop'n music シリーズ"
    ]
  },
  {
    "name": "シルクハット川崎ダイス",
    "operation_time": "9:00～24:45",
    "holiday": "無し",
    "latitude": "35.5314121",
    "longitude": "139.7002166",
    "tel": "",
    "address": "川崎市川崎区駅前本町8ダイスビルB2F",
    "access": "JR川崎駅アゼリア地下街と直結、京急川崎駅中央口徒歩1分",
    "games": [
      "pop'n music シリーズ"
    ]
  },
  {
    "name": "ピンクパンサー 水戸赤塚店",
    "operation_time": "10:00～24:00",
    "holiday": "無し",
    "latitude": "36.3807337",
    "longitude": "140.4136026",
    "tel": "029-309-1983",
    "address": "水戸市河和田1-1",
    "access": "JR水戸線 赤塚駅徒歩5分 フレスポ赤塚内",
    "games": [
      "pop'n music シリーズ"
    ]
  },
  {
    "name": "シルクハット伊勢佐木町",
    "operation_time": "9:00～23:45",
    "holiday": "無し",
    "latitude": "35.44281185",
    "longitude": "139.629987",
    "tel": "",
    "address": "横浜市中区伊勢佐木町3-96日活会館ビル3F",
    "access": "JR関内駅北口より徒歩7分・京急線日ノ出町より徒歩6分・横浜市営地下鉄ブルーライン伊勢佐木長者町駅より徒歩4分",
    "games": [
      "pop'n music シリーズ"
    ]
  },
  {
    "name": "ラウンドワン南砂店",
    "operation_time": "",
    "holiday": "",
    "latitude": "35.67184786",
    "longitude": "139.8361845",
    "tel": "03-5617-6911",
    "address": "江東区南砂6-7-15トピレックプラザ4F",
    "access": "",
    "games": [
      "pop'n music シリーズ"
    ]
  },
  {
    "name": "ラウンドワン川崎大師店",
    "operation_time": "",
    "holiday": "",
    "latitude": "35.53846653",
    "longitude": "139.741634",
    "tel": "044-270-1541",
    "address": "川崎市川崎区殿町1-5-1",
    "access": "",
    "games": [
      "pop'n music シリーズ"
    ]
  },
  {
    "name": "ゲームパニックつくば",
    "operation_time": "",
    "holiday": "",
    "latitude": "36.04632758",
    "longitude": "140.1679958",
    "tel": "080-3350-1839",
    "address": "土浦市中村東1-1-1",
    "access": "",
    "games": [
      "pop'n music シリーズ"
    ]
  },
  {
    "name": "GiGO水戸南",
    "operation_time": "",
    "holiday": "",
    "latitude": "36.350325",
    "longitude": "140.443003",
    "tel": "029-244-1045",
    "address": "水戸市千波町2017-1",
    "access": "",
    "games": [
      "pop'n music シリーズ"
    ]
  },
  {
    "name": "ラウンドワンアリオ柏店",
    "operation_time": "",
    "holiday": "",
    "latitude": "35.832403",
    "longitude": "140.012023",
    "tel": "04-7190-1201",
    "address": "柏市大島田1-6-1セブンパークアリオ柏 1070",
    "access": "",
    "games": [
      "pop'n music シリーズ"
    ]
  },
  {
    "name": "GiGOヒタチエ",
    "operation_time": "",
    "holiday": "",
    "latitude": "36.59170086",
    "longitude": "140.6592855",
    "tel": "0294-23-2046",
    "address": "日立市幸町1-16-1ヒタチエ5F",
    "access": "",
    "games": [
      "pop'n music シリーズ"
    ]
  },
  {
    "name": "ゲームメガ日立店",
    "operation_time": "10:00～24:00",
    "holiday": "無し",
    "latitude": "36.54818909",
    "longitude": "140.6305166",
    "tel": "0294-32-1983",
    "address": "日立市東多賀町5-10-10",
    "access": "常陸多賀駅徒歩5分",
    "games": [
      "pop'n music シリーズ"
    ]
  },
  {
    "name": "大慶園",
    "operation_time": "一部24時間営業",
    "holiday": "無し",
    "latitude": "35.76304297",
    "longitude": "139.96933",
    "tel": "047-337-5001",
    "address": "市川市大町359",
    "access": "JR市川大野駅下車 市川植物園行きバス乗車 市川斎場前下車徒歩10分・北総線大町駅から車5分",
    "games": [
      "pop'n music シリーズ"
    ]
  },
  {
    "name": "ラウンドワン市川鬼高店",
    "operation_time": "",
    "holiday": "",
    "latitude": "35.711239",
    "longitude": "139.927465",
    "tel": "047-320-3801",
    "address": "市川市鬼高4-1-3",
    "access": "",
    "games": [
      "pop'n music シリーズ"
    ]
  },
  {
    "name": "タイトーステーションイオンタウン水戸南店",
    "operation_time": "",
    "holiday": "",
    "latitude": "36.310917",
    "longitude": "140.442207",
    "tel": "029-297-8081",
    "address": "東茨城郡茨城町長岡3480-101イオンタウン水戸南ショッピングC",
    "access": "",
    "games": [
      "pop'n music シリーズ"
    ]
  },
  {
    "name": "タイトーFステーション市川妙典店",
    "operation_time": "施設の営業時間に準じる",
    "holiday": "施設の営業日に準じる",
    "latitude": "35.69246485",
    "longitude": "139.9267286",
    "tel": "047-318-3933",
    "address": "市川市妙典4-1-1イオン市川妙典店2番街2F",
    "access": "",
    "games": [
      "pop'n music シリーズ"
    ]
  },
  {
    "name": "アミューズビバ",
    "operation_time": "",
    "holiday": "",
    "latitude": "36.40636031",
    "longitude": "140.5317325",
    "tel": "029-274-7311",
    "address": "ひたちなか市東大島2-11-11-1Fゲームコーナー",
    "access": "勝田駅東口より北へ1km",
    "games": [
      "pop'n music シリーズ"
    ]
  },
  {
    "name": "ゲームメガ水戸けやき台店",
    "operation_time": "10:00～24:00",
    "holiday": "無し",
    "latitude": "36.33805576",
    "longitude": "140.4832773",
    "tel": "029-247-1983",
    "address": "水戸市酒門町3276-1",
    "access": "50号バイパス沿い",
    "games": [
      "pop'n music シリーズ"
    ]
  },
  {
    "name": "アドアーズ船橋店",
    "operation_time": "10:00～23:45",
    "holiday": "",
    "latitude": "35.700449",
    "longitude": "139.984231",
    "tel": "047-411-3337",
    "address": "船橋市本町1-31-26セブン船橋B1-3F",
    "access": "",
    "games": [
      "pop'n music シリーズ"
    ]
  },
  {
    "name": "タイトーステーション船橋店",
    "operation_time": "",
    "holiday": "",
    "latitude": "35.699888",
    "longitude": "139.98597",
    "tel": "047-436-8135",
    "address": "船橋市本町1-6-1",
    "access": "",
    "games": [
      "pop'n music シリーズ"
    ]
  },
  {
    "name": "アミューズメントエース津田沼",
    "operation_time": "9:00～24:00",
    "holiday": "無し",
    "latitude": "35.69228053",
    "longitude": "140.0201572",
    "tel": "047-475-8918",
    "address": "船橋市前原西2-15-1ファミービル1-3F",
    "access": "JR「津田沼駅」下車北口より徒歩1分",
    "games": [
      "pop'n music シリーズ"
    ]
  },
  {
    "name": "シルクハット津田沼",
    "operation_time": "9:00～23:45",
    "holiday": "無し",
    "latitude": "35.69040687",
    "longitude": "140.0221583",
    "tel": "",
    "address": "習志野市津田沼1-2-1十三ビルB1F",
    "access": "JR津田沼駅、京成新津田沼駅徒歩1分",
    "games": [
      "pop'n music シリーズ"
    ]
  },
  {
    "name": "キャッツアイ八千代店",
    "operation_time": "日～木・祝日:10:00～翌1:00  金・土・祝前日:10:00～翌2:00",
    "holiday": "",
    "latitude": "35.73361854",
    "longitude": "140.0724826",
    "tel": "047-480-0231",
    "address": "八千代市緑が丘西2-13-3ism緑が丘内",
    "access": "",
    "games": [
      "pop'n music シリーズ"
    ]
  },
  {
    "name": "ラッキーバッティングドーム",
    "operation_time": "9:00～23:50",
    "holiday": "無し",
    "latitude": "35.72444576",
    "longitude": "140.0674286",
    "tel": "047-458-8208",
    "address": "八千代市大和田新田1088",
    "access": "東葉高速鉄道八千代緑が丘駅徒歩10分",
    "games": [
      "pop'n music シリーズ"
    ]
  },
  {
    "name": "ラウンドワン習志野店",
    "operation_time": "",
    "holiday": "",
    "latitude": "35.660295",
    "longitude": "140.022576",
    "tel": "047-408-1901",
    "address": "習志野市芝園1-4-5",
    "access": "",
    "games": [
      "pop'n music シリーズ"
    ]
  },
  {
    "name": "アピナ印西店",
    "operation_time": "",
    "holiday": "",
    "latitude": "35.803009",
    "longitude": "140.162496",
    "tel": "0476-48-5841",
    "address": "印西市原1-2ビッグホップガーデンモール印西2F",
    "access": "",
    "games": [
      "pop'n music シリーズ"
    ]
  },
  {
    "name": "ラッキー佐倉店",
    "operation_time": "10:00～23:45",
    "holiday": "無し",
    "latitude": "35.71839979",
    "longitude": "140.1362206",
    "tel": "043-460-5165",
    "address": "佐倉市井野1475",
    "access": "京成線勝田台駅下車徒歩10分 国道296号沿い",
    "games": [
      "pop'n music シリーズ"
    ]
  },
  {
    "name": "パレパレ稲毛長沼店",
    "operation_time": "9:00～24:00",
    "holiday": "無し",
    "latitude": "35.65753267",
    "longitude": "140.129187",
    "tel": "043-304-7878",
    "address": "千葉市稲毛区長沼原町731-25フレスポ稲毛A2棟-4",
    "access": "JR稲毛駅より京成バス山王町行き、ヴィルフォーレ下車2分",
    "games": [
      "pop'n music シリーズ"
    ]
  },
  {
    "name": "ラッキー中央店(フェリシダ)",
    "operation_time": "9:00～24:50",
    "holiday": "無し",
    "latitude": "35.61028144",
    "longitude": "140.1182438",
    "tel": "043-222-5610",
    "address": "千葉市中央区富士見2-8-1",
    "access": "JR千葉駅より徒歩5分",
    "games": [
      "pop'n music シリーズ"
    ]
  },
  {
    "name": "ゲームチャリオット五井店",
    "operation_time": "10:00～24:00",
    "holiday": "無し",
    "latitude": "35.51363106",
    "longitude": "140.0899562",
    "tel": "0436-23-5533",
    "address": "市原市五井中央西2-1-2",
    "access": "JR五井駅西口駅前",
    "games": [
      "pop'n music シリーズ"
    ]
  },
  {
    "name": "ラウンドワン市原店",
    "operation_time": "",
    "holiday": "",
    "latitude": "35.54749256",
    "longitude": "140.1233239",
    "tel": "0436-44-8801",
    "address": "市原市八幡北町3-5-1",
    "access": "",
    "games": [
      "pop'n music シリーズ"
    ]
  },
  {
    "name": "ゲームチャリオット辰巳店",
    "operation_time": "10:00～24:00",
    "holiday": "無し",
    "latitude": "35.52471801",
    "longitude": "140.121946",
    "tel": "0436-41-9211",
    "address": "市原市市原500-1",
    "access": "館山自動車道蘇我ICより車で10分、国道297号線沿い",
    "games": [
      "pop'n music シリーズ"
    ]
  },
  {
    "name": "ゲームランドちはら台店",
    "operation_time": "",
    "holiday": "",
    "latitude": "35.52768701",
    "longitude": "140.1720039",
    "tel": "0436-76-0366",
    "address": "市原市ちはら台西3-4unimoちはら台2F",
    "access": "",
    "games": [
      "pop'n music シリーズ"
    ]
  },
  {
    "name": "GiGO神栖",
    "operation_time": "10:00～24:00",
    "holiday": "無し",
    "latitude": "35.89792811",
    "longitude": "140.6444633",
    "tel": "070-1458-2514",
    "address": "神栖市神栖1-8-1",
    "access": "東関東自動車道:潮来I.Cから約10分",
    "games": [
      "pop'n music シリーズ"
    ]
  },
  {
    "name": "千葉レジャーランド成東店",
    "operation_time": "一部24時間営業",
    "holiday": "無し",
    "latitude": "35.58828462",
    "longitude": "140.3904243",
    "tel": "047-580-1777",
    "address": "山武市姫島111-1",
    "access": "国道126号線成東町姫島地内ローソン奥",
    "games": [
      "pop'n music シリーズ"
    ]
  },
  {
    "name": "タイトーステーション旭サンモール店",
    "operation_time": "9:00～24:00",
    "holiday": "無し",
    "latitude": "35.725157",
    "longitude": "140.658686",
    "tel": "0479-62-5215",
    "address": "旭市イ-2676-1サンモール3F",
    "access": "旭駅から歩いて5分。 イオン、サンモールの看板が目印",
    "games": [
      "pop'n music シリーズ"
    ]
  }
]