[
  {
    "name": "遊道楽新合川",
    "operation_time": "10:00～24:00",
    "holiday": "無し",
    "latitude": "33.32176241",
    "longitude": "130.541007",
    "tel": "0942-45-3335",
    "address": "久留米市新合川1-6-7",
    "access": "国道210号線バイパス沿い",
    "games": [
      "天下一将棋会2"
    ]
  },
  {
    "name": "国分バッティングセンター",
    "operation_time": "10:00～24:00",
    "holiday": "無し",
    "latitude": "33.29941014",
    "longitude": "130.5328341",
    "tel": "0942-21-0441",
    "address": "久留米市国分町1408",
    "access": "国道3号線「刈原」交差点より競輪場方面へ",
    "games": [
      "天下一将棋会2"
    ]
  },
  {
    "name": "カッタの湯宇部店",
    "operation_time": "10:00～24:00",
    "holiday": "無し",
    "latitude": "33.95841927",
    "longitude": "131.2615641",
    "tel": "0836-37-2626",
    "address": "宇部市海南町1675カッタの湯",
    "access": "",
    "games": [
      "天下一将棋会2"
    ]
  },
  {
    "name": "トライセン中津店",
    "operation_time": "10:00～24:00",
    "holiday": "無し",
    "latitude": "33.58950451",
    "longitude": "131.2110968",
    "tel": "0979-85-0688",
    "address": "中津市下池永67-3",
    "access": "",
    "games": [
      "天下一将棋会2"
    ]
  },
  {
    "name": "パスカワールド宇土店",
    "operation_time": "日曜～木曜 10:00～23:00  金曜・土曜 10:00～24:00",
    "holiday": "無し",
    "latitude": "32.68271108",
    "longitude": "130.6679513",
    "tel": "0964-22-5311",
    "address": "宇土市善道寺町綾織95",
    "access": "松橋ICより車で10分、宇土シティーショッピングセンター内",
    "games": [
      "天下一将棋会2"
    ]
  },
  {
    "name": "ラウンドワン鹿児島宇宿店",
    "operation_time": "",
    "holiday": "",
    "latitude": "31.54388304",
    "longitude": "130.5427759",
    "tel": "099-284-0655",
    "address": "鹿児島市宇宿2-2-2",
    "access": "",
    "games": [
      "天下一将棋会2"
    ]
  },
  {
    "name": "タイトーステーション広島本通店",
    "operation_time": "10:00～24:00",
    "holiday": "無し",
    "latitude": "34.3929912",
    "longitude": "132.4599026",
    "tel": "082-541-6345",
    "address": "広島市中区本通3-5せらかぐ本通ビル",
    "access": "広島電鉄・立町駅より徒歩5分",
    "games": [
      "天下一将棋会2"
    ]
  },
  {
    "name": "アミューズメントパフェ パレパレ",
    "operation_time": "10:00～24:00",
    "holiday": "無し",
    "latitude": "34.08586633",
    "longitude": "134.5426759",
    "tel": "088-677-8991",
    "address": "徳島市南田宮2-2-46",
    "access": "国道11号線から田宮街道を西に車で5分",
    "games": [
      "天下一将棋会2"
    ]
  },
  {
    "name": "アミューズメント ミール",
    "operation_time": "10:00～24:00",
    "holiday": "無し",
    "latitude": "34.88047252",
    "longitude": "135.2295927",
    "tel": "0795-64-5678",
    "address": "三田市対中町5-21",
    "access": "神戸電鉄三田本町駅下車国道176号線側へ徒歩5分。車の場合はガリバー三田店より176号を三田方面へ、ブックプラザ三田店の向かい。",
    "games": [
      "天下一将棋会2"
    ]
  },
  {
    "name": "バイパスレジャーランド藤江本館",
    "operation_time": "一部24時間営業",
    "holiday": "無し",
    "latitude": "36.58397239",
    "longitude": "136.621523",
    "tel": "076-268-3798",
    "address": "金沢市藤江南2-41",
    "access": "国道8号線沿い藤江交差点近く",
    "games": [
      "天下一将棋会2"
    ]
  },
  {
    "name": "アピナ野々市バッティングセンター",
    "operation_time": "10:00～24:00",
    "holiday": "無し",
    "latitude": "36.5367673",
    "longitude": "136.6111101",
    "tel": "076-248-8889",
    "address": "野々市市若松町5-5",
    "access": "ホームセンターヤマギシ近く",
    "games": [
      "天下一将棋会2"
    ]
  },
  {
    "name": "難波ヒルズ",
    "operation_time": "10:15～23:00",
    "holiday": "無し",
    "latitude": "34.66626102",
    "longitude": "135.5018617",
    "tel": "090-3133-7638",
    "address": "大阪市中央区難波3-2-34",
    "access": "地下鉄御堂筋線難波駅下車徒歩5分",
    "games": [
      "天下一将棋会2"
    ]
  },
  {
    "name": "シャトーEX",
    "operation_time": "7:00～24:00",
    "holiday": "無し",
    "latitude": "34.69804475",
    "longitude": "135.5337005",
    "tel": "06-6882-4801",
    "address": "大阪市都島区東野田町3-9-3",
    "access": "JR/京阪京橋駅徒歩1分",
    "games": [
      "天下一将棋会2"
    ]
  },
  {
    "name": "トップラン東大阪",
    "operation_time": "",
    "holiday": "",
    "latitude": "34.69383",
    "longitude": "135.61757",
    "tel": "072-970-6923",
    "address": "東大阪市東鴻池町1-6-30イオンタウン東大阪2F",
    "access": "",
    "games": [
      "天下一将棋会2"
    ]
  },
  {
    "name": "アピナ富山新庄店",
    "operation_time": "10:00～24:00",
    "holiday": "無し",
    "latitude": "36.69533117",
    "longitude": "137.2480753",
    "tel": "076-491-7700",
    "address": "富山市荒川3-2-12",
    "access": "",
    "games": [
      "天下一将棋会2"
    ]
  },
  {
    "name": "プレイランド黒部",
    "operation_time": "5:00～24:00",
    "holiday": "無し",
    "latitude": "36.88891002",
    "longitude": "137.4646533",
    "tel": "0765-52-5141",
    "address": "黒部市沓掛645",
    "access": "国道8号線沿い黒部IC入口交差点近く",
    "games": [
      "天下一将棋会2"
    ]
  },
  {
    "name": "GiGOドリームタウン白樺",
    "operation_time": "9:00～翌3:00",
    "holiday": "無し",
    "latitude": "42.91947724",
    "longitude": "143.174195",
    "tel": "080-7422-4566",
    "address": "帯広市白樺16条西2ドリームタウン白樺内",
    "access": "ドリームタウン白樺内",
    "games": [
      "天下一将棋会2"
    ]
  },
  {
    "name": "A.Cグランド",
    "operation_time": "9:00～24:00",
    "holiday": "無し",
    "latitude": "35.38308553",
    "longitude": "136.7461998",
    "tel": "058-275-0351",
    "address": "岐阜市茜部大川1-77",
    "access": "名鉄新岐阜駅15分",
    "games": [
      "天下一将棋会2"
    ]
  },
  {
    "name": "アピナ四日市店",
    "operation_time": "",
    "holiday": "",
    "latitude": "34.94000426",
    "longitude": "136.6070666",
    "tel": "059-349-5011",
    "address": "四日市市泊小柳町4-34",
    "access": "",
    "games": [
      "天下一将棋会2"
    ]
  },
  {
    "name": "中川メトロポリス",
    "operation_time": "平日10:00～24:00、土日祝日9:00～24:00",
    "holiday": "無し",
    "latitude": "35.12530557",
    "longitude": "136.8238359",
    "tel": "052-303-9701",
    "address": "名古屋市中川区江松3-110",
    "access": "国道1号線三日月橋西詰・江松交差点角",
    "games": [
      "天下一将棋会2"
    ]
  },
  {
    "name": "ファンタジープラザ名古屋店",
    "operation_time": "10:00～翌5:00",
    "holiday": "無し",
    "latitude": "35.22569311",
    "longitude": "136.908786",
    "tel": "052-938-3461",
    "address": "名古屋市北区玄馬町234-1クロスタウン2F",
    "access": "比良駅徒歩6分/大我麻交差点付近",
    "games": [
      "天下一将棋会2"
    ]
  },
  {
    "name": "コムテックスクウェア金山",
    "operation_time": "9:00～24:00",
    "holiday": "",
    "latitude": "35.14401179",
    "longitude": "136.8999767",
    "tel": "052-321-5601",
    "address": "名古屋市中区金山1-16-8",
    "access": "名鉄金山駅徒歩3分",
    "games": [
      "天下一将棋会2"
    ]
  },
  {
    "name": "アピナ長岡店",
    "operation_time": "10:00～24:00",
    "holiday": "無し",
    "latitude": "37.45794202",
    "longitude": "138.8125194",
    "tel": "0258-22-5510",
    "address": "長岡市堺東町22",
    "access": "国道8号線長岡バイパス堺交差点近く",
    "games": [
      "天下一将棋会2"
    ]
  },
  {
    "name": "アピナ松本",
    "operation_time": "10:00～24:00",
    "holiday": "無し",
    "latitude": "36.21052692",
    "longitude": "137.9610526",
    "tel": "0263-24-1133",
    "address": "松本市双葉19-10",
    "access": "国道19号線沿い、イトーヨーカドーそば",
    "games": [
      "天下一将棋会2"
    ]
  },
  {
    "name": "ADXマミー岡崎店",
    "operation_time": "",
    "holiday": "",
    "latitude": "34.97692806",
    "longitude": "137.161659",
    "tel": "0564-83-6262",
    "address": "岡崎市井田新町6-1",
    "access": "",
    "games": [
      "天下一将棋会2"
    ]
  },
  {
    "name": "GiGO天童",
    "operation_time": "10:00～24:00",
    "holiday": "無し",
    "latitude": "38.34302924",
    "longitude": "140.3739732",
    "tel": "023-656-9370",
    "address": "天童市南町1-5-26",
    "access": "JR「天童駅」より車で10分。国道13号線を南下し国道沿い左側。",
    "games": [
      "天下一将棋会2"
    ]
  },
  {
    "name": "群馬レジャーランド高崎駅東口店",
    "operation_time": "一部24時間営業",
    "holiday": "無し",
    "latitude": "36.32992086",
    "longitude": "139.0128661",
    "tel": "027-330-3002",
    "address": "高崎市江木町333-1高崎EXビル2F",
    "access": "JR高崎駅東口徒歩10分",
    "games": [
      "天下一将棋会2"
    ]
  },
  {
    "name": "GAME BANK",
    "operation_time": "9:00～24:00",
    "holiday": "無し",
    "latitude": "38.352801",
    "longitude": "140.877385",
    "tel": "022-776-5677",
    "address": "仙台市泉区大沢2-5-4",
    "access": "東北自動車道 泉インター直ぐ",
    "games": [
      "天下一将棋会2"
    ]
  },
  {
    "name": "ゲームコーナー東部",
    "operation_time": "9:00～24:00",
    "holiday": "無し",
    "latitude": "38.25101621",
    "longitude": "140.9438974",
    "tel": "022-287-5880",
    "address": "仙台市若林区六丁の目中町26-60",
    "access": "六丁目の交差点より多賀城方面へ向かい車で5分。産業通り沿い。",
    "games": [
      "天下一将棋会2"
    ]
  },
  {
    "name": "ビデオゲームミュージアムロボット深谷店",
    "operation_time": "10:00～24:00",
    "holiday": "無し",
    "latitude": "36.17966807",
    "longitude": "139.2987761",
    "tel": "048-573-3951",
    "address": "深谷市上柴町西4-12-1",
    "access": "",
    "games": [
      "天下一将棋会2"
    ]
  },
  {
    "name": "群馬レジャーランド太田店",
    "operation_time": "一部24時間営業",
    "holiday": "無し",
    "latitude": "36.26802219",
    "longitude": "139.3761382",
    "tel": "0276-47-8030",
    "address": "太田市西矢島町162-2",
    "access": "",
    "games": [
      "天下一将棋会2"
    ]
  },
  {
    "name": "ドラマ足利店",
    "operation_time": "10:00～24:00",
    "holiday": "無し",
    "latitude": "36.32220259",
    "longitude": "139.4503607",
    "tel": "0284-73-9559",
    "address": "足利市朝倉町244-1",
    "access": "東武伊勢崎線足利市駅より徒歩10分",
    "games": [
      "天下一将棋会2"
    ]
  },
  {
    "name": "アップル新北街道店",
    "operation_time": "10:00～24:00",
    "holiday": "無休",
    "latitude": "34.99831803",
    "longitude": "138.4134069",
    "tel": "054-261-9109",
    "address": "静岡市葵区沓谷5-13-4",
    "access": "東名高速静岡ICから車で20分",
    "games": [
      "天下一将棋会2"
    ]
  },
  {
    "name": "ゲームスペースA-3",
    "operation_time": "10:00～24:00",
    "holiday": "無し",
    "latitude": "37.12433442",
    "longitude": "140.1824915",
    "tel": "0248-23-3421",
    "address": "西白河郡西郷村豊作西15-16-17",
    "access": "新白河駅高原口より徒歩3分",
    "games": [
      "天下一将棋会2"
    ]
  },
  {
    "name": "アピナ焼津店",
    "operation_time": "",
    "holiday": "",
    "latitude": "34.83371431",
    "longitude": "138.3059489",
    "tel": "054-623-8555",
    "address": "焼津市道原585",
    "access": "",
    "games": [
      "天下一将棋会2"
    ]
  },
  {
    "name": "ウェアハウス三橋店",
    "operation_time": "一部24時間営業",
    "holiday": "無し",
    "latitude": "35.91589833",
    "longitude": "139.5959286",
    "tel": "048-795-8380",
    "address": "さいたま市西区三橋6-955-1",
    "access": "国道17号バイパス三橋六丁目交差点",
    "games": [
      "天下一将棋会2"
    ]
  },
  {
    "name": "ビッグボウル杉戸",
    "operation_time": "10:00～翌1:00",
    "holiday": "無し",
    "latitude": "36.04028926",
    "longitude": "139.720837",
    "tel": "0480-34-7870",
    "address": "北葛飾郡杉戸町杉戸2338",
    "access": "東武伊勢崎線東武動物公園駅より徒歩30分 国道4号線沿い",
    "games": [
      "天下一将棋会2"
    ]
  },
  {
    "name": "千葉レジャーランド野田店",
    "operation_time": "一部24時間営業",
    "holiday": "無し",
    "latitude": "35.97154747",
    "longitude": "139.8653487",
    "tel": "04-7120-3535",
    "address": "野田市吉春776-1",
    "access": "国道16号線沿い野田市吉春地内",
    "games": [
      "天下一将棋会2"
    ]
  },
  {
    "name": "ゲームサファリ池袋",
    "operation_time": "10:00～24:00",
    "holiday": "無し",
    "latitude": "35.73224113",
    "longitude": "139.7133267",
    "tel": "03-3981-2544",
    "address": "豊島区東池袋1-42-3やすだ東池袋ビル2F",
    "access": "JR山手線池袋駅東口徒歩4分(ビックカメラ本店裏)",
    "games": [
      "天下一将棋会2"
    ]
  },
  {
    "name": "タイトーステーション新宿南口ゲームワールド店",
    "operation_time": "10:00～25:00",
    "holiday": "無し",
    "latitude": "35.689926",
    "longitude": "139.702372",
    "tel": "03-3226-0395",
    "address": "新宿区新宿3-35-8",
    "access": "JR・新宿駅より徒歩1分",
    "games": [
      "天下一将棋会2"
    ]
  },
  {
    "name": "ビリヤードウェアハウス草加店",
    "operation_time": "10:00～24:00",
    "holiday": "無し",
    "latitude": "35.83027597",
    "longitude": "139.8209349",
    "tel": "048-930-5033",
    "address": "草加市稲荷2-36-33",
    "access": "草加産業道路沿いウェアハウス草加店隣り",
    "games": [
      "天下一将棋会2"
    ]
  },
  {
    "name": "ウェアハウス南流山店",
    "operation_time": "10:00～24:00",
    "holiday": "無し",
    "latitude": "35.84020798",
    "longitude": "139.9050111",
    "tel": "04-7159-2351",
    "address": "流山市南流山4-16-6",
    "access": "南流山駅から徒歩3分",
    "games": [
      "天下一将棋会2"
    ]
  },
  {
    "name": "GiGOデイズタウンつくば",
    "operation_time": "10:00～24:00",
    "holiday": "無休",
    "latitude": "36.07768145",
    "longitude": "140.1153322",
    "tel": "070-1459-0875",
    "address": "つくば市竹園1-9-2デイズタウンつくばB1F",
    "access": "つくば駅徒歩5分デイズタウンつくばB1F",
    "games": [
      "天下一将棋会2"
    ]
  },
  {
    "name": "シルクハット伊勢佐木町",
    "operation_time": "9:00～23:45",
    "holiday": "無し",
    "latitude": "35.44281185",
    "longitude": "139.629987",
    "tel": "",
    "address": "横浜市中区伊勢佐木町3-96日活会館ビル3F",
    "access": "JR関内駅北口より徒歩7分・京急線日ノ出町より徒歩6分・横浜市営地下鉄ブルーライン伊勢佐木長者町駅より徒歩4分",
    "games": [
      "天下一将棋会2"
    ]
  },
  {
    "name": "ラウンドワン市川鬼高店",
    "operation_time": "",
    "holiday": "",
    "latitude": "35.711239",
    "longitude": "139.927465",
    "tel": "047-320-3801",
    "address": "市川市鬼高4-1-3",
    "access": "",
    "games": [
      "天下一将棋会2"
    ]
  },
  {
    "name": "ラッキー中央店(フェリシダ)",
    "operation_time": "9:00～24:50",
    "holiday": "無し",
    "latitude": "35.61028144",
    "longitude": "140.1182438",
    "tel": "043-222-5610",
    "address": "千葉市中央区富士見2-8-1",
    "access": "JR千葉駅より徒歩5分",
    "games": [
      "天下一将棋会2"
    ]
  }
]