{
  "shops": [
    {
      "name": "アミパラ佐世保店",
      "operation_time": "10:00～24:00",
      "holiday": "無し",
      "latitude": "33.15005741",
      "longitude": "129.7804145",
      "tel": "0956-34-8880",
      "address": "佐世保市大塔町18-15",
      "access": "JR大塔駅徒歩3分"
    },
    {
      "name": "楽市楽座イオンモール福岡伊都店",
      "operation_time": "10:00～22:00",
      "holiday": "施設の営業日に準じる",
      "latitude": "33.577027",
      "longitude": "130.256399",
      "tel": "092-805-8900",
      "address": "福岡市西区北原1-3-1イオン伊都ショッピンクセンター別館",
      "access": "JR筑肥線 九大学研都市駅 南口すぐ"
    },
    {
      "name": "GiGO武雄",
      "operation_time": "",
      "holiday": "",
      "latitude": "33.19933861",
      "longitude": "130.0346407",
      "tel": "0954-22-2087",
      "address": "武雄市武雄町大字富岡12517-1",
      "access": ""
    },
    {
      "name": "タイトーステーション福岡天神店",
      "operation_time": "10:00～翌1:00",
      "holiday": "無し",
      "latitude": "33.5896519",
      "longitude": "130.3962521",
      "tel": "092-737-5500",
      "address": "福岡市中央区天神2-6-35サザンクロスビル",
      "access": "西鉄福岡駅北口より徒歩2分"
    },
    {
      "name": "GiGO福岡天神",
      "operation_time": "",
      "holiday": "",
      "latitude": "33.589905",
      "longitude": "130.396633",
      "tel": "092-771-8121",
      "address": "福岡市中央区天神2-7-6天神DADAビル",
      "access": ""
    },
    {
      "name": "ラウンドワン福岡天神店",
      "operation_time": "",
      "holiday": "",
      "latitude": "33.58960223",
      "longitude": "130.3968402",
      "tel": "092-720-8101",
      "address": "福岡市中央区天神2-6-12",
      "access": ""
    },
    {
      "name": "namco博多バスターミナル店",
      "operation_time": "",
      "holiday": "",
      "latitude": "33.591529",
      "longitude": "130.419887",
      "tel": "092-434-3721",
      "address": "福岡市博多区博多駅中央街2-1博多バスターミナル7F",
      "access": ""
    },
    {
      "name": "ラウンドワン博多半道橋店",
      "operation_time": "",
      "holiday": "",
      "latitude": "33.58394157",
      "longitude": "130.4382666",
      "tel": "092-475-6611",
      "address": "福岡市博多区半道橋2-2-8",
      "access": ""
    },
    {
      "name": "ラウンドワン佐賀店",
      "operation_time": "",
      "holiday": "",
      "latitude": "33.27533631",
      "longitude": "130.3015536",
      "tel": "0952-36-7070",
      "address": "佐賀市兵庫北4-2-1",
      "access": ""
    },
    {
      "name": "GiGO諫早",
      "operation_time": "",
      "holiday": "",
      "latitude": "32.83163832",
      "longitude": "130.0553573",
      "tel": "070-1459-7051",
      "address": "諫早市小川町90-1",
      "access": ""
    },
    {
      "name": "ラウンドワン大野城店",
      "operation_time": "",
      "holiday": "",
      "latitude": "33.54646948",
      "longitude": "130.4822214",
      "tel": "092-504-7411",
      "address": "大野城市御笠川1-18-16",
      "access": ""
    },
    {
      "name": "GiGO中間",
      "operation_time": "",
      "holiday": "",
      "latitude": "33.8231005",
      "longitude": "130.721697",
      "tel": "093-246-1941",
      "address": "中間市上蓮花寺3-1-1",
      "access": ""
    },
    {
      "name": "ラウンドワン小倉店",
      "operation_time": "",
      "holiday": "",
      "latitude": "33.89742877",
      "longitude": "130.8598475",
      "tel": "093-562-8805",
      "address": "北九州市小倉北区西港町15-65",
      "access": ""
    },
    {
      "name": "G-STAGE小倉店",
      "operation_time": "10:00～20:00",
      "holiday": "無し",
      "latitude": "33.88758128",
      "longitude": "130.8847829",
      "tel": "093-551-3133",
      "address": "北九州市小倉北区浅野2-14-5",
      "access": "小倉駅前あるあるシティ2F"
    },
    {
      "name": "ハイパーメッセ",
      "operation_time": "",
      "holiday": "",
      "latitude": "33.839195",
      "longitude": "130.874155",
      "tel": "093-963-7850",
      "address": "北九州市小倉南区北方4-6-7",
      "access": ""
    },
    {
      "name": "アミパラ下関長府店",
      "operation_time": "10:00～24:00",
      "holiday": "無し",
      "latitude": "34.02547781",
      "longitude": "131.0073811",
      "tel": "083-248-5008",
      "address": "下関市長府才川1-42-48",
      "access": "JR長府駅徒歩12分"
    },
    {
      "name": "G-pala小倉店",
      "operation_time": "",
      "holiday": "",
      "latitude": "33.83945824",
      "longitude": "130.9109857",
      "tel": "093-953-7405",
      "address": "北九州市小倉南区上葛原1-14-1",
      "access": ""
    },
    {
      "name": "パスカワールドグリーンランド",
      "operation_time": "10:00～翌3:00",
      "holiday": "無し",
      "latitude": "32.98790587",
      "longitude": "130.4711246",
      "tel": "0968-69-3001",
      "address": "荒尾市本井手1574-54",
      "access": "三井グリーンランドウルトラマンランド横"
    },
    {
      "name": "カッタの湯宇部店",
      "operation_time": "10:00～24:00",
      "holiday": "無し",
      "latitude": "33.95841927",
      "longitude": "131.2615641",
      "tel": "0836-37-2626",
      "address": "宇部市海南町1675カッタの湯",
      "access": ""
    },
    {
      "name": "G-pala日田店",
      "operation_time": "10:00～24:00",
      "holiday": "無し",
      "latitude": "33.32522467",
      "longitude": "130.9114515",
      "tel": "0973-25-5262",
      "address": "日田市友田997-1",
      "access": ""
    },
    {
      "name": "フェスタ山鹿店",
      "operation_time": "店舗にてご確認ください",
      "holiday": "無し",
      "latitude": "33.00470816",
      "longitude": "130.72302",
      "tel": "096-844-5654",
      "address": "山鹿市方保田字鳥越3468-1",
      "access": "九州自動車道「植木IC」下車車10分"
    },
    {
      "name": "ラウンドワン熊本店",
      "operation_time": "",
      "holiday": "",
      "latitude": "32.78499883",
      "longitude": "130.6775647",
      "tel": "096-325-7200",
      "address": "熊本市西区春日7-25-15",
      "access": ""
    },
    {
      "name": "namcoワンダーシティ南熊本店",
      "operation_time": "",
      "holiday": "",
      "latitude": "32.78695703",
      "longitude": "130.7146907",
      "tel": "096-375-1131",
      "address": "熊本市中央区九品寺6-9-1",
      "access": ""
    },
    {
      "name": "ユーズランド三光店",
      "operation_time": "10:00～21:00",
      "holiday": "",
      "latitude": "33.559002",
      "longitude": "131.192857",
      "tel": "0979-43-6562",
      "address": "中津市三光佐知1032イオン三光SC2F",
      "access": ""
    },
    {
      "name": "PALO防府",
      "operation_time": "",
      "holiday": "",
      "latitude": "34.0522015",
      "longitude": "131.5685841",
      "tel": "070-3100-3731",
      "address": "防府市中央町1-3イオン防府店3F",
      "access": ""
    },
    {
      "name": "フェスタ人吉店",
      "operation_time": "10:00～24:00",
      "holiday": "無し",
      "latitude": "32.2120774",
      "longitude": "130.7482481",
      "tel": "0966-24-6210",
      "address": "人吉市宝来町1307-1人吉レックス内",
      "access": "人吉駅より車で5分"
    },
    {
      "name": "モーリーファンタジー那覇",
      "operation_time": "10:00～22:00",
      "holiday": "無し",
      "latitude": "26.19689585",
      "longitude": "127.6658336",
      "tel": "070-3100-5314",
      "address": "那覇市金城5-10-2イオン那覇3F",
      "access": "モノレール 小禄駅 正面 ジャスコ那覇店内3F"
    },
    {
      "name": "ラウンドワン沖縄･宜野湾店",
      "operation_time": "",
      "holiday": "",
      "latitude": "26.27580261",
      "longitude": "127.7310389",
      "tel": "098-870-2110",
      "address": "宜野湾市真志喜3-28-8",
      "access": ""
    },
    {
      "name": "ラウンドワン沖縄･南風原店",
      "operation_time": "",
      "holiday": "",
      "latitude": "26.19509176",
      "longitude": "127.7210653",
      "tel": "098-940-6670",
      "address": "島尻郡南風原町字兼城下茂原552",
      "access": ""
    },
    {
      "name": "ラウンドワン鹿児島宇宿店",
      "operation_time": "",
      "holiday": "",
      "latitude": "31.54388304",
      "longitude": "130.5427759",
      "tel": "099-284-0655",
      "address": "鹿児島市宇宿2-2-2",
      "access": ""
    },
    {
      "name": "FESTAフリーモールわさだ店",
      "operation_time": "店舗にてご確認ください",
      "holiday": "無し",
      "latitude": "33.18472246",
      "longitude": "131.5680754",
      "tel": "097-542-1883",
      "address": "大分市木上字鉾手2102",
      "access": "大分自動車道「大分光吉IC」下車車10分"
    },
    {
      "name": "ラウンドワン大分店",
      "operation_time": "",
      "holiday": "",
      "latitude": "33.24885259",
      "longitude": "131.6402543",
      "tel": "097-573-2800",
      "address": "大分市萩原2-13-17",
      "access": ""
    },
    {
      "name": "GiGO高城",
      "operation_time": "",
      "holiday": "",
      "latitude": "33.24179967",
      "longitude": "131.6373957",
      "tel": "0975-56-9072",
      "address": "大分市牧1-161-8",
      "access": ""
    },
    {
      "name": "ふぇすたらんど可部店",
      "operation_time": "10:00～20:00",
      "holiday": "無し",
      "latitude": "34.523539",
      "longitude": "132.51202",
      "tel": "082-815-7313",
      "address": "広島市安佐北区可部7-4-13山陽マルナカ可部店2F",
      "access": "可部駅広電バス「上根・吉田線」可部駅前より乗車、可部上市停留所より徒歩3分"
    },
    {
      "name": "アミパラ広島店",
      "operation_time": "10:00～24:00",
      "holiday": "無し",
      "latitude": "34.39350431",
      "longitude": "132.4360428",
      "tel": "082-297-7135",
      "address": "広島市西区西観音町3-17",
      "access": "平和大通り沿い、西区区役所から東へすぐ"
    },
    {
      "name": "タイトーステーション広島紙屋町店",
      "operation_time": "平日10:00～24:00 土日祝9:00～24:00",
      "holiday": "無し",
      "latitude": "34.394034",
      "longitude": "132.456154",
      "tel": "082-544-3961",
      "address": "広島市中区紙屋町2-2-21",
      "access": "広島電鉄 紙屋町西電停より徒歩2分"
    },
    {
      "name": "ラウンドワン広島店",
      "operation_time": "",
      "holiday": "",
      "latitude": "34.39365895",
      "longitude": "132.4600423",
      "tel": "082-545-8910",
      "address": "広島市中区立町3-11",
      "access": ""
    },
    {
      "name": "GiGO海田",
      "operation_time": "",
      "holiday": "",
      "latitude": "34.36767083",
      "longitude": "132.533669",
      "tel": "082-824-5550",
      "address": "安芸郡海田町南大正町3-35",
      "access": ""
    },
    {
      "name": "アミパラがいな店",
      "operation_time": "10:00 ～ 24:00",
      "holiday": "無し",
      "latitude": "35.43797411",
      "longitude": "133.3392651",
      "tel": "0859-39-1800",
      "address": "米子市日ノ出町1-8-13",
      "access": "米子しんまち天満屋から南西へ300m"
    },
    {
      "name": "アミパラここじゃ店",
      "operation_time": "10:00～24:00",
      "holiday": "無し",
      "latitude": "34.40752689",
      "longitude": "132.7155261",
      "tel": "082-424-4747",
      "address": "東広島市西条町下見6-10-19山手電気内",
      "access": "広島大学前の交差点より西へすぐ。山手電気内"
    },
    {
      "name": "GiGO広",
      "operation_time": "10:00～24:00",
      "holiday": "無し",
      "latitude": "34.22860722",
      "longitude": "132.6293589",
      "tel": "070-1459-4743",
      "address": "呉市広中町1-9フタバ図書TSUTAYA広店2F",
      "access": "呉線広駅前下車すぐ185号線沿いフタバ図書内"
    },
    {
      "name": "フェスタコスモタウン佐伯店",
      "operation_time": "",
      "holiday": "",
      "latitude": "32.9610561",
      "longitude": "131.8662353",
      "tel": "0972-22-3660",
      "address": "佐伯市鶴岡西町2-163コスモタウン佐伯内",
      "access": ""
    },
    {
      "name": "ラウンドワン宮崎店",
      "operation_time": "",
      "holiday": "",
      "latitude": "31.89458335",
      "longitude": "131.4170876",
      "tel": "0985-63-1210",
      "address": "宮崎市中村東3-4-60",
      "access": ""
    },
    {
      "name": "ラウンドワン松山店",
      "operation_time": "",
      "holiday": "",
      "latitude": "33.8664873",
      "longitude": "132.751593",
      "tel": "089-911-5511",
      "address": "松山市東長戸1-3-10",
      "access": ""
    },
    {
      "name": "ソユーフォレストハンター松前店",
      "operation_time": "",
      "holiday": "",
      "latitude": "33.78806436",
      "longitude": "132.7151667",
      "tel": "089-961-6277",
      "address": "伊予郡松前町筒井850エミフルMASAKI AM棟1F",
      "access": ""
    },
    {
      "name": "アミューズメントパークMGキスケ店",
      "operation_time": "",
      "holiday": "無し",
      "latitude": "33.84135404",
      "longitude": "132.753158",
      "tel": "089-933-2737",
      "address": "松山市宮田町4キスケボール1F内ゲームコーナー",
      "access": "JR松山駅より徒歩3分"
    },
    {
      "name": "アミューズメントパークMGジアス店",
      "operation_time": "",
      "holiday": "無し",
      "latitude": "34.44068975",
      "longitude": "133.2607402",
      "tel": "084-939-7733",
      "address": "福山市柳津町1-7-60",
      "access": ""
    },
    {
      "name": "ラウンドワン福山店",
      "operation_time": "",
      "holiday": "",
      "latitude": "34.489155",
      "longitude": "133.3925782",
      "tel": "084-973-9891",
      "address": "福山市明神町1-9-28",
      "access": ""
    },
    {
      "name": "アミューズメントパークMG東予店",
      "operation_time": "",
      "holiday": "",
      "latitude": "33.9205621",
      "longitude": "133.0775644",
      "tel": "0898-35-3222",
      "address": "西条市周布715-1フジ東予店 別棟",
      "access": ""
    },
    {
      "name": "ユーズランド倉敷店",
      "operation_time": "10:00～21:00",
      "holiday": "無し",
      "latitude": "34.60290341",
      "longitude": "133.7454258",
      "tel": "086-430-5234",
      "address": "倉敷市水江1イオン倉敷ショッピングセンター2F",
      "access": "イオン倉敷SC2F倉敷駅北口1番乗場よりバスで10分山陽自動車道倉敷ICより約7分"
    },
    {
      "name": "アミパラ倉敷店",
      "operation_time": "10:00～24:00",
      "holiday": "無し",
      "latitude": "34.58364137",
      "longitude": "133.7712207",
      "tel": "086-430-2111",
      "address": "倉敷市西中新田624-1アミパラボウル1F",
      "access": "倉敷市役所前、アミパラボウル1F"
    },
    {
      "name": "ラウンドワン岡山妹尾店",
      "operation_time": "",
      "holiday": "",
      "latitude": "34.62318926",
      "longitude": "133.8694608",
      "tel": "086-282-8851",
      "address": "岡山市南区妹尾3413-1",
      "access": ""
    },
    {
      "name": "アミパラテクノランド店",
      "operation_time": "10:00～24:00",
      "holiday": "",
      "latitude": "34.679221",
      "longitude": "133.927419",
      "tel": "086-225-3377",
      "address": "岡山市北区大和町1-7-12",
      "access": "法界院駅から徒歩10分"
    },
    {
      "name": "GiGOイオンモール岡山",
      "operation_time": "",
      "holiday": "",
      "latitude": "34.66214987",
      "longitude": "133.9177027",
      "tel": "086-227-7681",
      "address": "岡山市北区下石井1-2-1イオンモール岡山6F",
      "access": ""
    },
    {
      "name": "アミューズメントパークMG伊予三島店",
      "operation_time": "",
      "holiday": "",
      "latitude": "33.97450223",
      "longitude": "133.5286622",
      "tel": "0896-72-7177",
      "address": "四国中央市中之庄町汐汲道75-1",
      "access": ""
    },
    {
      "name": "マックスプラザ善通寺",
      "operation_time": "",
      "holiday": "",
      "latitude": "34.24362494",
      "longitude": "133.7639965",
      "tel": "0877-63-4333",
      "address": "善通寺市中村町1798-2",
      "access": ""
    },
    {
      "name": "GiGOイオン札幌手稲駅前SC",
      "operation_time": "ゲームコーナー9:00～26:00 / メダルコーナー9:00～24:00",
      "holiday": "無し",
      "latitude": "43.12045749",
      "longitude": "141.2452406",
      "tel": "080-7127-7065",
      "address": "札幌市手稲区前田1条11-3F",
      "access": "西友手稲店3F"
    },
    {
      "name": "ソユーゲームフィールド発寒店",
      "operation_time": "9:00～22:00",
      "holiday": "",
      "latitude": "43.09520428",
      "longitude": "141.2779132",
      "tel": "011-668-6050",
      "address": "札幌市西区発寒8条12-1-1イオンモール札幌発寒3F",
      "access": "イオン札幌発寒ショッピングセンター内3F"
    },
    {
      "name": "ラウンドワン札幌北21条店",
      "operation_time": "",
      "holiday": "",
      "latitude": "43.08681907",
      "longitude": "141.3495671",
      "tel": "011-733-8801",
      "address": "札幌市東区北21条東1-1-21",
      "access": ""
    },
    {
      "name": "GiGO札幌駅西口",
      "operation_time": "",
      "holiday": "",
      "latitude": "43.06749301",
      "longitude": "141.3465097",
      "tel": "080-7173-6552",
      "address": "札幌市北区北6条西6-1-1WEST6",
      "access": ""
    },
    {
      "name": "タイトーステーション札幌狸小路2丁目店",
      "operation_time": "",
      "holiday": "",
      "latitude": "43.05729",
      "longitude": "141.355525",
      "tel": "011-213-1115",
      "address": "札幌市中央区南三条西2-14ニコービル",
      "access": ""
    },
    {
      "name": "ラウンドワン札幌すすきの店",
      "operation_time": "",
      "holiday": "",
      "latitude": "43.05431311",
      "longitude": "141.3540587",
      "tel": "011-520-1022",
      "address": "札幌市中央区南五条西3-6-1札幌東宝公楽ビル",
      "access": ""
    },
    {
      "name": "ラウンドワン高松店",
      "operation_time": "",
      "holiday": "",
      "latitude": "34.33898638",
      "longitude": "134.0669994",
      "tel": "087-812-6115",
      "address": "高松市松島町2-7-43",
      "access": ""
    },
    {
      "name": "ラウンドワン高知店",
      "operation_time": "",
      "holiday": "",
      "latitude": "33.55793713",
      "longitude": "133.554676",
      "tel": "088-804-3070",
      "address": "高知市南宝永町4-12",
      "access": ""
    },
    {
      "name": "ラウンドワン札幌白石本通店",
      "operation_time": "",
      "holiday": "",
      "latitude": "43.03673108",
      "longitude": "141.4328227",
      "tel": "011-865-8051",
      "address": "札幌市白石区本通-16-北1-50",
      "access": ""
    },
    {
      "name": "キャッツアイ新札幌店",
      "operation_time": "10:00～24:00",
      "holiday": "無し",
      "latitude": "43.04493545",
      "longitude": "141.4754191",
      "tel": "011-899-1500",
      "address": "札幌市厚別区厚別東5条1-2-10",
      "access": "JR、札幌市営地下鉄新札幌駅下車徒歩20分"
    },
    {
      "name": "アミパラ高知店",
      "operation_time": "10:00～24:00",
      "holiday": "無し",
      "latitude": "33.56792315",
      "longitude": "133.6344447",
      "tel": "088-863-4343",
      "address": "南国市篠原194-1",
      "access": "南国ICを降りて南に突き当たり、東へ1km"
    },
    {
      "name": "ソユーゲームフィールド旭川駅前店",
      "operation_time": "",
      "holiday": "",
      "latitude": "43.76416142",
      "longitude": "142.3578766",
      "tel": "0166-21-3737",
      "address": "旭川市宮下通7-2-5イオンモール旭川駅前4F",
      "access": ""
    },
    {
      "name": "ラウンドワン旭川店",
      "operation_time": "",
      "holiday": "",
      "latitude": "43.78651521",
      "longitude": "142.397308",
      "tel": "0166-49-5071",
      "address": "旭川市永山3条1-4-7",
      "access": ""
    },
    {
      "name": "GiGO姫路駅前",
      "operation_time": "",
      "holiday": "",
      "latitude": "34.828977",
      "longitude": "134.69114",
      "tel": "0792-22-6455",
      "address": "姫路市駅前町254姫路OSビルB1F",
      "access": ""
    },
    {
      "name": "ラウンドワン姫路飾磨店",
      "operation_time": "",
      "holiday": "",
      "latitude": "34.79228629",
      "longitude": "134.6871127",
      "tel": "079-243-1830",
      "address": "姫路市飾磨区中島1-254",
      "access": ""
    },
    {
      "name": "アピナ姫路店",
      "operation_time": "",
      "holiday": "",
      "latitude": "34.82687",
      "longitude": "134.7151",
      "tel": "079-222-8811",
      "address": "姫路市東郷町1454-3姫路リオス2F",
      "access": ""
    },
    {
      "name": "タイトーステーション千歳店",
      "operation_time": "10:00-24:00",
      "holiday": "無し",
      "latitude": "42.833396",
      "longitude": "141.6439587",
      "tel": "0123-42-4195",
      "address": "千歳市北栄2-12-5",
      "access": "千歳駅から札幌方面に徒歩10分"
    },
    {
      "name": "あそVIVA本店",
      "operation_time": "9:00～24:00",
      "holiday": "無し",
      "latitude": "35.28971907",
      "longitude": "135.1348229",
      "tel": "0773-25-5055",
      "address": "福知山市字堀小字上高田2146-1あそVIVA1F",
      "access": ""
    },
    {
      "name": "ラウンドワン函館店",
      "operation_time": "",
      "holiday": "",
      "latitude": "41.82459206",
      "longitude": "140.7173548",
      "tel": "0138-49-8401",
      "address": "函館市西桔梗町848-11",
      "access": ""
    },
    {
      "name": "ラウンドワン加古川店",
      "operation_time": "",
      "holiday": "",
      "latitude": "34.74708002",
      "longitude": "134.836935",
      "tel": "0794-29-2513",
      "address": "加古川市尾上町安田字小河原325番6号",
      "access": ""
    },
    {
      "name": "GiGOイオンモール苫小牧",
      "operation_time": "ゲームコーナー9:00～24:00 / メダルコーナー9:00～23:30",
      "holiday": "無し",
      "latitude": "42.65619751",
      "longitude": "141.6419704",
      "tel": "0144-52-1212",
      "address": "苫小牧市柳町3-1-20イオンモール苫小牧2F",
      "access": "JR苫小牧駅よりバス20分"
    },
    {
      "name": "ホムスタ玉津店",
      "operation_time": "10:00～24:00",
      "holiday": "無し",
      "latitude": "34.67922481",
      "longitude": "134.9831791",
      "tel": "078-920-3337",
      "address": "神戸市西区丸塚2-9-18メガパレス2F",
      "access": "第二神名玉津IC下車車5分"
    },
    {
      "name": "ラウンドワン徳島･万代店",
      "operation_time": "",
      "holiday": "",
      "latitude": "34.064828",
      "longitude": "134.564699",
      "tel": "088-612-0025",
      "address": "徳島市万代町4-19-1",
      "access": ""
    },
    {
      "name": "PALO小松島",
      "operation_time": "",
      "holiday": "",
      "latitude": "34.00568188",
      "longitude": "134.5726547",
      "tel": "070-3100-5034",
      "address": "小松島市小松島町字領田20小松島ショッピングプラザルピア1F",
      "access": ""
    },
    {
      "name": "アルゴ",
      "operation_time": "11:15～23:30",
      "holiday": "無し",
      "latitude": "34.69392181",
      "longitude": "135.1914556",
      "tel": "078-334-3031",
      "address": "神戸市中央区下山手通1-1-8",
      "access": "JR三ノ宮駅下車徒歩5分生田神社前"
    },
    {
      "name": "GiGO三宮北口",
      "operation_time": "",
      "holiday": "",
      "latitude": "34.69312229",
      "longitude": "135.192177",
      "tel": "070-6949-3872",
      "address": "神戸市中央区北長狭通1-8-1コスモビルB1F-2F",
      "access": ""
    },
    {
      "name": "遊･スペース マジカル",
      "operation_time": "9:00～24:00",
      "holiday": "無し",
      "latitude": "34.69551577",
      "longitude": "135.1950261",
      "tel": "078-414-8844",
      "address": "神戸市中央区琴ノ緒町5-2-3協律三宮センタービル3F",
      "access": "JR三ノ宮駅下車徒歩5分"
    },
    {
      "name": "ラウンドワン三宮駅前店",
      "operation_time": "",
      "holiday": "",
      "latitude": "34.69403073",
      "longitude": "135.1973402",
      "tel": "078-252-7200",
      "address": "神戸市中央区小野柄通り6-1-17",
      "access": ""
    },
    {
      "name": "バイパスレジャーランド加賀店",
      "operation_time": "一部24時間営業",
      "holiday": "無し",
      "latitude": "36.32515503",
      "longitude": "136.4113746",
      "tel": "0761-74-8007",
      "address": "加賀市箱宮町ヲ1-1",
      "access": "国道8号線加賀産業道路終点近く"
    },
    {
      "name": "バイパスレジャーランド藤江新館",
      "operation_time": "",
      "holiday": "",
      "latitude": "36.58375651",
      "longitude": "136.6206642",
      "tel": "076-268-7518",
      "address": "金沢市藤江南2-105",
      "access": ""
    },
    {
      "name": "フクイレジャーランドワイプラザ店",
      "operation_time": "一部24時間営業",
      "holiday": "無し",
      "latitude": "36.08750805",
      "longitude": "136.2494211",
      "tel": "0776-57-0433",
      "address": "福井市新保北1-303ヤスサキワイプラザB棟2F",
      "access": "国道8号線沿い福井市内新保交差点近くワイプラザ内"
    },
    {
      "name": "福井レジャーランド板垣店",
      "operation_time": "",
      "holiday": "",
      "latitude": "36.042283",
      "longitude": "136.233748",
      "tel": "0776-33-5510",
      "address": "福井市下馬3-112",
      "access": ""
    },
    {
      "name": "ラウンドワン金沢店",
      "operation_time": "",
      "holiday": "",
      "latitude": "36.54211559",
      "longitude": "136.626054",
      "tel": "076-245-1850",
      "address": "金沢市横川6-120-1",
      "access": ""
    },
    {
      "name": "ラウンドワン伊丹店",
      "operation_time": "",
      "holiday": "",
      "latitude": "34.77891327",
      "longitude": "135.3932572",
      "tel": "0727-75-4150",
      "address": "伊丹市昆陽7-29",
      "access": ""
    },
    {
      "name": "ソユーゲームフィールドみのおキューズモール",
      "operation_time": "",
      "holiday": "",
      "latitude": "34.83301461",
      "longitude": "135.4894016",
      "tel": "072-749-3010",
      "address": "箕面市西宿1-15-30みのおキューズモールCENTER棟2F",
      "access": ""
    },
    {
      "name": "PALO五所川原",
      "operation_time": "",
      "holiday": "",
      "latitude": "40.80095013",
      "longitude": "140.4614581",
      "tel": "070-3100-5496",
      "address": "五所川原市大字唐笠柳字藤巻641-1",
      "access": ""
    },
    {
      "name": "ラウンドワン豊中店",
      "operation_time": "",
      "holiday": "",
      "latitude": "34.75733488",
      "longitude": "135.465555",
      "tel": "06-6865-2200",
      "address": "豊中市名神口1-1-1",
      "access": ""
    },
    {
      "name": "ユーズランド和歌山店",
      "operation_time": "10:00～21:00",
      "holiday": "",
      "latitude": "34.275743",
      "longitude": "135.149066",
      "tel": "073-452-1668",
      "address": "和歌山市ふじと台23イオンモール和歌山2F",
      "access": ""
    },
    {
      "name": "Feedy Diner&Arcade茨木店",
      "operation_time": "10:00～23:00",
      "holiday": "無し",
      "latitude": "34.8107727",
      "longitude": "135.5584064",
      "tel": "070-3100-4308",
      "address": "茨木市松ヶ本町8-30-5イオンモール茨木4F",
      "access": "JR茨木駅西徒歩5分 マイカル茨木 4F"
    },
    {
      "name": "ゲームSPOT207",
      "operation_time": "7:00～24:00",
      "holiday": "無し",
      "latitude": "36.73235328",
      "longitude": "137.0023356",
      "tel": "0766-26-2070",
      "address": "高岡市鐘紡町1655-3",
      "access": "JR高岡駅から車で15分"
    },
    {
      "name": "あそVIVA阪急茨木店",
      "operation_time": "",
      "holiday": "",
      "latitude": "34.817929",
      "longitude": "135.576325",
      "tel": "072-631-6606",
      "address": "茨木市永代町6-2スポーツプラザ茨木2F",
      "access": ""
    },
    {
      "name": "モーリーファンタジーLINKS梅田",
      "operation_time": "",
      "holiday": "",
      "latitude": "34.70459687",
      "longitude": "135.4961906",
      "tel": "070-3100-4088",
      "address": "大阪市北区大深町1-1ヨドバシ梅田タワーLINKS 5F",
      "access": ""
    },
    {
      "name": "ラウンドワン東淀川店",
      "operation_time": "",
      "holiday": "",
      "latitude": "34.74289355",
      "longitude": "135.5255278",
      "tel": "06-6160-2221",
      "address": "大阪市東淀川区菅原7-14-29",
      "access": ""
    },
    {
      "name": "namco梅田店",
      "operation_time": "",
      "holiday": "",
      "latitude": "34.70278573",
      "longitude": "135.5003716",
      "tel": "06-6313-0778",
      "address": "大阪市北区小松原町3-3OSビル2F",
      "access": ""
    },
    {
      "name": "ラウンドワン梅田店",
      "operation_time": "",
      "holiday": "",
      "latitude": "34.70337769",
      "longitude": "135.5009178",
      "tel": "06-6312-6800",
      "address": "大阪市北区小松原町4-16",
      "access": ""
    },
    {
      "name": "ユーズランド高岡店",
      "operation_time": "10:00～21:00",
      "holiday": "無し",
      "latitude": "36.72378877",
      "longitude": "137.016935",
      "tel": "0766-27-2411",
      "address": "高岡市下伏間江383イオンモール高岡2F",
      "access": "イオン高岡SC2FJR高岡駅よりバスで10分能越自動車道高岡ICより東へ約3km"
    },
    {
      "name": "ゲームパニック堺",
      "operation_time": "10:00～23:45",
      "holiday": "無し",
      "latitude": "34.597817",
      "longitude": "135.447433",
      "tel": "072-224-8295",
      "address": "堺市堺区築港八幡町1-1堺浜シーサイド内堺浜えんため館",
      "access": "南海バス20系統「堺市内北回り」 堺駅西口→堺浜シーサイドステージ約17分 堺東駅→堺浜シーサイドステージ約25分"
    },
    {
      "name": "GiGO大阪道頓堀本店",
      "operation_time": "",
      "holiday": "",
      "latitude": "34.66848732",
      "longitude": "135.5017054",
      "tel": "070-1458-4741",
      "address": "大阪市中央区道頓堀1-8-22頓座ビル1F-3F",
      "access": ""
    },
    {
      "name": "ラウンドワン千日前店",
      "operation_time": "",
      "holiday": "",
      "latitude": "34.667424",
      "longitude": "135.5026714",
      "tel": "06-4708-2600",
      "address": "大阪市中央区難波1-3-1",
      "access": ""
    },
    {
      "name": "GiGO難波アビオン",
      "operation_time": "",
      "holiday": "",
      "latitude": "34.66278737",
      "longitude": "135.5032116",
      "tel": "070-1458-1437",
      "address": "大阪市浪速区難波中2-3-15MMOビル1-2F",
      "access": ""
    },
    {
      "name": "タイトーステーション大阪日本橋店",
      "operation_time": "10:00～24:00",
      "holiday": "無し",
      "latitude": "34.660362",
      "longitude": "135.506113",
      "tel": "06-6630-7270",
      "address": "大阪市浪速区日本橋4-9-14",
      "access": "地下鉄なんば駅・日本橋駅・恵美須町駅から約7分ほど。"
    },
    {
      "name": "ラウンドワン高槻店",
      "operation_time": "",
      "holiday": "",
      "latitude": "34.83266921",
      "longitude": "135.6301782",
      "tel": "072-672-9933",
      "address": "高槻市辻子3-6-4",
      "access": ""
    },
    {
      "name": "ラウンドワン和歌山店",
      "operation_time": "",
      "holiday": "",
      "latitude": "34.19849168",
      "longitude": "135.1859428",
      "tel": "073-421-8210",
      "address": "和歌山市小雑賀739-3",
      "access": ""
    },
    {
      "name": "ラウンドワン京都河原町店",
      "operation_time": "",
      "holiday": "",
      "latitude": "35.00699573",
      "longitude": "135.7685149",
      "tel": "075-213-8400",
      "address": "京都市中京区河原町通り三条下ル山崎町250",
      "access": ""
    },
    {
      "name": "ラウンドワン守口店",
      "operation_time": "",
      "holiday": "",
      "latitude": "34.7562488",
      "longitude": "135.5886793",
      "tel": "06-6907-9270",
      "address": "守口市佐太東町2-6-14ジャガーグリーン2F",
      "access": ""
    },
    {
      "name": "GiGOあべのアポロ",
      "operation_time": "10:00～24:00",
      "holiday": "",
      "latitude": "34.646623",
      "longitude": "135.511677",
      "tel": "06-6647-0716",
      "address": "大阪市阿倍野区阿倍野筋1-5-31アポロビル3F･4F",
      "access": "JR 天王寺駅・近鉄あべの橋駅より徒歩3分 アポロビル 3F"
    },
    {
      "name": "ラウンドワン堺駅前店",
      "operation_time": "",
      "holiday": "",
      "latitude": "34.58340412",
      "longitude": "135.468425",
      "tel": "072-222-0120",
      "address": "堺市堺区戎島町4-44-3",
      "access": ""
    },
    {
      "name": "GiGO今福",
      "operation_time": "",
      "holiday": "",
      "latitude": "34.70112",
      "longitude": "135.55743",
      "tel": "06-6931-1875",
      "address": "大阪市城東区今福東1-9-34",
      "access": ""
    },
    {
      "name": "ラウンドワン岸和田店",
      "operation_time": "",
      "holiday": "",
      "latitude": "34.45649962",
      "longitude": "135.3885278",
      "tel": "072-429-1100",
      "address": "岸和田市八阪町2-11-1",
      "access": ""
    },
    {
      "name": "YAZ寝屋川店",
      "operation_time": "",
      "holiday": "",
      "latitude": "34.78044073",
      "longitude": "135.6193889",
      "tel": "072-830-7755",
      "address": "寝屋川市石津中町25-26",
      "access": ""
    },
    {
      "name": "ラウンドワン城東放出店",
      "operation_time": "",
      "holiday": "",
      "latitude": "34.69651235",
      "longitude": "135.559648",
      "tel": "06-6936-0100",
      "address": "大阪市城東区今福南3-4-38",
      "access": ""
    },
    {
      "name": "モンキートリック",
      "operation_time": "10:00～24:00",
      "holiday": "無し",
      "latitude": "34.78316526",
      "longitude": "135.628799",
      "tel": "072-835-6361",
      "address": "寝屋川市香里南之町32-5",
      "access": "京阪本線香里園駅下車徒歩2分"
    },
    {
      "name": "ラウンドワン京都伏見店",
      "operation_time": "",
      "holiday": "",
      "latitude": "34.93599659",
      "longitude": "135.746198",
      "tel": "075-622-9911",
      "address": "京都市伏見区下鳥羽平塚町131",
      "access": ""
    },
    {
      "name": "GiGO布施",
      "operation_time": "",
      "holiday": "",
      "latitude": "34.66416946",
      "longitude": "135.5628455",
      "tel": "06-6783-6999",
      "address": "東大阪市長堂1-1-1ロンモール布施内",
      "access": ""
    },
    {
      "name": "GiGO北見",
      "operation_time": "10:00～24:00",
      "holiday": "無し",
      "latitude": "43.79655355",
      "longitude": "143.8426866",
      "tel": "080-7437-9057",
      "address": "北見市西三輪5-1-16",
      "access": "国道39号 大雪大通沿い"
    },
    {
      "name": "スペースファンタジーインフィニ",
      "operation_time": "10:00～23:00",
      "holiday": "無し",
      "latitude": "40.60673278",
      "longitude": "140.495868",
      "tel": "0172-26-2661",
      "address": "弘前市城東北3-10-1さくら野弘前店4F",
      "access": ""
    },
    {
      "name": "アミパラ大東店",
      "operation_time": "",
      "holiday": "",
      "latitude": "34.7010172",
      "longitude": "135.6386857",
      "tel": "072-813-7600",
      "address": "大東市南新田2-3-5",
      "access": ""
    },
    {
      "name": "ラウンドワン堺中央環状店",
      "operation_time": "",
      "holiday": "",
      "latitude": "34.55707895",
      "longitude": "135.5362412",
      "tel": "072-253-9559",
      "address": "堺市東区石原町2-241",
      "access": ""
    },
    {
      "name": "ラウンドワン東大阪店",
      "operation_time": "",
      "holiday": "",
      "latitude": "34.6531932",
      "longitude": "135.60637",
      "tel": "06-6224-1700",
      "address": "東大阪市若江南町1-2-12",
      "access": ""
    },
    {
      "name": "ラウンドワン浜大津アーカス店",
      "operation_time": "",
      "holiday": "",
      "latitude": "35.010557",
      "longitude": "135.866804",
      "tel": "077-526-8722",
      "address": "大津市浜町2-1浜大津アーカス4F",
      "access": ""
    },
    {
      "name": "トヤマレジャーランド呉羽店",
      "operation_time": "一部24時間営業",
      "holiday": "無し",
      "latitude": "36.71545083",
      "longitude": "137.1579046",
      "tel": "076-434-5336",
      "address": "富山市高木字貝塚2054",
      "access": "県道44号線沿い呉羽本町交差点を富山方面方向に車で3分"
    },
    {
      "name": "滋賀レジャーランド大津店",
      "operation_time": "",
      "holiday": "",
      "latitude": "35.003875",
      "longitude": "135.883431",
      "tel": "077-548-7851",
      "address": "大津市におの浜3-1-43",
      "access": ""
    },
    {
      "name": "ラウンドワン青森店",
      "operation_time": "",
      "holiday": "",
      "latitude": "40.79867718",
      "longitude": "140.7483213",
      "tel": "017-762-3591",
      "address": "青森市浜田3-1-1",
      "access": ""
    },
    {
      "name": "ゲームフェイス八尾",
      "operation_time": "平日10:00～24:00 土日祝9:00～24:00",
      "holiday": "無し",
      "latitude": "34.6039863",
      "longitude": "135.6123324",
      "tel": "0729-48-2306",
      "address": "八尾市天王寺屋2-68",
      "access": "JR大和路線「志紀駅」下車徒歩7分"
    },
    {
      "name": "アピナ富山豊田店",
      "operation_time": "10:00～24:00",
      "holiday": "無し",
      "latitude": "36.7211336",
      "longitude": "137.2352552",
      "tel": "076-433-3355",
      "address": "富山市豊田町2-12-66",
      "access": "国道8号線豊田東交差点近く"
    },
    {
      "name": "GiGOエイスクエア草津",
      "operation_time": "",
      "holiday": "",
      "latitude": "35.02456418",
      "longitude": "135.9591575",
      "tel": "077-561-6577",
      "address": "草津市西渋川1-23-23A-SQUARE SARA新棟2F",
      "access": ""
    },
    {
      "name": "富山レジャーランド掛尾店",
      "operation_time": "",
      "holiday": "",
      "latitude": "36.66605175",
      "longitude": "137.208892",
      "tel": "076-413-2606",
      "address": "富山市掛尾町360-1",
      "access": ""
    },
    {
      "name": "アピナ富山南店",
      "operation_time": "10:00～24:00",
      "holiday": "無し",
      "latitude": "36.665007",
      "longitude": "137.217248",
      "tel": "076-461-6644",
      "address": "富山市堀川町355-3",
      "access": "富山マイプラザ店内"
    },
    {
      "name": "ラウンドワン奈良ミナーラ店",
      "operation_time": "",
      "holiday": "",
      "latitude": "34.685231",
      "longitude": "135.802224",
      "tel": "0742-32-3900",
      "address": "奈良市二条大路南1-3-1ミ･ナーラ5F",
      "access": ""
    },
    {
      "name": "キッズサーカス奈良柏木店",
      "operation_time": "",
      "holiday": "",
      "latitude": "34.67167",
      "longitude": "135.799186",
      "tel": "0742-93-4464",
      "address": "奈良市柏木町456-1",
      "access": ""
    },
    {
      "name": "GiGOドリームタウン白樺",
      "operation_time": "9:00～翌3:00",
      "holiday": "無し",
      "latitude": "42.91947724",
      "longitude": "143.174195",
      "tel": "080-7422-4566",
      "address": "帯広市白樺16条西2ドリームタウン白樺内",
      "access": "ドリームタウン白樺内"
    },
    {
      "name": "ソユーゲームフィールド奈良橿原店",
      "operation_time": "10:00～21:00",
      "holiday": "不定休",
      "latitude": "34.50546949",
      "longitude": "135.7635064",
      "tel": "0744-21-8022",
      "address": "橿原市曲川町7-20-1イオンモール橿原3F",
      "access": "JR金橋駅より徒歩で約10分"
    },
    {
      "name": "GiGO帯広稲田",
      "operation_time": "平日・祝日10:00～24:00 / 土日8:00～24:00",
      "holiday": "無し",
      "latitude": "42.89057652",
      "longitude": "143.1965812",
      "tel": "080-7351-3976",
      "address": "帯広市稲田町南8線西12-1スズランボウル内",
      "access": "イトーヨーカドー帯広店隣り"
    },
    {
      "name": "アミパラ橿原店",
      "operation_time": "",
      "holiday": "",
      "latitude": "34.52935645",
      "longitude": "135.7966131",
      "tel": "0744-25-0550",
      "address": "橿原市十市町1222-1ツインゲート橿原1F",
      "access": ""
    },
    {
      "name": "ラウンドワン秋田店",
      "operation_time": "",
      "holiday": "",
      "latitude": "39.70235247",
      "longitude": "140.1092394",
      "tel": "018-896-6711",
      "address": "秋田市卸町1-1-2",
      "access": ""
    },
    {
      "name": "ソユーゲームフィールド御所野店",
      "operation_time": "10:00～24:00",
      "holiday": "不定休",
      "latitude": "39.6633375",
      "longitude": "140.1609952",
      "tel": "018-889-6549",
      "address": "秋田市御所野地蔵田1-1-1イオンモール秋田2F",
      "access": "JR奥羽本線・羽越線東口より秋田市営バス御所野ニュータウン行きニュータウン入口下車徒歩2分"
    },
    {
      "name": "ラウンドワンモレラ岐阜店",
      "operation_time": "",
      "holiday": "",
      "latitude": "35.455121",
      "longitude": "136.672955",
      "tel": "058-323-6600",
      "address": "本巣市三橋1100",
      "access": ""
    },
    {
      "name": "大垣メトロポリス",
      "operation_time": "10:00～24:00",
      "holiday": "無し",
      "latitude": "35.36694278",
      "longitude": "136.6291725",
      "tel": "0584-75-5734",
      "address": "大垣市三塚町字西沼523-1",
      "access": ""
    },
    {
      "name": "岐阜レジャーランド穂積店",
      "operation_time": "7:00～24:00",
      "holiday": "無し",
      "latitude": "35.38432479",
      "longitude": "136.6846653",
      "tel": "058-326-1133",
      "address": "瑞穂市稲里630",
      "access": "国道21号線沿い瑞穂市野田新田交差点近く"
    },
    {
      "name": "A.Cグランド",
      "operation_time": "9:00～24:00",
      "holiday": "無し",
      "latitude": "35.38308553",
      "longitude": "136.7461998",
      "tel": "058-275-0351",
      "address": "岐阜市茜部大川1-77",
      "access": "名鉄新岐阜駅15分"
    },
    {
      "name": "GiGO尾西",
      "operation_time": "",
      "holiday": "",
      "latitude": "35.309294",
      "longitude": "136.77153",
      "tel": "0586-47-5700",
      "address": "一宮市篭屋3-9-7アソビックスびさい1F",
      "access": ""
    },
    {
      "name": "GiGOマーゴ関",
      "operation_time": "",
      "holiday": "",
      "latitude": "35.479716",
      "longitude": "136.900472",
      "tel": "0575-23-6617",
      "address": "関市倉知516マーゴシネマ館2F",
      "access": ""
    },
    {
      "name": "タイトーFステーション上越店",
      "operation_time": "",
      "holiday": "",
      "latitude": "37.148097",
      "longitude": "138.259034",
      "tel": "025-530-7115",
      "address": "上越市富岡3524J-maxシアター内1F",
      "access": "J-MAXシアター1F"
    },
    {
      "name": "ユーズランド下田店",
      "operation_time": "10:00～21:00",
      "holiday": "無し",
      "latitude": "40.60188383",
      "longitude": "141.4176032",
      "tel": "0178-50-3237",
      "address": "上北郡おいらせ町中野平40-1イオンモール下田1F",
      "access": "イオン下田SC1・2FJR下田駅よりバスで10分八戸市より車で約15km、三沢市より車で約15km"
    },
    {
      "name": "アミューズメントスペースコミ丸四日市店",
      "operation_time": "",
      "holiday": "",
      "latitude": "34.96631",
      "longitude": "136.61633",
      "tel": "059-325-7685",
      "address": "四日市市鵜の森1-3-19",
      "access": ""
    },
    {
      "name": "アピナ四日市店",
      "operation_time": "",
      "holiday": "",
      "latitude": "34.94000426",
      "longitude": "136.6070666",
      "tel": "059-349-5011",
      "address": "四日市市泊小柳町4-34",
      "access": ""
    },
    {
      "name": "ラウンドワン名古屋西春店",
      "operation_time": "",
      "holiday": "",
      "latitude": "35.25506282",
      "longitude": "136.8439405",
      "tel": "0568-26-4001",
      "address": "北名古屋市宇福寺神明15",
      "access": ""
    },
    {
      "name": "アミパラ鈴鹿店",
      "operation_time": "",
      "holiday": "",
      "latitude": "34.87499148",
      "longitude": "136.5708677",
      "tel": "059-381-6622",
      "address": "鈴鹿市西條町字東澤430-1",
      "access": ""
    },
    {
      "name": "ラウンドワンみえ川越IC店",
      "operation_time": "",
      "holiday": "",
      "latitude": "35.02319916",
      "longitude": "136.6836502",
      "tel": "059-361-2130",
      "address": "三重郡川越町大字南福崎851-1",
      "access": ""
    },
    {
      "name": "アミューズメントワールドメトロポリス小牧店",
      "operation_time": "平日10:00～23:50 土日祝日前 9:00～23:50",
      "holiday": "無し",
      "latitude": "35.2951722",
      "longitude": "136.905659",
      "tel": "0568-71-0005",
      "address": "小牧市村中新町33",
      "access": "名神高速小牧インターより南へ1km R41号間々本町交差点角"
    },
    {
      "name": "ラウンドワン新潟店",
      "operation_time": "",
      "holiday": "",
      "latitude": "37.88807436",
      "longitude": "139.0177537",
      "tel": "025-280-1322",
      "address": "新潟市中央区美咲町2-1-38",
      "access": ""
    },
    {
      "name": "GiGO万代シティバスセンタービル",
      "operation_time": "",
      "holiday": "",
      "latitude": "37.91635836",
      "longitude": "139.0556061",
      "tel": "080-7525-6569",
      "address": "新潟市中央区万代1-6-1万代シティバスセンタービル2-3F",
      "access": ""
    },
    {
      "name": "コムテックタワー",
      "operation_time": "平日10:00～24:00、土日祝9:00～24:00",
      "holiday": "",
      "latitude": "35.16941986",
      "longitude": "136.885993",
      "tel": "052-565-6471",
      "address": "名古屋市中村区名駅4-10-20",
      "access": "JR名古屋駅徒歩5分"
    },
    {
      "name": "ラウンドワン津･高茶屋店",
      "operation_time": "",
      "holiday": "",
      "latitude": "34.6726828",
      "longitude": "136.5194663",
      "tel": "059-238-0011",
      "address": "津市高茶屋小森町277-8",
      "access": ""
    },
    {
      "name": "PALOイオンモール津南",
      "operation_time": "",
      "holiday": "",
      "latitude": "34.66964307",
      "longitude": "136.5178517",
      "tel": "070-3100-4636",
      "address": "津市高茶屋小森町145イオンモール津南3F",
      "access": ""
    },
    {
      "name": "GiGOマーケットスクエアささしま",
      "operation_time": "",
      "holiday": "",
      "latitude": "35.162736",
      "longitude": "136.884929",
      "tel": "070-1458-1766",
      "address": "名古屋市中村区平池町4-60-14",
      "access": ""
    },
    {
      "name": "ラウンドワン中川一号線店",
      "operation_time": "",
      "holiday": "",
      "latitude": "35.12338322",
      "longitude": "136.8636484",
      "tel": "052-665-5353",
      "address": "名古屋市中川区法蔵町2-23",
      "access": ""
    },
    {
      "name": "GiGO八戸",
      "operation_time": "",
      "holiday": "",
      "latitude": "40.519862",
      "longitude": "141.498255",
      "tel": "0178-43-7817",
      "address": "八戸市城下4-25-14",
      "access": ""
    },
    {
      "name": "アピナ鶴岡店",
      "operation_time": "",
      "holiday": "",
      "latitude": "38.75839782",
      "longitude": "139.8439993",
      "tel": "0235-29-1141",
      "address": "鶴岡市文下字広野1-1",
      "access": ""
    },
    {
      "name": "キングジョイ",
      "operation_time": "9:00～24:00",
      "holiday": "無し",
      "latitude": "35.16797694",
      "longitude": "136.9050444",
      "tel": "052-241-9515",
      "address": "名古屋市中区栄3-3-32",
      "access": "地下鉄栄駅徒歩3分"
    },
    {
      "name": "モーリーファンタジーf新潟亀田インター",
      "operation_time": "9:00～22:00",
      "holiday": "無し",
      "latitude": "37.87624975",
      "longitude": "139.0816577",
      "tel": "070-3100-4212",
      "address": "新潟市江南区下早通柳田1-1-1イオンモール新潟亀田インター2F",
      "access": "新潟亀田ICから約5分。 JR新潟駅から約4キロ、JR亀田駅から約2.5キロ"
    },
    {
      "name": "ゲームパニック大須",
      "operation_time": "",
      "holiday": "",
      "latitude": "35.16021164",
      "longitude": "136.9053459",
      "tel": "052-228-2407",
      "address": "名古屋市中区大須3-30-93メガタウンB1F",
      "access": ""
    },
    {
      "name": "タイトーステーションフェドラ大須店",
      "operation_time": "10:00～24:00",
      "holiday": "無し",
      "latitude": "35.15945319",
      "longitude": "136.9054236",
      "tel": "052-242-2011",
      "address": "名古屋市中区大須3-30-31萬松寺駐車場ビル1F･2F",
      "access": "地下鉄名城線上前津駅より徒歩1分"
    },
    {
      "name": "ラウンドワンイーアス春日井店",
      "operation_time": "",
      "holiday": "",
      "latitude": "35.25898",
      "longitude": "136.98241",
      "tel": "0568-86-1600",
      "address": "春日井市六軒屋町東丘22区画番号3010",
      "access": ""
    },
    {
      "name": "コムテックスクウェア金山",
      "operation_time": "9:00～24:00",
      "holiday": "",
      "latitude": "35.14401179",
      "longitude": "136.8999767",
      "tel": "052-321-5601",
      "address": "名古屋市中区金山1-16-8",
      "access": "名鉄金山駅徒歩3分"
    },
    {
      "name": "GiGO金山",
      "operation_time": "",
      "holiday": "",
      "latitude": "35.14264312",
      "longitude": "136.9023578",
      "tel": "052-323-0121",
      "address": "名古屋市熱田区金山町1-19-2",
      "access": ""
    },
    {
      "name": "ラウンドワン千種店",
      "operation_time": "",
      "holiday": "",
      "latitude": "35.16799971",
      "longitude": "136.9279985",
      "tel": "052-238-1615",
      "address": "名古屋市千種区新栄3-20-17タイホウ千種駅前南ビル8F",
      "access": ""
    },
    {
      "name": "名古屋レジャーランド内田橋店",
      "operation_time": "一部24時間営業",
      "holiday": "無し",
      "latitude": "35.1137072",
      "longitude": "136.9098069",
      "tel": "052-694-6051",
      "address": "名古屋市南区内田橋2-26-22",
      "access": "名鉄常滑線豊田本町駅近く"
    },
    {
      "name": "GiGOアドバンスモール松阪",
      "operation_time": "",
      "holiday": "",
      "latitude": "34.553832",
      "longitude": "136.514666",
      "tel": "0598-21-5460",
      "address": "松阪市田村町235-1",
      "access": ""
    },
    {
      "name": "モーリーファンタジーf新瑞橋",
      "operation_time": "",
      "holiday": "",
      "latitude": "35.114661",
      "longitude": "136.935117",
      "tel": "070-3100-5209",
      "address": "名古屋市南区菊住1-7-10イオン新瑞橋3F",
      "access": ""
    },
    {
      "name": "アピナ長岡店",
      "operation_time": "10:00～24:00",
      "holiday": "無し",
      "latitude": "37.45794202",
      "longitude": "138.8125194",
      "tel": "0258-22-5510",
      "address": "長岡市堺東町22",
      "access": "国道8号線長岡バイパス堺交差点近く"
    },
    {
      "name": "ラウンドワン鳴海店",
      "operation_time": "",
      "holiday": "",
      "latitude": "35.09913151",
      "longitude": "136.9528735",
      "tel": "052-899-0700",
      "address": "名古屋市緑区鳴海町字杜若28",
      "access": ""
    },
    {
      "name": "ゲームパニック大高",
      "operation_time": "9:00～23:45",
      "holiday": "無し",
      "latitude": "35.04850561",
      "longitude": "136.9496236",
      "tel": "052-625-5360",
      "address": "名古屋市緑区忠治山201グランドボウルB2F",
      "access": "国道23号線大高町共和IC側道グランドボウルB2階"
    },
    {
      "name": "アピナ川中島店",
      "operation_time": "10:00～24:00",
      "holiday": "無し",
      "latitude": "36.597909",
      "longitude": "138.157802",
      "tel": "026-214-6699",
      "address": "長野市川中島町御厨967-1",
      "access": "77号線長野南郵便局隣"
    },
    {
      "name": "ラウンドワン長野店",
      "operation_time": "",
      "holiday": "",
      "latitude": "36.65105714",
      "longitude": "138.225192",
      "tel": "026-254-5801",
      "address": "長野市大字東和田827-6",
      "access": ""
    },
    {
      "name": "ユーズランド東浦店",
      "operation_time": "10:00～21:00",
      "holiday": "無し",
      "latitude": "34.97885364",
      "longitude": "136.9741411",
      "tel": "0562-82-2782",
      "address": "知多郡東浦町大字緒川字旭13-2イオンモール東浦2F",
      "access": "イオン東浦SC2FJR緒川駅より徒歩5分知多半島道路東浦知多ICより約4km"
    },
    {
      "name": "半田メトロポリス",
      "operation_time": "平日10:00～23:50 土日祝日前 9:00～23:50",
      "holiday": "無し",
      "latitude": "34.87469206",
      "longitude": "136.9217723",
      "tel": "0569-24-5226",
      "address": "半田市旭町3-11-1半田コロナワールド内2F",
      "access": "JR武豊線東成岩駅より徒歩1分"
    },
    {
      "name": "ラウンドワン半田店",
      "operation_time": "",
      "holiday": "",
      "latitude": "34.88609688",
      "longitude": "136.9412056",
      "tel": "0569-25-7351",
      "address": "半田市瑞穂町6-7-8",
      "access": ""
    },
    {
      "name": "アピナ松本",
      "operation_time": "10:00～24:00",
      "holiday": "無し",
      "latitude": "36.21052692",
      "longitude": "137.9610526",
      "tel": "0263-24-1133",
      "address": "松本市双葉19-10",
      "access": "国道19号線沿い、イトーヨーカドーそば"
    },
    {
      "name": "GiGO伊勢",
      "operation_time": "",
      "holiday": "",
      "latitude": "34.492142",
      "longitude": "136.678061",
      "tel": "0596-21-1243",
      "address": "伊勢市中須町666",
      "access": ""
    },
    {
      "name": "GiGO豊田",
      "operation_time": "",
      "holiday": "",
      "latitude": "35.067883",
      "longitude": "137.123797",
      "tel": "0565-26-6777",
      "address": "豊田市深田町1-65-1",
      "access": ""
    },
    {
      "name": "アピナ上田店",
      "operation_time": "",
      "holiday": "",
      "latitude": "36.416102",
      "longitude": "138.223307",
      "tel": "0268-75-8055",
      "address": "上田市秋和359-1",
      "access": ""
    },
    {
      "name": "安城メトロポリス",
      "operation_time": "平日10:00～24:00、土日祝日9:00～24:00",
      "holiday": "無し",
      "latitude": "34.95485697",
      "longitude": "137.0975854",
      "tel": "0566-74-8238",
      "address": "安城市浜富町6-8",
      "access": "JR東海道本線安城駅より車で3分・徒歩10分"
    },
    {
      "name": "ラウンドワン盛岡店",
      "operation_time": "",
      "holiday": "",
      "latitude": "39.70035197",
      "longitude": "141.133077",
      "tel": "019-654-9011",
      "address": "盛岡市盛岡駅西通2-10-35",
      "access": ""
    },
    {
      "name": "ソユーゲームフィールド盛岡南店",
      "operation_time": "",
      "holiday": "",
      "latitude": "39.68460314",
      "longitude": "141.128836",
      "tel": "019-908-2013",
      "address": "盛岡市本宮7-1-1イオンモール盛岡南2F",
      "access": ""
    },
    {
      "name": "GiGO北岡崎",
      "operation_time": "9:00～24:00",
      "holiday": "無し",
      "latitude": "34.97365547",
      "longitude": "137.1600268",
      "tel": "070-1393-5583",
      "address": "岡崎市錦町2-4",
      "access": "国道248号線沿い、愛知環状線北岡崎駅から徒歩3分"
    },
    {
      "name": "アピナ伊那店",
      "operation_time": "10:00～24:00",
      "holiday": "無し",
      "latitude": "35.83291352",
      "longitude": "137.950739",
      "tel": "0265-74-8885",
      "address": "伊那市西町5093",
      "access": "アピタ伊那店さんそばエンジョイナ内"
    },
    {
      "name": "PALO諏訪",
      "operation_time": "",
      "holiday": "",
      "latitude": "36.00551011",
      "longitude": "138.1283942",
      "tel": "070-3100-3453",
      "address": "諏訪市沖田町5-18ステーションパーク諏訪内",
      "access": ""
    },
    {
      "name": "アピナ佐久インター店",
      "operation_time": "10:00～24:00",
      "holiday": "無し",
      "latitude": "36.284455",
      "longitude": "138.482344",
      "tel": "026-778-3399",
      "address": "佐久市岩村田北1-13-1",
      "access": "佐久インター近く"
    },
    {
      "name": "豊川メトロポリス",
      "operation_time": "平日10:00～24:00 土日9:00～24:00",
      "holiday": "無し",
      "latitude": "34.80229218",
      "longitude": "137.3847976",
      "tel": "0533-85-6540",
      "address": "豊川市下長山町上アライ14-1",
      "access": "東名高速豊川インター南・国道151号線・城下交差点東へ500m"
    },
    {
      "name": "アピナ豊橋店",
      "operation_time": "",
      "holiday": "",
      "latitude": "34.744231",
      "longitude": "137.3717807",
      "tel": "0532-46-8822",
      "address": "豊橋市藤沢町141ホリデイ･スクエアAM棟1F",
      "access": ""
    },
    {
      "name": "GiGO豊橋飯村",
      "operation_time": "",
      "holiday": "",
      "latitude": "34.7491",
      "longitude": "137.414002",
      "tel": "0532-66-1001",
      "address": "豊橋市飯村町字西山25-121",
      "access": ""
    },
    {
      "name": "GiGO天童",
      "operation_time": "10:00～24:00",
      "holiday": "無し",
      "latitude": "38.34302924",
      "longitude": "140.3739732",
      "tel": "023-656-9370",
      "address": "天童市南町1-5-26",
      "access": "JR「天童駅」より車で10分。国道13号線を南下し国道沿い左側。"
    },
    {
      "name": "テクノワールド",
      "operation_time": "店舗にてご確認ください",
      "holiday": "無し",
      "latitude": "39.179225",
      "longitude": "141.162155",
      "tel": "0197-47-3619",
      "address": "奥州市江刺愛宕梁川127-1",
      "access": ""
    },
    {
      "name": "ラウンドワン豊橋店",
      "operation_time": "",
      "holiday": "",
      "latitude": "34.7239242",
      "longitude": "137.4323261",
      "tel": "0532-65-2212",
      "address": "豊橋市大岩町字岩田27-2",
      "access": ""
    },
    {
      "name": "GiGO米沢",
      "operation_time": "",
      "holiday": "",
      "latitude": "37.91095607",
      "longitude": "140.133677",
      "tel": "0238-24-0666",
      "address": "米沢市大字花沢字タナコ原177",
      "access": ""
    },
    {
      "name": "群馬レジャーランド渋川店",
      "operation_time": "",
      "holiday": "",
      "latitude": "36.4742053",
      "longitude": "139.0154654",
      "tel": "0279-25-0718",
      "address": "渋川市八木原1364",
      "access": ""
    },
    {
      "name": "GiGO会津若松",
      "operation_time": "9:00～24:00",
      "holiday": "無し",
      "latitude": "37.51832577",
      "longitude": "139.9222191",
      "tel": "0242-37-0777",
      "address": "会津若松市町北町上荒久田字宮下142",
      "access": "磐越道会津若松IC側"
    },
    {
      "name": "アピナ浜松店",
      "operation_time": "",
      "holiday": "",
      "latitude": "34.76741731",
      "longitude": "137.7080638",
      "tel": "053-430-4800",
      "address": "浜松市中央区葵西2-27-10ロックタウン内",
      "access": ""
    },
    {
      "name": "ユーズランド高崎店",
      "operation_time": "10:00～21:00",
      "holiday": "",
      "latitude": "36.39047889",
      "longitude": "139.0067302",
      "tel": "027-310-9113",
      "address": "高崎市棟高町1400イオン高崎SC2F",
      "access": ""
    },
    {
      "name": "群馬レジャーランド高崎駅東口店",
      "operation_time": "一部24時間営業",
      "holiday": "無し",
      "latitude": "36.32992086",
      "longitude": "139.0128661",
      "tel": "027-330-3002",
      "address": "高崎市江木町333-1高崎EXビル2F",
      "access": "JR高崎駅東口徒歩10分"
    },
    {
      "name": "群馬レジャーランド前橋店",
      "operation_time": "",
      "holiday": "",
      "latitude": "36.40497647",
      "longitude": "139.0794189",
      "tel": "050-1726-4972",
      "address": "前橋市日吉町4-37-1",
      "access": ""
    },
    {
      "name": "ラウンドワン浜松店",
      "operation_time": "",
      "holiday": "",
      "latitude": "34.73795995",
      "longitude": "137.7638799",
      "tel": "053-461-1101",
      "address": "浜松市中央区天王町諏訪1981-17",
      "access": ""
    },
    {
      "name": "マトリクス前橋店",
      "operation_time": "10:00～24:00",
      "holiday": "無し",
      "latitude": "36.37294244",
      "longitude": "139.059637",
      "tel": "027-212-3133",
      "address": "前橋市小相木町563-3",
      "access": "県道13号線小相木交差点を高崎方面へ150m"
    },
    {
      "name": "ラウンドワン前橋店",
      "operation_time": "",
      "holiday": "",
      "latitude": "36.36888377",
      "longitude": "139.1051864",
      "tel": "027-287-1501",
      "address": "前橋市天川大島町1101-1",
      "access": ""
    },
    {
      "name": "ゲームパニック甲府",
      "operation_time": "",
      "holiday": "",
      "latitude": "35.64182781",
      "longitude": "138.547239",
      "tel": "080-3350-2893",
      "address": "甲府市国母5-20-24",
      "access": ""
    },
    {
      "name": "アピナ富谷店",
      "operation_time": "",
      "holiday": "",
      "latitude": "38.36528256",
      "longitude": "140.8765988",
      "tel": "022-341-5177",
      "address": "富谷市大清水1-33-1イオンモール109シネマズ富谷1F",
      "access": ""
    },
    {
      "name": "群馬レジャーランド藤岡店",
      "operation_time": "一部24時間営業",
      "holiday": "",
      "latitude": "36.27426745",
      "longitude": "139.0718857",
      "tel": "0274-40-2371",
      "address": "藤岡市中2002-1",
      "access": "県道13号沿い、上信越道藤岡IC北 カーオプション店『ピット100』2階"
    },
    {
      "name": "ラウンドワンスタジアム仙台泉店",
      "operation_time": "",
      "holiday": "",
      "latitude": "38.35192551",
      "longitude": "140.8797545",
      "tel": "022-347-4471",
      "address": "仙台市泉区大沢2-12-4仙台泉インターシティ1F",
      "access": ""
    },
    {
      "name": "インターワールド伊勢崎店",
      "operation_time": "10:00～24:00",
      "holiday": "無し",
      "latitude": "36.3315169",
      "longitude": "139.1624928",
      "tel": "0270-25-4338",
      "address": "伊勢崎市宮子町3425-4",
      "access": "関東自動車道駒形ICから5分。伊勢崎オートレース近く"
    },
    {
      "name": "群馬レジャーランド伊勢崎店",
      "operation_time": "一部24時間営業",
      "holiday": "無し",
      "latitude": "36.31824274",
      "longitude": "139.1723592",
      "tel": "0270-40-5330",
      "address": "伊勢崎市連取町3066-1",
      "access": "伊勢崎市内県道2号線沿い伊勢崎オート近く"
    },
    {
      "name": "GiGO仙台一番町",
      "operation_time": "",
      "holiday": "",
      "latitude": "38.26424",
      "longitude": "140.87121",
      "tel": "022-393-6746",
      "address": "仙台市青葉区一番町4-5-13サンシャインビル1F",
      "access": ""
    },
    {
      "name": "ラウンドワンさいたま･上里店",
      "operation_time": "",
      "holiday": "",
      "latitude": "36.259925",
      "longitude": "139.137383",
      "tel": "0495-35-2201",
      "address": "児玉郡上里町大字金久保字周川394-1",
      "access": ""
    },
    {
      "name": "タイトーステーション仙台クリスロード店",
      "operation_time": "9:00～24:00",
      "holiday": "無し",
      "latitude": "38.261006",
      "longitude": "140.875705",
      "tel": "022-262-2541",
      "address": "仙台市青葉区中央2-3-25",
      "access": "JR仙台駅・地下鉄仙台駅より徒歩8分(ハピナ名掛丁アーケード内)"
    },
    {
      "name": "GiGO仙台",
      "operation_time": "",
      "holiday": "",
      "latitude": "38.26181",
      "longitude": "140.87675",
      "tel": "022-211-1922",
      "address": "仙台市青葉区中央2-5-5三経60ビル",
      "access": ""
    },
    {
      "name": "タイトーステーション仙台名掛丁店",
      "operation_time": "9:00～24:00",
      "holiday": "無し",
      "latitude": "38.262028",
      "longitude": "140.879112",
      "tel": "022-215-1664",
      "address": "仙台市青葉区中央1-7-13",
      "access": "JR仙台駅・地下鉄仙台駅より徒歩5分(ハピナ名掛丁アケード内)"
    },
    {
      "name": "GiGOスマーク伊勢崎",
      "operation_time": "",
      "holiday": "",
      "latitude": "36.339538",
      "longitude": "139.231968",
      "tel": "0270-62-3886",
      "address": "伊勢崎市西小保方町368スマーク伊勢崎3F302区画",
      "access": ""
    },
    {
      "name": "ゲームフィールド仙台長町店",
      "operation_time": "",
      "holiday": "",
      "latitude": "38.22565173",
      "longitude": "140.8768793",
      "tel": "022-304-2371",
      "address": "仙台市太白区長町7-20-3ザ･モール仙台長町店3F",
      "access": ""
    },
    {
      "name": "ラウンドワン仙台苦竹店",
      "operation_time": "",
      "holiday": "",
      "latitude": "38.26828399",
      "longitude": "140.9172614",
      "tel": "022-788-2581",
      "address": "仙台市宮城野区苦竹1-7-10",
      "access": ""
    },
    {
      "name": "GiGO利府",
      "operation_time": "10:00～24:00",
      "holiday": "無し",
      "latitude": "38.32801132",
      "longitude": "140.9756135",
      "tel": "080-7500-4898",
      "address": "宮城郡利府町加瀬字新前谷地55-1",
      "access": "三陸自動車道 利府中IC下車利府バイパス沿い車で5分"
    },
    {
      "name": "ラウンドワン福島店",
      "operation_time": "",
      "holiday": "",
      "latitude": "37.75259469",
      "longitude": "140.4562354",
      "tel": "024-525-4731",
      "address": "福島市太田町14-18",
      "access": ""
    },
    {
      "name": "ユーズランド大河原店",
      "operation_time": "10:00～21:00",
      "holiday": "",
      "latitude": "38.065153",
      "longitude": "140.737021",
      "tel": "0224-51-1237",
      "address": "柴田郡大河原町字小島2-1フォルテ2F",
      "access": ""
    },
    {
      "name": "GiGO福島南",
      "operation_time": "10:00～24:00",
      "holiday": "無し",
      "latitude": "37.72791083",
      "longitude": "140.4671033",
      "tel": "024-544-0280",
      "address": "福島市黒岩字中島7-2",
      "access": "高速福島西ICより車で15分。国道4号線を右折し「黒岩」交差点手前左側。"
    },
    {
      "name": "ゲームコーナー東部",
      "operation_time": "9:00～24:00",
      "holiday": "無し",
      "latitude": "38.25101621",
      "longitude": "140.9438974",
      "tel": "022-287-5880",
      "address": "仙台市若林区六丁の目中町26-60",
      "access": "六丁目の交差点より多賀城方面へ向かい車で5分。産業通り沿い。"
    },
    {
      "name": "GiGO名取",
      "operation_time": "",
      "holiday": "",
      "latitude": "38.1565798",
      "longitude": "140.8882353",
      "tel": "022-384-8950",
      "address": "名取市飯野坂字土城堀57-1",
      "access": ""
    },
    {
      "name": "群馬レジャーランド太田店",
      "operation_time": "一部24時間営業",
      "holiday": "無し",
      "latitude": "36.26802219",
      "longitude": "139.3761382",
      "tel": "0276-47-8030",
      "address": "太田市西矢島町162-2",
      "access": ""
    },
    {
      "name": "ユーズランド太田店",
      "operation_time": "10:00～21:00",
      "holiday": "無し",
      "latitude": "36.29327372",
      "longitude": "139.4001931",
      "tel": "0276-47-8722",
      "address": "太田市石原町81イオンモール太田2F",
      "access": "イオン太田SC2F東武伊勢崎線太田駅よりバスで10分東北道館林ICよりR354～R122(太田バイパス)経由約30分"
    },
    {
      "name": "アピナ太田店",
      "operation_time": "10:00～24:00",
      "holiday": "無し",
      "latitude": "36.28282169",
      "longitude": "139.3983139",
      "tel": "0276-48-1489",
      "address": "太田市内ヶ島町907-1",
      "access": "太田駅より車で5分富士重工近く"
    },
    {
      "name": "タイトーFステーション郡山オリエントパーク店",
      "operation_time": "",
      "holiday": "",
      "latitude": "37.37465045",
      "longitude": "140.3487929",
      "tel": "024-946-8222",
      "address": "郡山市安積町荒井字大久保35-1",
      "access": ""
    },
    {
      "name": "ドラマ足利店",
      "operation_time": "10:00～24:00",
      "holiday": "無し",
      "latitude": "36.32220259",
      "longitude": "139.4503607",
      "tel": "0284-73-9559",
      "address": "足利市朝倉町244-1",
      "access": "東武伊勢崎線足利市駅より徒歩10分"
    },
    {
      "name": "ラウンドワン静岡･駿河店",
      "operation_time": "",
      "holiday": "",
      "latitude": "34.950991",
      "longitude": "138.360524",
      "tel": "054-201-1601",
      "address": "静岡市駿河区向手越1-10-1",
      "access": ""
    },
    {
      "name": "ラウンドワン郡山店",
      "operation_time": "",
      "holiday": "",
      "latitude": "37.40229903",
      "longitude": "140.3957065",
      "tel": "024-941-3191",
      "address": "郡山市向河原町4-55",
      "access": ""
    },
    {
      "name": "アップルグランリバー 大井川店",
      "operation_time": "10:00～24:00",
      "holiday": "無し",
      "latitude": "34.80971624",
      "longitude": "138.2732243",
      "tel": "054-270-3244",
      "address": "焼津市下江留1327",
      "access": "東名高速道路、吉田ICより車で10分"
    },
    {
      "name": "スーパーウェーブ静岡店",
      "operation_time": "",
      "holiday": "",
      "latitude": "35.01361",
      "longitude": "138.43421",
      "tel": "054-340-5888",
      "address": "静岡市清水区鳥坂860フレスポ静岡2F西",
      "access": ""
    },
    {
      "name": "GiGO西那須野",
      "operation_time": "",
      "holiday": "",
      "latitude": "36.895093",
      "longitude": "139.982317",
      "tel": "0287-37-3077",
      "address": "那須塩原市南郷屋2-106-27",
      "access": ""
    },
    {
      "name": "ゲームインプリンス",
      "operation_time": "10:00～24:00",
      "holiday": "無休",
      "latitude": "35.02415636",
      "longitude": "138.4798001",
      "tel": "0543-64-8012",
      "address": "静岡市清水区天神1-2-6",
      "access": "東名高速静岡ICから車で30分"
    },
    {
      "name": "namcoフェドラP&D佐野店",
      "operation_time": "10:00～23:00 土日祝9:00～23:00",
      "holiday": "無し",
      "latitude": "36.29729",
      "longitude": "139.605644",
      "tel": "0283-85-9518",
      "address": "佐野市高萩町1340",
      "access": ""
    },
    {
      "name": "ラウンドワン富士店",
      "operation_time": "",
      "holiday": "",
      "latitude": "35.15310644",
      "longitude": "138.6938016",
      "tel": "0545-51-3636",
      "address": "富士市八代町4-15",
      "access": ""
    },
    {
      "name": "GiGOフジモール吹上",
      "operation_time": "",
      "holiday": "",
      "latitude": "36.09630596",
      "longitude": "139.4658445",
      "tel": "070-1458-5638",
      "address": "鴻巣市袋90-1フジモール吹上",
      "access": ""
    },
    {
      "name": "シーサイドリゾート",
      "operation_time": "10:00～24:00",
      "holiday": "無し",
      "latitude": "36.56327652",
      "longitude": "139.8604649",
      "tel": "028-632-5006",
      "address": "宇都宮市睦町7-3",
      "access": "鹿沼街道沿い"
    },
    {
      "name": "ラウンドワンさいたま･鴻巣店",
      "operation_time": "",
      "holiday": "",
      "latitude": "36.08064011",
      "longitude": "139.4902201",
      "tel": "048-595-2001",
      "address": "鴻巣市箕田3163-7",
      "access": ""
    },
    {
      "name": "ラウンドワン宇都宮店",
      "operation_time": "",
      "holiday": "",
      "latitude": "36.54080987",
      "longitude": "139.8868656",
      "tel": "028-614-8171",
      "address": "宇都宮市江曽島町2072-1",
      "access": ""
    },
    {
      "name": "GiGO宇都宮",
      "operation_time": "",
      "holiday": "",
      "latitude": "36.558326",
      "longitude": "139.90882",
      "tel": "028-633-6082",
      "address": "宇都宮市東宿郷5-1-7",
      "access": ""
    },
    {
      "name": "インターパークプラスワン 宇都宮店",
      "operation_time": "9:00～24:00",
      "holiday": "無し",
      "latitude": "36.48822111",
      "longitude": "139.9053211",
      "tel": "028-657-6789",
      "address": "宇都宮市インターパーク6-5-1",
      "access": "国道4号線、北関東自動車道、宇都宮上三川インターインター降りてすぐ"
    },
    {
      "name": "ラウンドワン入間店",
      "operation_time": "",
      "holiday": "",
      "latitude": "35.82812299",
      "longitude": "139.3755366",
      "tel": "042-960-1521",
      "address": "入間市小谷田3-7-25",
      "access": ""
    },
    {
      "name": "GiGO福生",
      "operation_time": "",
      "holiday": "",
      "latitude": "35.744653",
      "longitude": "139.324251",
      "tel": "042-553-6290",
      "address": "福生市福生1076-1",
      "access": ""
    },
    {
      "name": "フェスタ古河店",
      "operation_time": "10:00～24:00",
      "holiday": "無し",
      "latitude": "36.20960151",
      "longitude": "139.7086044",
      "tel": "0280-32-1138",
      "address": "古河市松並2-18-10マーケットシティ古河内",
      "access": "マーケットシティ古河内"
    },
    {
      "name": "ソユーゲームフィールド菖蒲店",
      "operation_time": "",
      "holiday": "",
      "latitude": "36.07514072",
      "longitude": "139.6116324",
      "tel": "0480-87-1955",
      "address": "久喜市菖蒲町菖蒲6005-1モラージュ菖蒲3F",
      "access": ""
    },
    {
      "name": "モナコ川越店",
      "operation_time": "9:00～24:00",
      "holiday": "無し",
      "latitude": "35.91326113",
      "longitude": "139.483165",
      "tel": "0492-24-2454",
      "address": "川越市新富町2-4-1",
      "access": "東武東上線川越駅徒歩5分"
    },
    {
      "name": "アピナ小山店",
      "operation_time": "10:00～24:00",
      "holiday": "無し",
      "latitude": "36.300419",
      "longitude": "139.809126",
      "tel": "0285-31-0050",
      "address": "小山市駅南町4-27-18",
      "access": "国道50号線沿い駅南町交差点"
    },
    {
      "name": "GiGO小山",
      "operation_time": "",
      "holiday": "",
      "latitude": "36.29908128",
      "longitude": "139.8101531",
      "tel": "0285-28-6281",
      "address": "小山市東城南1-1-18",
      "access": ""
    },
    {
      "name": "GiGO入間",
      "operation_time": "",
      "holiday": "",
      "latitude": "35.81911",
      "longitude": "139.418219",
      "tel": "070-1458-7167",
      "address": "入間市東藤沢2-18",
      "access": ""
    },
    {
      "name": "アピナ上尾店",
      "operation_time": "",
      "holiday": "",
      "latitude": "35.987191",
      "longitude": "139.579877",
      "tel": "048-783-4747",
      "address": "上尾市緑丘3-3-11-2プリンセス棟別棟",
      "access": ""
    },
    {
      "name": "アピナ川越店",
      "operation_time": "10:00～24:00",
      "holiday": "無し",
      "latitude": "35.9037481",
      "longitude": "139.5155363",
      "tel": "049-230-1068",
      "address": "川越市泉町1-1",
      "access": "JR川越線南古谷駅徒歩3分"
    },
    {
      "name": "ラウンドワン武蔵村山店",
      "operation_time": "",
      "holiday": "",
      "latitude": "35.73563714",
      "longitude": "139.3826993",
      "tel": "042-520-3211",
      "address": "武蔵村山市伊奈平3-1-1",
      "access": ""
    },
    {
      "name": "ラウンドワンさいたま･栗橋店",
      "operation_time": "",
      "holiday": "",
      "latitude": "36.12348469",
      "longitude": "139.7152159",
      "tel": "0480-55-0831",
      "address": "久喜市小右衛門192-1",
      "access": ""
    },
    {
      "name": "ラウンドワン上尾店",
      "operation_time": "",
      "holiday": "",
      "latitude": "35.98574121",
      "longitude": "139.6078308",
      "tel": "048-778-3411",
      "address": "上尾市大字平塚917-1",
      "access": ""
    },
    {
      "name": "シルクハット八王子",
      "operation_time": "10:00～24:45",
      "holiday": "",
      "latitude": "35.65636374",
      "longitude": "139.3384725",
      "tel": "",
      "address": "八王子市旭町2-5八王子ツインタワービル3F",
      "access": "JR八王子駅前"
    },
    {
      "name": "GiGOサントムーン柿田川",
      "operation_time": "",
      "holiday": "",
      "latitude": "35.109337",
      "longitude": "138.902823",
      "tel": "055-972-5430",
      "address": "駿東郡清水町玉川61-2サントムーン柿田川2F",
      "access": ""
    },
    {
      "name": "アピナ八王子みなみ野店",
      "operation_time": "",
      "holiday": "",
      "latitude": "35.63118314",
      "longitude": "139.3289717",
      "tel": "042-635-3928",
      "address": "八王子市みなみ野1-2-1アクロスモール内3F",
      "access": ""
    },
    {
      "name": "ドラマ八王子高倉店",
      "operation_time": "10:00～24:00",
      "holiday": "無し",
      "latitude": "35.66506526",
      "longitude": "139.3664795",
      "tel": "0426-45-7050",
      "address": "八王子市高倉町55-4",
      "access": "国道20号、八王子市高倉町「高倉町西」交差点を日野バイパス豊田方面右手"
    },
    {
      "name": "ラウンドワン所沢店",
      "operation_time": "",
      "holiday": "",
      "latitude": "35.78935214",
      "longitude": "139.4700049",
      "tel": "04-2940-8631",
      "address": "所沢市東町5-22TOCOTOCO SQUARE6F",
      "access": ""
    },
    {
      "name": "GiGO所沢",
      "operation_time": "",
      "holiday": "",
      "latitude": "35.78848",
      "longitude": "139.47187",
      "tel": "042-926-9009",
      "address": "所沢市日吉町8-1",
      "access": ""
    },
    {
      "name": "タイトーステーション立川北口店",
      "operation_time": "",
      "holiday": "",
      "latitude": "35.699058",
      "longitude": "139.412162",
      "tel": "042-512-9651",
      "address": "立川市曙町2-4-5OSJ TACHIKAWA2･3F",
      "access": ""
    },
    {
      "name": "GiGO立川",
      "operation_time": "",
      "holiday": "",
      "latitude": "35.6972343",
      "longitude": "139.4142917",
      "tel": "042-521-3050",
      "address": "立川市柴崎町3-2-1サザンビル1F",
      "access": ""
    },
    {
      "name": "アピナ橋本店",
      "operation_time": "10:00～24:00",
      "holiday": "無し",
      "latitude": "35.597682",
      "longitude": "139.337035",
      "tel": "042-703-6033",
      "address": "相模原市緑区西橋本5-1-1ラ･フロール駐車場棟1F",
      "access": "橋本駅から徒歩10分 八王子バイパスから津久井街道へ繋がる側道に入ってすぐ"
    },
    {
      "name": "WORLD GAME CIRCUS",
      "operation_time": "",
      "holiday": "",
      "latitude": "35.69651",
      "longitude": "139.42878",
      "tel": "042-512-5610",
      "address": "立川市羽衣町2-4-13羽衣長田ビル101",
      "access": ""
    },
    {
      "name": "アピナ下館店",
      "operation_time": "10:00～24:00",
      "holiday": "無し",
      "latitude": "36.29325391",
      "longitude": "139.944075",
      "tel": "0296-28-0033",
      "address": "筑西市玉戸1012-3",
      "access": "R50号玉戸信号近く"
    },
    {
      "name": "ラウンドワン大宮店",
      "operation_time": "",
      "holiday": "",
      "latitude": "35.91078012",
      "longitude": "139.6254963",
      "tel": "048-658-5666",
      "address": "さいたま市大宮区宮町4-90-7",
      "access": ""
    },
    {
      "name": "埼玉レジャーランド大宮駅東口店",
      "operation_time": "",
      "holiday": "",
      "latitude": "35.90800635",
      "longitude": "139.6245445",
      "tel": "048-788-4340",
      "address": "さいたま市大宮区宮町1-8大宮セントラルビルB1F-2F",
      "access": ""
    },
    {
      "name": "埼玉レジャーランド大宮ラクーン店",
      "operation_time": "",
      "holiday": "",
      "latitude": "35.90775385",
      "longitude": "139.6256741",
      "tel": "048-871-5539",
      "address": "さいたま市大宮区宮町1-60大宮ラクーン5F",
      "access": ""
    },
    {
      "name": "タイトーステーション大宮店",
      "operation_time": "9:00～翌1:00",
      "holiday": "無し",
      "latitude": "35.907441",
      "longitude": "139.625505",
      "tel": "048-782-5461",
      "address": "さいたま市大宮区大門町1-1",
      "access": "大宮駅東口徒歩1分"
    },
    {
      "name": "GiGO相模原",
      "operation_time": "10:00～24:00",
      "holiday": "無し",
      "latitude": "35.57350902",
      "longitude": "139.3710322",
      "tel": "080-7465-6268",
      "address": "相模原市中央区中央2-1-5ムトス内",
      "access": "JR横浜線相模原駅徒歩15分国道16号線近く"
    },
    {
      "name": "Amusement&Game MAGHREB",
      "operation_time": "10:00～24:00",
      "holiday": "無し",
      "latitude": "35.624024",
      "longitude": "139.423196",
      "tel": "042-371-5556",
      "address": "多摩市落合1-39-2マグレブビル1F",
      "access": "京王線・小田急線 多摩センター駅 徒歩3分/多摩モノレール多摩センター駅 徒歩1分"
    },
    {
      "name": "ラウンドワン府中本町駅前店",
      "operation_time": "",
      "holiday": "",
      "latitude": "35.667312",
      "longitude": "139.477387",
      "tel": "042-340-4901",
      "address": "府中市本町1-13-3カネタビル",
      "access": ""
    },
    {
      "name": "ラウンドワン朝霞店",
      "operation_time": "",
      "holiday": "",
      "latitude": "35.79026242",
      "longitude": "139.5796756",
      "tel": "048-450-1822",
      "address": "朝霞市膝折町2-16-10",
      "access": ""
    },
    {
      "name": "埼玉レジャーランド春日部店",
      "operation_time": "一部24時間",
      "holiday": "無し",
      "latitude": "35.95940469",
      "longitude": "139.7289621",
      "tel": "048-763-4061",
      "address": "春日部市大字増富字谷際163-1",
      "access": "国道16号線沿い春日部市増富地内"
    },
    {
      "name": "タイトーステーション小田原店",
      "operation_time": "10:00～24:00",
      "holiday": "無し",
      "latitude": "35.25494514",
      "longitude": "139.1561641",
      "tel": "0465-23-2473",
      "address": "小田原市栄町1-3-12",
      "access": "小田原駅東口を出てすぐ"
    },
    {
      "name": "神奈川レジャーランド厚木店",
      "operation_time": "一部24時間営業",
      "holiday": "無し",
      "latitude": "35.44802433",
      "longitude": "139.3431365",
      "tel": "050-1722-4336",
      "address": "厚木市戸室5-31-1",
      "access": "小田急本厚木駅よりバスにてアンリツ前バス停下車徒歩1分"
    },
    {
      "name": "アピナ成増店",
      "operation_time": "",
      "holiday": "",
      "latitude": "35.77813507",
      "longitude": "139.6304654",
      "tel": "03-6904-1677",
      "address": "板橋区成増2-21-2MEGAドン･キホーテ成増店5F",
      "access": ""
    },
    {
      "name": "ラウンドワンわらび店",
      "operation_time": "",
      "holiday": "",
      "latitude": "35.83078787",
      "longitude": "139.6742521",
      "tel": "048-447-8080",
      "address": "蕨市北町5-1-6",
      "access": ""
    },
    {
      "name": "GiGO成増",
      "operation_time": "",
      "holiday": "",
      "latitude": "35.7774666",
      "longitude": "139.6312648",
      "tel": "070-1459-3563",
      "address": "板橋区成増2-17-24五曠第6ビルB1F-1F",
      "access": ""
    },
    {
      "name": "ラウンドワン町田店",
      "operation_time": "",
      "holiday": "",
      "latitude": "35.54409488",
      "longitude": "139.4432407",
      "tel": "042-710-0091",
      "address": "町田市森野1-13-14",
      "access": ""
    },
    {
      "name": "GiGO相模大野",
      "operation_time": "",
      "holiday": "",
      "latitude": "35.532177",
      "longitude": "139.436075",
      "tel": "042-741-8195",
      "address": "相模原市南区相模大野3-13-2フレスコビル3F",
      "access": ""
    },
    {
      "name": "GiGOイオンモール浦和美園",
      "operation_time": "9:00～23:00",
      "holiday": "無し",
      "latitude": "35.8909712",
      "longitude": "139.7311429",
      "tel": "080-4831-9105",
      "address": "さいたま市緑区美園5-50-1イオンモール浦和美園2F",
      "access": "イオン浦和美園ショッピングセンター内 2階"
    },
    {
      "name": "GiGO町田",
      "operation_time": "",
      "holiday": "",
      "latitude": "35.54392",
      "longitude": "139.446987",
      "tel": "042-723-6701",
      "address": "町田市原町田6-13-17アーバンミサワビル",
      "access": ""
    },
    {
      "name": "GiGO本厚木",
      "operation_time": "",
      "holiday": "",
      "latitude": "35.439044",
      "longitude": "139.361882",
      "tel": "0462-23-7157",
      "address": "厚木市中町4-15-9",
      "access": ""
    },
    {
      "name": "シルクハット本厚木",
      "operation_time": "9:00～23:45",
      "holiday": "無し",
      "latitude": "35.44024066",
      "longitude": "139.3629959",
      "tel": "",
      "address": "厚木市中町3-4-22第二会田ビル2F",
      "access": "小田急「本厚木駅」北口より徒歩1分 第二会田ビル"
    },
    {
      "name": "東京レジャーランド吉祥寺店",
      "operation_time": "",
      "holiday": "",
      "latitude": "35.7036243",
      "longitude": "139.5786419",
      "tel": "0422-27-2200",
      "address": "武蔵野市吉祥寺本町1-3-7YSビル",
      "access": ""
    },
    {
      "name": "ラウンドワン吉祥寺店",
      "operation_time": "",
      "holiday": "",
      "latitude": "35.706276",
      "longitude": "139.580884",
      "tel": "0422-29-1051",
      "address": "武蔵野市吉祥寺本町1-11-22",
      "access": ""
    },
    {
      "name": "タイトーステーション町田店",
      "operation_time": "10:00～24:00",
      "holiday": "無し",
      "latitude": "35.542593",
      "longitude": "139.448333",
      "tel": "042-739-6196",
      "address": "町田市原町田6-21-23松山ビル1F",
      "access": "JR横浜線町田駅より徒歩3分・小田急線町田駅より徒歩5分"
    },
    {
      "name": "モナコ調布駅前店",
      "operation_time": "10:00～24:00",
      "holiday": "無し",
      "latitude": "35.65119592",
      "longitude": "139.5443691",
      "tel": "0424-99-1383",
      "address": "調布市布田4-2-22",
      "access": "京王線調布駅徒歩1分"
    },
    {
      "name": "GiGO調布",
      "operation_time": "",
      "holiday": "",
      "latitude": "35.65098715",
      "longitude": "139.5442321",
      "tel": "070-1517-3693",
      "address": "調布市布田4-2-4",
      "access": ""
    },
    {
      "name": "GiGO海老名",
      "operation_time": "",
      "holiday": "",
      "latitude": "35.45161",
      "longitude": "139.39236",
      "tel": "046-292-5812",
      "address": "海老名市中央1-4-31海老名プラザビル1F",
      "access": ""
    },
    {
      "name": "タイトーステーション海老名ビナウォーク店",
      "operation_time": "10:00～24:00",
      "holiday": "無し",
      "latitude": "35.452455",
      "longitude": "139.395834",
      "tel": "046-292-5160",
      "address": "海老名市中央1-18-1ビナウォーク6番館2F",
      "access": "JR相模線、相鉄線、小田急線、海老名駅より徒歩5分"
    },
    {
      "name": "テクモピア座間店",
      "operation_time": "",
      "holiday": "",
      "latitude": "35.48001079",
      "longitude": "139.431891",
      "tel": "046-205-4719",
      "address": "座間市ひばりが丘4-11-48",
      "access": ""
    },
    {
      "name": "アピナ荻窪店",
      "operation_time": "10:00～24:00 金土祝前日10:00～25:00",
      "holiday": "",
      "latitude": "35.705",
      "longitude": "139.618163",
      "tel": "03-3393-6665",
      "address": "杉並区上荻1-13-10ハクサンビル",
      "access": ""
    },
    {
      "name": "ラウンドワン板橋店",
      "operation_time": "",
      "holiday": "",
      "latitude": "35.77658",
      "longitude": "139.67879",
      "tel": "03-5922-3521",
      "address": "板橋区相生町16-13",
      "access": ""
    },
    {
      "name": "プレイランド大和鶴間店",
      "operation_time": "",
      "holiday": "",
      "latitude": "35.49008132",
      "longitude": "139.4571396",
      "tel": "046-200-0240",
      "address": "大和市下鶴間1-3-1イトーヨーカードー大和鶴間店3F",
      "access": ""
    },
    {
      "name": "タイトーFステーション向ヶ丘遊園店",
      "operation_time": "",
      "holiday": "",
      "latitude": "35.616404",
      "longitude": "139.565109",
      "tel": "044-281-3500",
      "address": "川崎市多摩区登戸2718-1",
      "access": ""
    },
    {
      "name": "千葉レジャーランド野田店",
      "operation_time": "一部24時間営業",
      "holiday": "無し",
      "latitude": "35.97154747",
      "longitude": "139.8653487",
      "tel": "04-7120-3535",
      "address": "野田市吉春776-1",
      "access": "国道16号線沿い野田市吉春地内"
    },
    {
      "name": "ゲームシティ川口店",
      "operation_time": "10:00～23:50",
      "holiday": "無し",
      "latitude": "35.80263316",
      "longitude": "139.7255584",
      "tel": "048-250-3855",
      "address": "川口市栄町1-10-5",
      "access": "JR川口駅東口徒歩10分"
    },
    {
      "name": "ラウンドワンららぽーと湘南平塚店",
      "operation_time": "",
      "holiday": "",
      "latitude": "35.335825",
      "longitude": "139.354769",
      "tel": "0463-25-4051",
      "address": "平塚市天沼10-1ららぽーと湘南平塚店3F",
      "access": ""
    },
    {
      "name": "GiGO赤羽駅前",
      "operation_time": "",
      "holiday": "",
      "latitude": "35.778266",
      "longitude": "139.721535",
      "tel": "070-1458-9504",
      "address": "北区赤羽1-2-4",
      "access": ""
    },
    {
      "name": "GiGO赤羽",
      "operation_time": "",
      "holiday": "",
      "latitude": "35.778926",
      "longitude": "139.722383",
      "tel": "070-1458-9465",
      "address": "北区赤羽1-7-9赤羽第一葉山ビルB1F",
      "access": ""
    },
    {
      "name": "アドアーズ中野店",
      "operation_time": "10:00～23:45",
      "holiday": "無し",
      "latitude": "35.70931435",
      "longitude": "139.6656989",
      "tel": "03-3389-7670",
      "address": "中野区中野5-52-15ブロードウェイ185",
      "access": "中野ブロードウェイ内左手"
    },
    {
      "name": "ゲームW店",
      "operation_time": "10:00～24:00",
      "holiday": "不定休",
      "latitude": "35.72942259",
      "longitude": "139.6828924",
      "tel": "03-5983-7880",
      "address": "豊島区南長崎5-27-6",
      "access": "西武池袋線 東長崎駅より徒歩2分"
    },
    {
      "name": "タイトーステーション池袋ロサ店",
      "operation_time": "10:00～24:00",
      "holiday": "無し",
      "latitude": "35.732483",
      "longitude": "139.709305",
      "tel": "03-3982-1270",
      "address": "豊島区西池袋1-37-12ロサ会館1F",
      "access": "JR池袋駅西口、北口より徒歩3分"
    },
    {
      "name": "タイトーステーション池袋西口店",
      "operation_time": "",
      "holiday": "",
      "latitude": "35.73058948",
      "longitude": "139.709706",
      "tel": "03-6907-3560",
      "address": "豊島区西池袋1-15-9第一西池ビル",
      "access": ""
    },
    {
      "name": "ラウンドワン池袋店",
      "operation_time": "",
      "holiday": "",
      "latitude": "35.730175",
      "longitude": "139.714846",
      "tel": "03-5928-0221",
      "address": "豊島区東池袋1-14-1池袋スクエア",
      "access": ""
    },
    {
      "name": "GiGO総本店",
      "operation_time": "",
      "holiday": "",
      "latitude": "35.72930775",
      "longitude": "139.7150562",
      "tel": "080-7018-7351",
      "address": "豊島区東池袋1-13-6ロクマルゲート池袋B1F-3F",
      "access": ""
    },
    {
      "name": "東京レジャーランド池袋店",
      "operation_time": "",
      "holiday": "",
      "latitude": "35.73071",
      "longitude": "139.71644",
      "tel": "03-5904-8388",
      "address": "豊島区東池袋1-29-1マルビル池袋2-3F",
      "access": ""
    },
    {
      "name": "GiGO高田馬場",
      "operation_time": "",
      "holiday": "",
      "latitude": "35.7137",
      "longitude": "139.70374",
      "tel": "03-5937-1515",
      "address": "新宿区高田馬場4-7-5高田馬場グランド東京ビル",
      "access": ""
    },
    {
      "name": "タイトーステーションBIGBOX高田馬場",
      "operation_time": "10:00～24:00",
      "holiday": "無し",
      "latitude": "35.712933",
      "longitude": "139.70419",
      "tel": "03-5272-9855",
      "address": "新宿区高田馬場1-35-3BIGBOX6F",
      "access": "西武新宿線・高田馬場駅より徒歩1分"
    },
    {
      "name": "タイトーステーション溝の口店",
      "operation_time": "",
      "holiday": "",
      "latitude": "35.600042",
      "longitude": "139.61245",
      "tel": "044-328-9262",
      "address": "川崎市高津区溝口1-11-8",
      "access": ""
    },
    {
      "name": "ラウンドワン草加店",
      "operation_time": "",
      "holiday": "",
      "latitude": "35.81240056",
      "longitude": "139.7878993",
      "tel": "048-920-3701",
      "address": "草加市谷塚上町204-1",
      "access": ""
    },
    {
      "name": "GiGOセンター南",
      "operation_time": "",
      "holiday": "",
      "latitude": "35.54468479",
      "longitude": "139.5746128",
      "tel": "045-945-7720",
      "address": "横浜市都筑区茅ケ崎中央3-25",
      "access": ""
    },
    {
      "name": "ゲームパニック新宿歌舞伎町",
      "operation_time": "",
      "holiday": "",
      "latitude": "35.69606337",
      "longitude": "139.7012777",
      "tel": "03-6265-9021",
      "address": "新宿区歌舞伎町1-20-1ヒューマックスパビリオン1-2F",
      "access": ""
    },
    {
      "name": "GiGO新宿西口",
      "operation_time": "",
      "holiday": "",
      "latitude": "35.68945769",
      "longitude": "139.6973935",
      "tel": "03-3349-0257",
      "address": "新宿区西新宿1-12-5",
      "access": ""
    },
    {
      "name": "新宿スポーツランド本館",
      "operation_time": "",
      "holiday": "",
      "latitude": "35.69316847",
      "longitude": "139.7018443",
      "tel": "03-3352-5489",
      "address": "新宿区新宿3-22-12",
      "access": ""
    },
    {
      "name": "タイトーステーション新宿南口ゲームワールド店",
      "operation_time": "10:00～25:00",
      "holiday": "無し",
      "latitude": "35.689926",
      "longitude": "139.702372",
      "tel": "03-3226-0395",
      "address": "新宿区新宿3-35-8",
      "access": "JR・新宿駅より徒歩1分"
    },
    {
      "name": "GiGO竹の塚",
      "operation_time": "",
      "holiday": "",
      "latitude": "35.794794",
      "longitude": "139.792358",
      "tel": "03-3858-2307",
      "address": "足立区竹の塚6-8-6ピーくんPlazaB",
      "access": ""
    },
    {
      "name": "ラウンドワンららぽーと新三郷店",
      "operation_time": "",
      "holiday": "",
      "latitude": "35.859813",
      "longitude": "139.865774",
      "tel": "048-950-7501",
      "address": "三郷市新三郷ららシティ3-1-1ららぽーと新三郷 2F",
      "access": ""
    },
    {
      "name": "ドラマ港北インター店",
      "operation_time": "10:00～24:00",
      "holiday": "無し",
      "latitude": "35.51925659",
      "longitude": "139.5847927",
      "tel": "045-474-6604",
      "address": "横浜市都筑区東方町321-6",
      "access": "第三京浜港北IC右側交差点左折約500M"
    },
    {
      "name": "GiGO渋谷宮益坂",
      "operation_time": "",
      "holiday": "",
      "latitude": "35.660097",
      "longitude": "139.702644",
      "tel": "03-3409-4737",
      "address": "渋谷区渋谷1-14-14EST 1F･7F",
      "access": ""
    },
    {
      "name": "ゲームパニック三郷",
      "operation_time": "",
      "holiday": "",
      "latitude": "35.84215546",
      "longitude": "139.8548102",
      "tel": "048-953-8295",
      "address": "三郷市ピアラシティ1-1-200",
      "access": ""
    },
    {
      "name": "GiGO神楽坂",
      "operation_time": "",
      "holiday": "",
      "latitude": "35.701061",
      "longitude": "139.741994",
      "tel": "03-3260-7253",
      "address": "新宿区神楽坂2-11第2カグラヒルズ1F",
      "access": ""
    },
    {
      "name": "ドラマ藤沢店",
      "operation_time": "10:00～24:00",
      "holiday": "無し",
      "latitude": "35.35751243",
      "longitude": "139.4682681",
      "tel": "0466-82-0328",
      "address": "藤沢市本藤沢5-6-8",
      "access": "小田急江ノ島線善行駅より徒歩15分"
    },
    {
      "name": "ASO:VIBA!",
      "operation_time": "10:00～24:00",
      "holiday": "無し",
      "latitude": "35.64677066",
      "longitude": "139.7109583",
      "tel": "03-3444-4912",
      "address": "渋谷区恵比寿1-10-5",
      "access": "JR山手線恵比寿駅徒歩1分"
    },
    {
      "name": "GiGO綱島",
      "operation_time": "",
      "holiday": "",
      "latitude": "35.5364623",
      "longitude": "139.6324113",
      "tel": "045-547-1199",
      "address": "横浜市港北区綱島西2-6-29城田ビル3F",
      "access": ""
    },
    {
      "name": "東京レジャーランド秋葉原店",
      "operation_time": "10:00～25:00",
      "holiday": "無し",
      "latitude": "35.69887947",
      "longitude": "139.7701404",
      "tel": "03-5298-1360",
      "address": "千代田区外神田1-9-5",
      "access": "JR秋葉原駅徒歩5分"
    },
    {
      "name": "東京レジャーランド秋葉原2号店",
      "operation_time": "10:00～25:00",
      "holiday": "無し",
      "latitude": "35.70073433",
      "longitude": "139.7718424",
      "tel": "03-5209-5650",
      "address": "千代田区外神田4-3-3",
      "access": "JR秋葉原駅より徒歩5分"
    },
    {
      "name": "GiGO秋葉原3号館",
      "operation_time": "",
      "holiday": "",
      "latitude": "35.699336",
      "longitude": "139.770908",
      "tel": "03-5297-3601",
      "address": "千代田区外神田1-11-11外神田1丁目ビルディング",
      "access": ""
    },
    {
      "name": "タイトーステーション秋葉原店",
      "operation_time": "10:00～24:00",
      "holiday": "無し",
      "latitude": "35.70025258",
      "longitude": "139.7716985",
      "tel": "03-5289-8445",
      "address": "千代田区外神田4-2-2貴三ビル",
      "access": "JR秋葉原駅電気街口を出て徒歩3分"
    },
    {
      "name": "ゲームパニック秋葉原",
      "operation_time": "",
      "holiday": "",
      "latitude": "35.69891",
      "longitude": "139.77165",
      "tel": "03-6285-2820",
      "address": "千代田区外神田1-13-1第122東京ビル",
      "access": ""
    },
    {
      "name": "ラウンドワン横浜綱島店",
      "operation_time": "",
      "holiday": "",
      "latitude": "35.53198182",
      "longitude": "139.6371126",
      "tel": "045-533-6151",
      "address": "横浜市港北区樽町2-6-40T-PLATZ",
      "access": ""
    },
    {
      "name": "ソユートイズニューヨーク守谷店",
      "operation_time": "9:00～24:00",
      "holiday": "無し",
      "latitude": "35.94486888",
      "longitude": "139.991201",
      "tel": "0297-47-1685",
      "address": "守谷市百合ケ丘3-249-1イオンタウン守谷2F",
      "access": ""
    },
    {
      "name": "ユーズランド水戸内原店",
      "operation_time": "10:00～21:00",
      "holiday": "",
      "latitude": "36.374428",
      "longitude": "140.3590138",
      "tel": "029-259-1218",
      "address": "水戸市内原2-1イオンモール水戸内原2F",
      "access": ""
    },
    {
      "name": "東京レジャーランド亀有店",
      "operation_time": "",
      "holiday": "",
      "latitude": "35.765462",
      "longitude": "139.84798",
      "tel": "03-5680-8893",
      "address": "葛飾区亀有3-21-2",
      "access": ""
    },
    {
      "name": "GiGOデイズタウンつくば",
      "operation_time": "10:00～24:00",
      "holiday": "無休",
      "latitude": "36.07768145",
      "longitude": "140.1153322",
      "tel": "070-1459-0875",
      "address": "つくば市竹園1-9-2デイズタウンつくばB1F",
      "access": "つくば駅徒歩5分デイズタウンつくばB1F"
    },
    {
      "name": "スーパーウェーブ柏店",
      "operation_time": "9:00～24:00",
      "holiday": "無し",
      "latitude": "35.88165286",
      "longitude": "139.9615303",
      "tel": "04-7144-8366",
      "address": "柏市十余二249-5MEM内",
      "access": "国道16号線沿い マルハンエンタテインメントモール内"
    },
    {
      "name": "ラウンドワン横浜駅西口店",
      "operation_time": "",
      "holiday": "",
      "latitude": "35.46393717",
      "longitude": "139.6180549",
      "tel": "045-412-0880",
      "address": "横浜市西区南幸2-8-16",
      "access": ""
    },
    {
      "name": "タイトーステーション横浜西口五番街店",
      "operation_time": "平日10:00～23:50 土日祝日9:00～23:50",
      "holiday": "無し",
      "latitude": "35.464648",
      "longitude": "139.619593",
      "tel": "045-411-5288",
      "address": "横浜市西区南幸1-12-9",
      "access": "JR・相鉄線・東横線・みなとみらい線 横浜駅より徒歩3分"
    },
    {
      "name": "タイトーFステーションオリナス錦糸町店",
      "operation_time": "10:00～23:45",
      "holiday": "無し",
      "latitude": "35.700721",
      "longitude": "139.816024",
      "tel": "03-5610-7376",
      "address": "墨田区太平4-1-2オリナスB1F",
      "access": "JR総武線錦糸町駅北口から徒歩5分"
    },
    {
      "name": "シルクハット大船",
      "operation_time": "9:00～23:45",
      "holiday": "無し",
      "latitude": "35.35325232",
      "longitude": "139.5325488",
      "tel": "",
      "address": "鎌倉市大船1-24大船駅前ビル1-3F",
      "access": "JR大船駅徒歩1分"
    },
    {
      "name": "タイトーステーション錦糸町楽天地店",
      "operation_time": "10:00～24:00",
      "holiday": "無し",
      "latitude": "35.696456",
      "longitude": "139.815836",
      "tel": "03-5638-0701",
      "address": "墨田区江東橋4-27-14楽天地ビルB1F",
      "access": "東京メトロ半蔵門線・錦糸町駅2番出口直通!東京楽天地ビル地下1階"
    },
    {
      "name": "GiGO大森",
      "operation_time": "",
      "holiday": "",
      "latitude": "35.590043",
      "longitude": "139.72823",
      "tel": "03-5709-0669",
      "address": "大田区山王2-1-5大森駅ララビル2F",
      "access": ""
    },
    {
      "name": "シルクハット蒲田西口",
      "operation_time": "10:00～24:45",
      "holiday": "",
      "latitude": "35.56301591",
      "longitude": "139.7158447",
      "tel": "",
      "address": "大田区西蒲田7-2-3第二醍醐ビルB1-2F",
      "access": ""
    },
    {
      "name": "namco松戸店",
      "operation_time": "",
      "holiday": "",
      "latitude": "35.783581",
      "longitude": "139.900789",
      "tel": "047-711-7274",
      "address": "松戸市松戸1230-1ピアザ松戸1F",
      "access": ""
    },
    {
      "name": "ソユーゲームフィールド上大岡店",
      "operation_time": "",
      "holiday": "",
      "latitude": "35.40778331",
      "longitude": "139.5952976",
      "tel": "045-846-5281",
      "address": "横浜市港南区上大岡西1-18-3ミオカリスト館6F",
      "access": ""
    },
    {
      "name": "ゲームガリバー柏",
      "operation_time": "8:30～23:00",
      "holiday": "無し",
      "latitude": "35.86153036",
      "longitude": "139.970926",
      "tel": "04-7164-9818",
      "address": "柏市柏1-1-11ファミリかしわB1F",
      "access": "JR柏駅東口および南口マルイ地下1階"
    },
    {
      "name": "ラウンドワンダイバーシティ東京プラザ店",
      "operation_time": "",
      "holiday": "",
      "latitude": "35.62521",
      "longitude": "139.775732",
      "tel": "03-3527-8491",
      "address": "江東区青海1-1-10ダイバーシティ東京6F-6100",
      "access": ""
    },
    {
      "name": "シルクハット川崎ダイス",
      "operation_time": "9:00～24:45",
      "holiday": "無し",
      "latitude": "35.5314121",
      "longitude": "139.7002166",
      "tel": "",
      "address": "川崎市川崎区駅前本町8ダイスビルB2F",
      "access": "JR川崎駅アゼリア地下街と直結、京急川崎駅中央口徒歩1分"
    },
    {
      "name": "ソユーゲームフィールドいわき小名浜店",
      "operation_time": "",
      "holiday": "",
      "latitude": "36.94656144",
      "longitude": "140.9056129",
      "tel": "0246-73-1001",
      "address": "いわき市小名浜字辰巳町79イオンモールいわき小名浜3F",
      "access": ""
    },
    {
      "name": "ラウンドワン南砂店",
      "operation_time": "",
      "holiday": "",
      "latitude": "35.67184786",
      "longitude": "139.8361845",
      "tel": "03-5617-6911",
      "address": "江東区南砂6-7-15トピレックプラザ4F",
      "access": ""
    },
    {
      "name": "GiGO八柱",
      "operation_time": "",
      "holiday": "",
      "latitude": "35.79133049",
      "longitude": "139.937777",
      "tel": "047-392-4661",
      "address": "松戸市日暮1-1-1八柱駅第2ビル2F",
      "access": ""
    },
    {
      "name": "ラウンドワン川崎大師店",
      "operation_time": "",
      "holiday": "",
      "latitude": "35.53846653",
      "longitude": "139.741634",
      "tel": "044-270-1541",
      "address": "川崎市川崎区殿町1-5-1",
      "access": ""
    },
    {
      "name": "GiGO船堀",
      "operation_time": "",
      "holiday": "",
      "latitude": "35.68469819",
      "longitude": "139.8639374",
      "tel": "03-5676-2522",
      "address": "江戸川区船堀1-6-11",
      "access": ""
    },
    {
      "name": "GiGO新杉田",
      "operation_time": "",
      "holiday": "",
      "latitude": "35.38563947",
      "longitude": "139.6189989",
      "tel": "045-772-8230",
      "address": "横浜市磯子区杉田1-1-1らびすた新杉田2F",
      "access": ""
    },
    {
      "name": "ゲームパニックつくば",
      "operation_time": "",
      "holiday": "",
      "latitude": "36.04632758",
      "longitude": "140.1679958",
      "tel": "080-3350-1839",
      "address": "土浦市中村東1-1-1",
      "access": ""
    },
    {
      "name": "GiGO石岡",
      "operation_time": "",
      "holiday": "",
      "latitude": "36.198702",
      "longitude": "140.303303",
      "tel": "0299-26-8336",
      "address": "石岡市東大橋中峯1976-1",
      "access": ""
    },
    {
      "name": "GiGO水戸南",
      "operation_time": "",
      "holiday": "",
      "latitude": "36.350325",
      "longitude": "140.443003",
      "tel": "029-244-1045",
      "address": "水戸市千波町2017-1",
      "access": ""
    },
    {
      "name": "ラウンドワンアリオ柏店",
      "operation_time": "",
      "holiday": "",
      "latitude": "35.832403",
      "longitude": "140.012023",
      "tel": "04-7190-1201",
      "address": "柏市大島田1-6-1セブンパークアリオ柏 1070",
      "access": ""
    },
    {
      "name": "GiGO水戸",
      "operation_time": "",
      "holiday": "",
      "latitude": "36.369467",
      "longitude": "140.474532",
      "tel": "029-231-1002",
      "address": "水戸市宮町1-7-44コムボックス310 3F",
      "access": ""
    },
    {
      "name": "ゲームメガ日立店",
      "operation_time": "10:00～24:00",
      "holiday": "無し",
      "latitude": "36.54818909",
      "longitude": "140.6305166",
      "tel": "0294-32-1983",
      "address": "日立市東多賀町5-10-10",
      "access": "常陸多賀駅徒歩5分"
    },
    {
      "name": "ラウンドワン市川鬼高店",
      "operation_time": "",
      "holiday": "",
      "latitude": "35.711239",
      "longitude": "139.927465",
      "tel": "047-320-3801",
      "address": "市川市鬼高4-1-3",
      "access": ""
    },
    {
      "name": "ゲームプラザセントラル浦安店",
      "operation_time": "10:00～24:00",
      "holiday": "無し",
      "latitude": "35.66516962",
      "longitude": "139.8933569",
      "tel": "0473-55-2447",
      "address": "浦安市北栄1-16-15",
      "access": "地下鉄東西線浦安駅前"
    },
    {
      "name": "タイトーFステーション市川妙典店",
      "operation_time": "施設の営業時間に準じる",
      "holiday": "施設の営業日に準じる",
      "latitude": "35.69246485",
      "longitude": "139.9267286",
      "tel": "047-318-3933",
      "address": "市川市妙典4-1-1イオン市川妙典店2番街2F",
      "access": ""
    },
    {
      "name": "アドアーズ船橋店",
      "operation_time": "10:00～23:45",
      "holiday": "",
      "latitude": "35.700449",
      "longitude": "139.984231",
      "tel": "047-411-3337",
      "address": "船橋市本町1-31-26セブン船橋B1-3F",
      "access": ""
    },
    {
      "name": "アミューズメントエース津田沼",
      "operation_time": "9:00～24:00",
      "holiday": "無し",
      "latitude": "35.69228053",
      "longitude": "140.0201572",
      "tel": "047-475-8918",
      "address": "船橋市前原西2-15-1ファミービル1-3F",
      "access": "JR「津田沼駅」下車北口より徒歩1分"
    },
    {
      "name": "シルクハット津田沼",
      "operation_time": "9:00～23:45",
      "holiday": "無し",
      "latitude": "35.69040687",
      "longitude": "140.0221583",
      "tel": "",
      "address": "習志野市津田沼1-2-1十三ビルB1F",
      "access": "JR津田沼駅、京成新津田沼駅徒歩1分"
    },
    {
      "name": "GiGOひたちなか",
      "operation_time": "",
      "holiday": "",
      "latitude": "36.34756197",
      "longitude": "140.5803556",
      "tel": "070-1449-2941",
      "address": "ひたちなか市田中後40-11",
      "access": ""
    },
    {
      "name": "ラウンドワン習志野店",
      "operation_time": "",
      "holiday": "",
      "latitude": "35.660295",
      "longitude": "140.022576",
      "tel": "047-408-1901",
      "address": "習志野市芝園1-4-5",
      "access": ""
    },
    {
      "name": "アピナ印西店",
      "operation_time": "",
      "holiday": "",
      "latitude": "35.803009",
      "longitude": "140.162496",
      "tel": "0476-48-5841",
      "address": "印西市原1-2ビッグホップガーデンモール印西2F",
      "access": ""
    },
    {
      "name": "GiGO幕張",
      "operation_time": "",
      "holiday": "",
      "latitude": "35.65022338",
      "longitude": "140.0425216",
      "tel": "043-273-5261",
      "address": "千葉市美浜区ひび野1-8メッセアミューズモール1F",
      "access": ""
    },
    {
      "name": "スポーツウェーブ鉄腕24稲毛長沼店",
      "operation_time": "一部24時間営業",
      "holiday": "無し",
      "latitude": "35.66179317",
      "longitude": "140.1264239",
      "tel": "043-215-5560",
      "address": "千葉市稲毛区長沼原町697",
      "access": "東関東自動車道 千葉北ICから約5分 千葉総合運動場そば"
    },
    {
      "name": "ラッキー中央店(フェリシダ)",
      "operation_time": "9:00～24:50",
      "holiday": "無し",
      "latitude": "35.61028144",
      "longitude": "140.1182438",
      "tel": "043-222-5610",
      "address": "千葉市中央区富士見2-8-1",
      "access": "JR千葉駅より徒歩5分"
    },
    {
      "name": "ラウンドワン市原店",
      "operation_time": "",
      "holiday": "",
      "latitude": "35.54749256",
      "longitude": "140.1233239",
      "tel": "0436-44-8801",
      "address": "市原市八幡北町3-5-1",
      "access": ""
    },
    {
      "name": "フリスポ佐原",
      "operation_time": "",
      "holiday": "",
      "latitude": "35.90115035",
      "longitude": "140.493442",
      "tel": "0478-54-6160",
      "address": "香取市佐原イ-4200",
      "access": ""
    },
    {
      "name": "GiGOショッピングセンターチェリオ鹿嶋",
      "operation_time": "10:00～22:00",
      "holiday": "無し",
      "latitude": "35.95961418",
      "longitude": "140.6439708",
      "tel": "080-4831-9114",
      "address": "鹿嶋市宮中290-1ショッピングセンターチェリオ1F",
      "access": "鹿嶋市 ショッピングセンターチェリオ 1F"
    },
    {
      "name": "GiGO神栖",
      "operation_time": "10:00～24:00",
      "holiday": "無し",
      "latitude": "35.89792811",
      "longitude": "140.6444633",
      "tel": "070-1458-2514",
      "address": "神栖市神栖1-8-1",
      "access": "東関東自動車道:潮来I.Cから約10分"
    },
    {
      "name": "千葉レジャーランド成東店",
      "operation_time": "一部24時間営業",
      "holiday": "無し",
      "latitude": "35.58828462",
      "longitude": "140.3904243",
      "tel": "047-580-1777",
      "address": "山武市姫島111-1",
      "access": "国道126号線成東町姫島地内ローソン奥"
    }
  ],
  "count": 388,
  "source": "https://p.eagate.573.jp/game/facility/search/p/list.html",
  "timestamp": "2026-01-01T01:12:28.747777",
  "description": "KONAMI e-amusement店舗検索から取得した全店舗データ"
}