[
  {
    "name": "楽市楽座福重店",
    "operation_time": "10:00～24:00",
    "holiday": "無し",
    "latitude": "33.56889775",
    "longitude": "130.3136834",
    "tel": "092-885-7380",
    "address": "福岡市西区石丸4-263-1",
    "access": "202号線沿い拾六町IC、石丸ICそば",
    "games": [
      "アニマロッタ 夢のアニマランド"
    ]
  },
  {
    "name": "ふぁんたじーらんどてくもぴあ阿知須店",
    "operation_time": "",
    "holiday": "",
    "latitude": "34.00906338",
    "longitude": "131.3515301",
    "tel": "0836-43-9939",
    "address": "山口市阿知須4825-1サンパークあじす2F",
    "access": "",
    "games": [
      "アニマロッタ 夢のアニマランド"
    ]
  },
  {
    "name": "大垣メトロポリス",
    "operation_time": "10:00～24:00",
    "holiday": "無し",
    "latitude": "35.36694278",
    "longitude": "136.6291725",
    "tel": "0584-75-5734",
    "address": "大垣市三塚町字西沼523-1",
    "access": "",
    "games": [
      "アニマロッタ 夢のアニマランド"
    ]
  },
  {
    "name": "中川メトロポリス",
    "operation_time": "平日10:00～24:00、土日祝日9:00～24:00",
    "holiday": "無し",
    "latitude": "35.12530557",
    "longitude": "136.8238359",
    "tel": "052-303-9701",
    "address": "名古屋市中川区江松3-110",
    "access": "国道1号線三日月橋西詰・江松交差点角",
    "games": [
      "アニマロッタ 夢のアニマランド"
    ]
  },
  {
    "name": "サープラ島田あそびタウン",
    "operation_time": "10:00-24:00",
    "holiday": "無し",
    "latitude": "34.83815977",
    "longitude": "138.1659736",
    "tel": "0547-34-2556",
    "address": "島田市中溝町2531",
    "access": "藤枝バイパス旗指IC5分TSUTAYA2F",
    "games": [
      "アニマロッタ 夢のアニマランド"
    ]
  },
  {
    "name": "サープラ沼津あそびタウン",
    "operation_time": "10:00～24:00",
    "holiday": "無し",
    "latitude": "35.10266451",
    "longitude": "138.8598883",
    "tel": "055-926-7739",
    "address": "沼津市大手町1-1-5",
    "access": "JR沼津駅徒歩5分",
    "games": [
      "アニマロッタ 夢のアニマランド"
    ]
  },
  {
    "name": "サープラ八潮あそびタウン",
    "operation_time": "9:00～24:00",
    "holiday": "無し",
    "latitude": "35.80837561",
    "longitude": "139.8437875",
    "tel": "048-994-5377",
    "address": "八潮市大瀬1-1-3フレスポ八潮3F",
    "access": "つくばエクスプレス・八潮駅隣接フレスポ八潮3F",
    "games": [
      "アニマロッタ 夢のアニマランド"
    ]
  }
]