[
  {
    "name": "サープラ国分あそびタウン",
    "operation_time": "9:00～24:00",
    "holiday": "無し",
    "latitude": "31.72203434",
    "longitude": "130.756017",
    "tel": "0995-48-6789",
    "address": "霧島市国分広瀬2-4-1",
    "access": "",
    "games": [
      "アニマロッタ アニマと雲の大樹"
    ]
  },
  {
    "name": "アミューズメントCUE大和高田",
    "operation_time": "10:00～24:00",
    "holiday": "無し",
    "latitude": "34.49978101",
    "longitude": "135.7354379",
    "tel": "0745-25-3335",
    "address": "大和高田市東中2-11-16",
    "access": "国道166号線東宝交差点そば",
    "games": [
      "アニマロッタ アニマと雲の大樹"
    ]
  },
  {
    "name": "名古屋レジャーランド内田橋店",
    "operation_time": "一部24時間営業",
    "holiday": "無し",
    "latitude": "35.1137072",
    "longitude": "136.9098069",
    "tel": "052-694-6051",
    "address": "名古屋市南区内田橋2-26-22",
    "access": "名鉄常滑線豊田本町駅近く",
    "games": [
      "アニマロッタ アニマと雲の大樹"
    ]
  },
  {
    "name": "キャッツアイ八千代店",
    "operation_time": "日～木・祝日:10:00～翌1:00  金・土・祝前日:10:00～翌2:00",
    "holiday": "",
    "latitude": "35.73361854",
    "longitude": "140.0724826",
    "tel": "047-480-0231",
    "address": "八千代市緑が丘西2-13-3ism緑が丘内",
    "access": "",
    "games": [
      "アニマロッタ アニマと雲の大樹"
    ]
  }
]