[
  {
    "name": "アミパラ佐世保店",
    "operation_time": "10:00～24:00",
    "holiday": "無し",
    "latitude": "33.15005741",
    "longitude": "129.7804145",
    "tel": "0956-34-8880",
    "address": "佐世保市大塔町18-15",
    "access": "JR大塔駅徒歩3分",
    "games": [
      "ボンバーガール"
    ]
  },
  {
    "name": "G-STAGE浜町店",
    "operation_time": "",
    "holiday": "",
    "latitude": "32.74478285",
    "longitude": "129.8775841",
    "tel": "095-895-5523",
    "address": "長崎市浜町2-26",
    "access": "",
    "games": [
      "ボンバーガール"
    ]
  },
  {
    "name": "G-STAGE七隈店",
    "operation_time": "10:00～24:00",
    "holiday": "無し",
    "latitude": "33.55178855",
    "longitude": "130.3649354",
    "tel": "092-861-4856",
    "address": "福岡市城南区七隈8-4-8",
    "access": "七隈ファミリープラザ内",
    "games": [
      "ボンバーガール"
    ]
  },
  {
    "name": "タイトーステーション福岡天神店",
    "operation_time": "10:00～翌1:00",
    "holiday": "無し",
    "latitude": "33.5896519",
    "longitude": "130.3962521",
    "tel": "092-737-5500",
    "address": "福岡市中央区天神2-6-35サザンクロスビル",
    "access": "西鉄福岡駅北口より徒歩2分",
    "games": [
      "ボンバーガール"
    ]
  },
  {
    "name": "ラウンドワン福岡天神店",
    "operation_time": "",
    "holiday": "",
    "latitude": "33.58960223",
    "longitude": "130.3968402",
    "tel": "092-720-8101",
    "address": "福岡市中央区天神2-6-12",
    "access": "",
    "games": [
      "ボンバーガール"
    ]
  },
  {
    "name": "楽市街道箱崎店3F",
    "operation_time": "10:00～24:00",
    "holiday": "無し",
    "latitude": "33.62410817",
    "longitude": "130.4195897",
    "tel": "092-642-0761",
    "address": "福岡市東区箱崎5-1-8楽市街道箱崎店内3F",
    "access": "3号線沿い九州大学そば",
    "games": [
      "ボンバーガール"
    ]
  },
  {
    "name": "最後の5$",
    "operation_time": "一部24時間営業",
    "holiday": "無し",
    "latitude": "33.60926671",
    "longitude": "130.4453319",
    "tel": "092-612-8080",
    "address": "糟屋郡粕屋町大字仲原2706",
    "access": "国道3号線博多バイパスを空港口交差点から北へ5分ほど。",
    "games": [
      "ボンバーガール"
    ]
  },
  {
    "name": "ラウンドワン博多半道橋店",
    "operation_time": "",
    "holiday": "",
    "latitude": "33.58394157",
    "longitude": "130.4382666",
    "tel": "092-475-6611",
    "address": "福岡市博多区半道橋2-2-8",
    "access": "",
    "games": [
      "ボンバーガール"
    ]
  },
  {
    "name": "ラウンドワン佐賀店",
    "operation_time": "",
    "holiday": "",
    "latitude": "33.27533631",
    "longitude": "130.3015536",
    "tel": "0952-36-7070",
    "address": "佐賀市兵庫北4-2-1",
    "access": "",
    "games": [
      "ボンバーガール"
    ]
  },
  {
    "name": "ラウンドワン大野城店",
    "operation_time": "",
    "holiday": "",
    "latitude": "33.54646948",
    "longitude": "130.4822214",
    "tel": "092-504-7411",
    "address": "大野城市御笠川1-18-16",
    "access": "",
    "games": [
      "ボンバーガール"
    ]
  },
  {
    "name": "楽市楽座諫早店",
    "operation_time": "10:00～24:00",
    "holiday": "無し",
    "latitude": "32.8336036",
    "longitude": "130.0758921",
    "tel": "0957-21-0031",
    "address": "諫早市長野町1086-17",
    "access": "57号線沿い諫早ICより車で10分",
    "games": [
      "ボンバーガール"
    ]
  },
  {
    "name": "G-STAGE飯塚",
    "operation_time": "10:00～24:00",
    "holiday": "無し",
    "latitude": "33.636493",
    "longitude": "130.676011",
    "tel": "050-3539-3593",
    "address": "飯塚市枝国680-2",
    "access": "",
    "games": [
      "ボンバーガール"
    ]
  },
  {
    "name": "ラウンドワン小倉店",
    "operation_time": "",
    "holiday": "",
    "latitude": "33.89742877",
    "longitude": "130.8598475",
    "tel": "093-562-8805",
    "address": "北九州市小倉北区西港町15-65",
    "access": "",
    "games": [
      "ボンバーガール"
    ]
  },
  {
    "name": "小倉メトロポリス店",
    "operation_time": "平日:10:00～23:50 土日祝前日9:00～23:50",
    "holiday": "無し",
    "latitude": "33.89633237",
    "longitude": "130.8596114",
    "tel": "093-581-5684",
    "address": "北九州市小倉北区西港町27-5",
    "access": "JR小倉駅 車で10分",
    "games": [
      "ボンバーガール"
    ]
  },
  {
    "name": "G-STAGE小倉店",
    "operation_time": "10:00～20:00",
    "holiday": "無し",
    "latitude": "33.88758128",
    "longitude": "130.8847829",
    "tel": "093-551-3133",
    "address": "北九州市小倉北区浅野2-14-5",
    "access": "小倉駅前あるあるシティ2F",
    "games": [
      "ボンバーガール"
    ]
  },
  {
    "name": "楽市楽座210久留米店2F",
    "operation_time": "10:00～24:00",
    "holiday": "無し",
    "latitude": "33.31991448",
    "longitude": "130.546006",
    "tel": "0942-43-8439",
    "address": "久留米市東合川2-2-1-2F",
    "access": "九州自動車道、久留米インターチェンジ近く、国道210号沿い",
    "games": [
      "ボンバーガール"
    ]
  },
  {
    "name": "楽市楽座砂津店",
    "operation_time": "10:00～24:00",
    "holiday": "無し",
    "latitude": "33.88338123",
    "longitude": "130.8887517",
    "tel": "093-531-2236",
    "address": "北九州市小倉北区砂津3-1-1チャチャタウン小倉B棟3F",
    "access": "小倉駅近くチャチャタウン内",
    "games": [
      "ボンバーガール"
    ]
  },
  {
    "name": "パスカワールドグリーンランド",
    "operation_time": "10:00～翌3:00",
    "holiday": "無し",
    "latitude": "32.98790587",
    "longitude": "130.4711246",
    "tel": "0968-69-3001",
    "address": "荒尾市本井手1574-54",
    "access": "三井グリーンランドウルトラマンランド横",
    "games": [
      "ボンバーガール"
    ]
  },
  {
    "name": "楽市楽座行橋店",
    "operation_time": "10:00～24:00",
    "holiday": "",
    "latitude": "33.717125",
    "longitude": "130.971633",
    "tel": "0930-25-3450",
    "address": "行橋市西泉6-1-1コスタ行橋アミューズ棟2F",
    "access": "",
    "games": [
      "ボンバーガール"
    ]
  },
  {
    "name": "カッタの湯宇部店",
    "operation_time": "10:00～24:00",
    "holiday": "無し",
    "latitude": "33.95841927",
    "longitude": "131.2615641",
    "tel": "0836-37-2626",
    "address": "宇部市海南町1675カッタの湯",
    "access": "",
    "games": [
      "ボンバーガール"
    ]
  },
  {
    "name": "ラウンドワン熊本店",
    "operation_time": "",
    "holiday": "",
    "latitude": "32.78499883",
    "longitude": "130.6775647",
    "tel": "096-325-7200",
    "address": "熊本市西区春日7-25-15",
    "access": "",
    "games": [
      "ボンバーガール"
    ]
  },
  {
    "name": "namcoワンダーシティ南熊本店",
    "operation_time": "",
    "holiday": "",
    "latitude": "32.78695703",
    "longitude": "130.7146907",
    "tel": "096-375-1131",
    "address": "熊本市中央区九品寺6-9-1",
    "access": "",
    "games": [
      "ボンバーガール"
    ]
  },
  {
    "name": "タイトーFステーションニシムタ出水",
    "operation_time": "",
    "holiday": "",
    "latitude": "32.106272",
    "longitude": "130.345224",
    "tel": "0996-68-8150",
    "address": "出水市六月田町347",
    "access": "",
    "games": [
      "ボンバーガール"
    ]
  },
  {
    "name": "アミパラ周南久米店",
    "operation_time": "",
    "holiday": "",
    "latitude": "34.03737576",
    "longitude": "131.8441913",
    "tel": "083-436-1234",
    "address": "周南市久米中央5-6-1イオンタウン周南久米内",
    "access": "",
    "games": [
      "ボンバーガール"
    ]
  },
  {
    "name": "ラウンドワン沖縄･宜野湾店",
    "operation_time": "",
    "holiday": "",
    "latitude": "26.27580261",
    "longitude": "127.7310389",
    "tel": "098-870-2110",
    "address": "宜野湾市真志喜3-28-8",
    "access": "",
    "games": [
      "ボンバーガール"
    ]
  },
  {
    "name": "ラウンドワン沖縄･南風原店",
    "operation_time": "",
    "holiday": "",
    "latitude": "26.19509176",
    "longitude": "127.7210653",
    "tel": "098-940-6670",
    "address": "島尻郡南風原町字兼城下茂原552",
    "access": "",
    "games": [
      "ボンバーガール"
    ]
  },
  {
    "name": "ラウンドワン鹿児島宇宿店",
    "operation_time": "",
    "holiday": "",
    "latitude": "31.54388304",
    "longitude": "130.5427759",
    "tel": "099-284-0655",
    "address": "鹿児島市宇宿2-2-2",
    "access": "",
    "games": [
      "ボンバーガール"
    ]
  },
  {
    "name": "アミューズメントスペース遊ランド稚内店",
    "operation_time": "",
    "holiday": "",
    "latitude": "45.40077226",
    "longitude": "141.6807113",
    "tel": "0162-22-2233",
    "address": "稚内市港5-8-15",
    "access": "",
    "games": [
      "ボンバーガール"
    ]
  },
  {
    "name": "タイトーFステーションセントポルタ大分店",
    "operation_time": "",
    "holiday": "",
    "latitude": "33.235334",
    "longitude": "131.606448",
    "tel": "097-533-2716",
    "address": "大分市中央町2-1-1",
    "access": "",
    "games": [
      "ボンバーガール"
    ]
  },
  {
    "name": "GiGOアルパーク北棟",
    "operation_time": "",
    "holiday": "",
    "latitude": "34.37630292",
    "longitude": "132.3950257",
    "tel": "090-9155-1362",
    "address": "広島市西区草津南4-7-1アルパーク北棟2F",
    "access": "",
    "games": [
      "ボンバーガール"
    ]
  },
  {
    "name": "ブラックジャックアクア",
    "operation_time": "10:00～24:00",
    "holiday": "無し",
    "latitude": "34.46868445",
    "longitude": "132.4628776",
    "tel": "082-831-3344",
    "address": "広島市安佐南区大町東4-12-11",
    "access": "アストラムライン 毘沙門台駅 徒歩4分",
    "games": [
      "ボンバーガール"
    ]
  },
  {
    "name": "アミパラ広島店",
    "operation_time": "10:00～24:00",
    "holiday": "無し",
    "latitude": "34.39350431",
    "longitude": "132.4360428",
    "tel": "082-297-7135",
    "address": "広島市西区西観音町3-17",
    "access": "平和大通り沿い、西区区役所から東へすぐ",
    "games": [
      "ボンバーガール"
    ]
  },
  {
    "name": "タイトーステーション広島紙屋町店",
    "operation_time": "平日10:00～24:00 土日祝9:00～24:00",
    "holiday": "無し",
    "latitude": "34.394034",
    "longitude": "132.456154",
    "tel": "082-544-3961",
    "address": "広島市中区紙屋町2-2-21",
    "access": "広島電鉄 紙屋町西電停より徒歩2分",
    "games": [
      "ボンバーガール"
    ]
  },
  {
    "name": "ラウンドワン広島店",
    "operation_time": "",
    "holiday": "",
    "latitude": "34.39365895",
    "longitude": "132.4600423",
    "tel": "082-545-8910",
    "address": "広島市中区立町3-11",
    "access": "",
    "games": [
      "ボンバーガール"
    ]
  },
  {
    "name": "タイトーステーション広島本通店",
    "operation_time": "10:00～24:00",
    "holiday": "無し",
    "latitude": "34.3929912",
    "longitude": "132.4599026",
    "tel": "082-541-6345",
    "address": "広島市中区本通3-5せらかぐ本通ビル",
    "access": "広島電鉄・立町駅より徒歩5分",
    "games": [
      "ボンバーガール"
    ]
  },
  {
    "name": "アミパラがいな店",
    "operation_time": "10:00 ～ 24:00",
    "holiday": "無し",
    "latitude": "35.43797411",
    "longitude": "133.3392651",
    "tel": "0859-39-1800",
    "address": "米子市日ノ出町1-8-13",
    "access": "米子しんまち天満屋から南西へ300m",
    "games": [
      "ボンバーガール"
    ]
  },
  {
    "name": "ビリヤードG'z",
    "operation_time": "",
    "holiday": "",
    "latitude": "31.725703",
    "longitude": "131.05961",
    "tel": "0986-24-2344",
    "address": "都城市牟田町4-2",
    "access": "",
    "games": [
      "ボンバーガール"
    ]
  },
  {
    "name": "アミパラここじゃ店",
    "operation_time": "10:00～24:00",
    "holiday": "無し",
    "latitude": "34.40752689",
    "longitude": "132.7155261",
    "tel": "082-424-4747",
    "address": "東広島市西条町下見6-10-19山手電気内",
    "access": "広島大学前の交差点より西へすぐ。山手電気内",
    "games": [
      "ボンバーガール"
    ]
  },
  {
    "name": "GiGO広",
    "operation_time": "10:00～24:00",
    "holiday": "無し",
    "latitude": "34.22860722",
    "longitude": "132.6293589",
    "tel": "070-1459-4743",
    "address": "呉市広中町1-9フタバ図書TSUTAYA広店2F",
    "access": "呉線広駅前下車すぐ185号線沿いフタバ図書内",
    "games": [
      "ボンバーガール"
    ]
  },
  {
    "name": "ラウンドワン宮崎店",
    "operation_time": "",
    "holiday": "",
    "latitude": "31.89458335",
    "longitude": "131.4170876",
    "tel": "0985-63-1210",
    "address": "宮崎市中村東3-4-60",
    "access": "",
    "games": [
      "ボンバーガール"
    ]
  },
  {
    "name": "ラウンドワン松山店",
    "operation_time": "",
    "holiday": "",
    "latitude": "33.8664873",
    "longitude": "132.751593",
    "tel": "089-911-5511",
    "address": "松山市東長戸1-3-10",
    "access": "",
    "games": [
      "ボンバーガール"
    ]
  },
  {
    "name": "プレイドーム松山",
    "operation_time": "",
    "holiday": "無し",
    "latitude": "33.80938654",
    "longitude": "132.7280805",
    "tel": "089-972-3000",
    "address": "松山市余戸南4-9-40",
    "access": "伊予鉄鎌田駅より徒歩2分",
    "games": [
      "ボンバーガール"
    ]
  },
  {
    "name": "アミューズメントパークMGキスケ店",
    "operation_time": "",
    "holiday": "無し",
    "latitude": "33.84135404",
    "longitude": "132.753158",
    "tel": "089-933-2737",
    "address": "松山市宮田町4キスケボール1F内ゲームコーナー",
    "access": "JR松山駅より徒歩3分",
    "games": [
      "ボンバーガール"
    ]
  },
  {
    "name": "スーパーヒーロー倉吉",
    "operation_time": "10:00～翌3:00/土・休前日/10:00～翌5:00",
    "holiday": "無し",
    "latitude": "35.43833291",
    "longitude": "133.8393183",
    "tel": "0858-23-5255",
    "address": "倉吉市見日町633",
    "access": "バス・西倉吉方面行き/厚生病院前下車徒歩3分",
    "games": [
      "ボンバーガール"
    ]
  },
  {
    "name": "アミューズメントパークMGジアス店",
    "operation_time": "",
    "holiday": "無し",
    "latitude": "34.44068975",
    "longitude": "133.2607402",
    "tel": "084-939-7733",
    "address": "福山市柳津町1-7-60",
    "access": "",
    "games": [
      "ボンバーガール"
    ]
  },
  {
    "name": "ラウンドワン福山店",
    "operation_time": "",
    "holiday": "",
    "latitude": "34.489155",
    "longitude": "133.3925782",
    "tel": "084-973-9891",
    "address": "福山市明神町1-9-28",
    "access": "",
    "games": [
      "ボンバーガール"
    ]
  },
  {
    "name": "アミューズメントパークMG東予店",
    "operation_time": "",
    "holiday": "",
    "latitude": "33.9205621",
    "longitude": "133.0775644",
    "tel": "0898-35-3222",
    "address": "西条市周布715-1フジ東予店 別棟",
    "access": "",
    "games": [
      "ボンバーガール"
    ]
  },
  {
    "name": "ファンタジスタ",
    "operation_time": "12:00～24:00",
    "holiday": "店舗にお問合わせください",
    "latitude": "34.5583269",
    "longitude": "133.6767549",
    "tel": "086-526-0438",
    "address": "倉敷市新倉敷駅前5-194",
    "access": "JR西日本山陽本線「新倉敷」駅から南西に徒歩10分",
    "games": [
      "ボンバーガール"
    ]
  },
  {
    "name": "ユーズランド倉敷店",
    "operation_time": "10:00～21:00",
    "holiday": "無し",
    "latitude": "34.60290341",
    "longitude": "133.7454258",
    "tel": "086-430-5234",
    "address": "倉敷市水江1イオン倉敷ショッピングセンター2F",
    "access": "イオン倉敷SC2F倉敷駅北口1番乗場よりバスで10分山陽自動車道倉敷ICより約7分",
    "games": [
      "ボンバーガール"
    ]
  },
  {
    "name": "ドライブイン古城",
    "operation_time": "7:00～24:00",
    "holiday": "無し",
    "latitude": "34.55139486",
    "longitude": "133.7675318",
    "tel": "086-455-5190",
    "address": "倉敷市福田町福田2111-1",
    "access": "早島ICより車で20分",
    "games": [
      "ボンバーガール"
    ]
  },
  {
    "name": "ラウンドワン岡山妹尾店",
    "operation_time": "",
    "holiday": "",
    "latitude": "34.62318926",
    "longitude": "133.8694608",
    "tel": "086-282-8851",
    "address": "岡山市南区妹尾3413-1",
    "access": "",
    "games": [
      "ボンバーガール"
    ]
  },
  {
    "name": "アミパラテクノランド店",
    "operation_time": "10:00～24:00",
    "holiday": "",
    "latitude": "34.679221",
    "longitude": "133.927419",
    "tel": "086-225-3377",
    "address": "岡山市北区大和町1-7-12",
    "access": "法界院駅から徒歩10分",
    "games": [
      "ボンバーガール"
    ]
  },
  {
    "name": "アミューズメントパークMG伊予三島店",
    "operation_time": "",
    "holiday": "",
    "latitude": "33.97450223",
    "longitude": "133.5286622",
    "tel": "0896-72-7177",
    "address": "四国中央市中之庄町汐汲道75-1",
    "access": "",
    "games": [
      "ボンバーガール"
    ]
  },
  {
    "name": "マックスプラザ善通寺",
    "operation_time": "",
    "holiday": "",
    "latitude": "34.24362494",
    "longitude": "133.7639965",
    "tel": "0877-63-4333",
    "address": "善通寺市中村町1798-2",
    "access": "",
    "games": [
      "ボンバーガール"
    ]
  },
  {
    "name": "ラウンドワン札幌北21条店",
    "operation_time": "",
    "holiday": "",
    "latitude": "43.08681907",
    "longitude": "141.3495671",
    "tel": "011-733-8801",
    "address": "札幌市東区北21条東1-1-21",
    "access": "",
    "games": [
      "ボンバーガール"
    ]
  },
  {
    "name": "GiGO札幌駅西口",
    "operation_time": "",
    "holiday": "",
    "latitude": "43.06749301",
    "longitude": "141.3465097",
    "tel": "080-7173-6552",
    "address": "札幌市北区北6条西6-1-1WEST6",
    "access": "",
    "games": [
      "ボンバーガール"
    ]
  },
  {
    "name": "ゲームえの木",
    "operation_time": "10:00～24:00",
    "holiday": "無し",
    "latitude": "33.55611724",
    "longitude": "133.5064153",
    "tel": "088-825-3293",
    "address": "高知市旭町3-104",
    "access": "土佐電旭日町3丁目電停徒歩1分",
    "games": [
      "ボンバーガール"
    ]
  },
  {
    "name": "ラウンドワン札幌すすきの店",
    "operation_time": "",
    "holiday": "",
    "latitude": "43.05431311",
    "longitude": "141.3540587",
    "tel": "011-520-1022",
    "address": "札幌市中央区南五条西3-6-1札幌東宝公楽ビル",
    "access": "",
    "games": [
      "ボンバーガール"
    ]
  },
  {
    "name": "ラウンドワン高松店",
    "operation_time": "",
    "holiday": "",
    "latitude": "34.33898638",
    "longitude": "134.0669994",
    "tel": "087-812-6115",
    "address": "高松市松島町2-7-43",
    "access": "",
    "games": [
      "ボンバーガール"
    ]
  },
  {
    "name": "ラウンドワン高知店",
    "operation_time": "",
    "holiday": "",
    "latitude": "33.55793713",
    "longitude": "133.554676",
    "tel": "088-804-3070",
    "address": "高知市南宝永町4-12",
    "access": "",
    "games": [
      "ボンバーガール"
    ]
  },
  {
    "name": "ラウンドワン札幌白石本通店",
    "operation_time": "",
    "holiday": "",
    "latitude": "43.03673108",
    "longitude": "141.4328227",
    "tel": "011-865-8051",
    "address": "札幌市白石区本通-16-北1-50",
    "access": "",
    "games": [
      "ボンバーガール"
    ]
  },
  {
    "name": "アミパラ高知店",
    "operation_time": "10:00～24:00",
    "holiday": "無し",
    "latitude": "33.56792315",
    "longitude": "133.6344447",
    "tel": "088-863-4343",
    "address": "南国市篠原194-1",
    "access": "南国ICを降りて南に突き当たり、東へ1km",
    "games": [
      "ボンバーガール"
    ]
  },
  {
    "name": "ラウンドワン旭川店",
    "operation_time": "",
    "holiday": "",
    "latitude": "43.78651521",
    "longitude": "142.397308",
    "tel": "0166-49-5071",
    "address": "旭川市永山3条1-4-7",
    "access": "",
    "games": [
      "ボンバーガール"
    ]
  },
  {
    "name": "ゲームアイビス太子店",
    "operation_time": "10:00～24:00",
    "holiday": "無し",
    "latitude": "34.83203126",
    "longitude": "134.6001053",
    "tel": "0792-77-2320",
    "address": "揖保郡太子町太田2148-1",
    "access": "姫路バイパス太子ランプより相生方面へ車で5分",
    "games": [
      "ボンバーガール"
    ]
  },
  {
    "name": "ラウンドワン姫路飾磨店",
    "operation_time": "",
    "holiday": "",
    "latitude": "34.79228629",
    "longitude": "134.6871127",
    "tel": "079-243-1830",
    "address": "姫路市飾磨区中島1-254",
    "access": "",
    "games": [
      "ボンバーガール"
    ]
  },
  {
    "name": "タイトーステーション千歳店",
    "operation_time": "10:00-24:00",
    "holiday": "無し",
    "latitude": "42.833396",
    "longitude": "141.6439587",
    "tel": "0123-42-4195",
    "address": "千歳市北栄2-12-5",
    "access": "千歳駅から札幌方面に徒歩10分",
    "games": [
      "ボンバーガール"
    ]
  },
  {
    "name": "あそVIVA本店",
    "operation_time": "9:00～24:00",
    "holiday": "無し",
    "latitude": "35.28971907",
    "longitude": "135.1348229",
    "tel": "0773-25-5055",
    "address": "福知山市字堀小字上高田2146-1あそVIVA1F",
    "access": "",
    "games": [
      "ボンバーガール"
    ]
  },
  {
    "name": "ラウンドワン函館店",
    "operation_time": "",
    "holiday": "",
    "latitude": "41.82459206",
    "longitude": "140.7173548",
    "tel": "0138-49-8401",
    "address": "函館市西桔梗町848-11",
    "access": "",
    "games": [
      "ボンバーガール"
    ]
  },
  {
    "name": "ラウンドワン加古川店",
    "operation_time": "",
    "holiday": "",
    "latitude": "34.74708002",
    "longitude": "134.836935",
    "tel": "0794-29-2513",
    "address": "加古川市尾上町安田字小河原325番6号",
    "access": "",
    "games": [
      "ボンバーガール"
    ]
  },
  {
    "name": "ホムスタ玉津店",
    "operation_time": "10:00～24:00",
    "holiday": "無し",
    "latitude": "34.67922481",
    "longitude": "134.9831791",
    "tel": "078-920-3337",
    "address": "神戸市西区丸塚2-9-18メガパレス2F",
    "access": "第二神名玉津IC下車車5分",
    "games": [
      "ボンバーガール"
    ]
  },
  {
    "name": "ラウンドワン徳島･万代店",
    "operation_time": "",
    "holiday": "",
    "latitude": "34.064828",
    "longitude": "134.564699",
    "tel": "088-612-0025",
    "address": "徳島市万代町4-19-1",
    "access": "",
    "games": [
      "ボンバーガール"
    ]
  },
  {
    "name": "アルゴ",
    "operation_time": "11:15～23:30",
    "holiday": "無し",
    "latitude": "34.69392181",
    "longitude": "135.1914556",
    "tel": "078-334-3031",
    "address": "神戸市中央区下山手通1-1-8",
    "access": "JR三ノ宮駅下車徒歩5分生田神社前",
    "games": [
      "ボンバーガール"
    ]
  },
  {
    "name": "GiGO三宮北口",
    "operation_time": "",
    "holiday": "",
    "latitude": "34.69312229",
    "longitude": "135.192177",
    "tel": "070-6949-3872",
    "address": "神戸市中央区北長狭通1-8-1コスモビルB1F-2F",
    "access": "",
    "games": [
      "ボンバーガール"
    ]
  },
  {
    "name": "遊･スペース マジカル",
    "operation_time": "9:00～24:00",
    "holiday": "無し",
    "latitude": "34.69551577",
    "longitude": "135.1950261",
    "tel": "078-414-8844",
    "address": "神戸市中央区琴ノ緒町5-2-3協律三宮センタービル3F",
    "access": "JR三ノ宮駅下車徒歩5分",
    "games": [
      "ボンバーガール"
    ]
  },
  {
    "name": "ラウンドワン三宮駅前店",
    "operation_time": "",
    "holiday": "",
    "latitude": "34.69403073",
    "longitude": "135.1973402",
    "tel": "078-252-7200",
    "address": "神戸市中央区小野柄通り6-1-17",
    "access": "",
    "games": [
      "ボンバーガール"
    ]
  },
  {
    "name": "バイパスレジャーランド加賀店",
    "operation_time": "一部24時間営業",
    "holiday": "無し",
    "latitude": "36.32515503",
    "longitude": "136.4113746",
    "tel": "0761-74-8007",
    "address": "加賀市箱宮町ヲ1-1",
    "access": "国道8号線加賀産業道路終点近く",
    "games": [
      "ボンバーガール"
    ]
  },
  {
    "name": "バイパスレジャーランド藤江新館",
    "operation_time": "",
    "holiday": "",
    "latitude": "36.58375651",
    "longitude": "136.6206642",
    "tel": "076-268-7518",
    "address": "金沢市藤江南2-105",
    "access": "",
    "games": [
      "ボンバーガール"
    ]
  },
  {
    "name": "バイパスレジャーランド藤江本館",
    "operation_time": "一部24時間営業",
    "holiday": "無し",
    "latitude": "36.58397239",
    "longitude": "136.621523",
    "tel": "076-268-3798",
    "address": "金沢市藤江南2-41",
    "access": "国道8号線沿い藤江交差点近く",
    "games": [
      "ボンバーガール"
    ]
  },
  {
    "name": "フクイレジャーランドワイプラザ店",
    "operation_time": "一部24時間営業",
    "holiday": "無し",
    "latitude": "36.08750805",
    "longitude": "136.2494211",
    "tel": "0776-57-0433",
    "address": "福井市新保北1-303ヤスサキワイプラザB棟2F",
    "access": "国道8号線沿い福井市内新保交差点近くワイプラザ内",
    "games": [
      "ボンバーガール"
    ]
  },
  {
    "name": "福井レジャーランド板垣店",
    "operation_time": "",
    "holiday": "",
    "latitude": "36.042283",
    "longitude": "136.233748",
    "tel": "0776-33-5510",
    "address": "福井市下馬3-112",
    "access": "",
    "games": [
      "ボンバーガール"
    ]
  },
  {
    "name": "ラウンドワン金沢店",
    "operation_time": "",
    "holiday": "",
    "latitude": "36.54211559",
    "longitude": "136.626054",
    "tel": "076-245-1850",
    "address": "金沢市横川6-120-1",
    "access": "",
    "games": [
      "ボンバーガール"
    ]
  },
  {
    "name": "タイトーステーション金沢店",
    "operation_time": "10:00～24:00 金・土・祝前日10:00～翌1:00",
    "holiday": "無し",
    "latitude": "36.561336",
    "longitude": "136.652994",
    "tel": "0762-65-5316",
    "address": "金沢市片町2-1-7宇都宮片町ビル1F",
    "access": "香林坊バス停より徒歩1分",
    "games": [
      "ボンバーガール"
    ]
  },
  {
    "name": "ラウンドワン伊丹店",
    "operation_time": "",
    "holiday": "",
    "latitude": "34.77891327",
    "longitude": "135.3932572",
    "tel": "0727-75-4150",
    "address": "伊丹市昆陽7-29",
    "access": "",
    "games": [
      "ボンバーガール"
    ]
  },
  {
    "name": "ジョイランド敦賀店",
    "operation_time": "10:00～24:00",
    "holiday": "無し",
    "latitude": "35.64473762",
    "longitude": "136.0430148",
    "tel": "0770-37-1616",
    "address": "敦賀市木崎40-土三田12USAアリーナ内",
    "access": "",
    "games": [
      "ボンバーガール"
    ]
  },
  {
    "name": "ユーズランド和歌山店",
    "operation_time": "10:00～21:00",
    "holiday": "",
    "latitude": "34.275743",
    "longitude": "135.149066",
    "tel": "073-452-1668",
    "address": "和歌山市ふじと台23イオンモール和歌山2F",
    "access": "",
    "games": [
      "ボンバーガール"
    ]
  },
  {
    "name": "あそVIVA阪急茨木店",
    "operation_time": "",
    "holiday": "",
    "latitude": "34.817929",
    "longitude": "135.576325",
    "tel": "072-631-6606",
    "address": "茨木市永代町6-2スポーツプラザ茨木2F",
    "access": "",
    "games": [
      "ボンバーガール"
    ]
  },
  {
    "name": "namco梅田店",
    "operation_time": "",
    "holiday": "",
    "latitude": "34.70278573",
    "longitude": "135.5003716",
    "tel": "06-6313-0778",
    "address": "大阪市北区小松原町3-3OSビル2F",
    "access": "",
    "games": [
      "ボンバーガール"
    ]
  },
  {
    "name": "ラウンドワン梅田店",
    "operation_time": "",
    "holiday": "",
    "latitude": "34.70337769",
    "longitude": "135.5009178",
    "tel": "06-6312-6800",
    "address": "大阪市北区小松原町4-16",
    "access": "",
    "games": [
      "ボンバーガール"
    ]
  },
  {
    "name": "アミューズメントCUE京都円町店",
    "operation_time": "",
    "holiday": "",
    "latitude": "35.01880055",
    "longitude": "135.7309726",
    "tel": "075-462-9316",
    "address": "京都市中京区西ノ京西円町40",
    "access": "",
    "games": [
      "ボンバーガール"
    ]
  },
  {
    "name": "ユーズランド高岡店",
    "operation_time": "10:00～21:00",
    "holiday": "無し",
    "latitude": "36.72378877",
    "longitude": "137.016935",
    "tel": "0766-27-2411",
    "address": "高岡市下伏間江383イオンモール高岡2F",
    "access": "イオン高岡SC2FJR高岡駅よりバスで10分能越自動車道高岡ICより東へ約3km",
    "games": [
      "ボンバーガール"
    ]
  },
  {
    "name": "コーハツ",
    "operation_time": "12:00～24:00",
    "holiday": "無し",
    "latitude": "34.69630385",
    "longitude": "135.5116544",
    "tel": "06-6352-3007",
    "address": "大阪市北区天神橋2-2-21コーハツビル1F",
    "access": "地下鉄南森町駅、JR大阪天満宮駅徒歩2分",
    "games": [
      "ボンバーガール"
    ]
  },
  {
    "name": "ゲームパニック堺",
    "operation_time": "10:00～23:45",
    "holiday": "無し",
    "latitude": "34.597817",
    "longitude": "135.447433",
    "tel": "072-224-8295",
    "address": "堺市堺区築港八幡町1-1堺浜シーサイド内堺浜えんため館",
    "access": "南海バス20系統「堺市内北回り」 堺駅西口→堺浜シーサイドステージ約17分 堺東駅→堺浜シーサイドステージ約25分",
    "games": [
      "ボンバーガール"
    ]
  },
  {
    "name": "ラウンドワン千日前店",
    "operation_time": "",
    "holiday": "",
    "latitude": "34.667424",
    "longitude": "135.5026714",
    "tel": "06-4708-2600",
    "address": "大阪市中央区難波1-3-1",
    "access": "",
    "games": [
      "ボンバーガール"
    ]
  },
  {
    "name": "GiGO難波アビオン",
    "operation_time": "",
    "holiday": "",
    "latitude": "34.66278737",
    "longitude": "135.5032116",
    "tel": "070-1458-1437",
    "address": "大阪市浪速区難波中2-3-15MMOビル1-2F",
    "access": "",
    "games": [
      "ボンバーガール"
    ]
  },
  {
    "name": "タイトーステーション大阪日本橋店",
    "operation_time": "10:00～24:00",
    "holiday": "無し",
    "latitude": "34.660362",
    "longitude": "135.506113",
    "tel": "06-6630-7270",
    "address": "大阪市浪速区日本橋4-9-14",
    "access": "地下鉄なんば駅・日本橋駅・恵美須町駅から約7分ほど。",
    "games": [
      "ボンバーガール"
    ]
  },
  {
    "name": "シャトーEX",
    "operation_time": "7:00～24:00",
    "holiday": "無し",
    "latitude": "34.69804475",
    "longitude": "135.5337005",
    "tel": "06-6882-4801",
    "address": "大阪市都島区東野田町3-9-3",
    "access": "JR/京阪京橋駅徒歩1分",
    "games": [
      "ボンバーガール"
    ]
  },
  {
    "name": "ラウンドワン和歌山店",
    "operation_time": "",
    "holiday": "",
    "latitude": "34.19849168",
    "longitude": "135.1859428",
    "tel": "073-421-8210",
    "address": "和歌山市小雑賀739-3",
    "access": "",
    "games": [
      "ボンバーガール"
    ]
  },
  {
    "name": "ゲームプラザエム",
    "operation_time": "",
    "holiday": "",
    "latitude": "34.735265",
    "longitude": "135.564645",
    "tel": "06-6991-0363",
    "address": "守口市本町1-3-3",
    "access": "",
    "games": [
      "ボンバーガール"
    ]
  },
  {
    "name": "ラウンドワン京都河原町店",
    "operation_time": "",
    "holiday": "",
    "latitude": "35.00699573",
    "longitude": "135.7685149",
    "tel": "075-213-8400",
    "address": "京都市中京区河原町通り三条下ル山崎町250",
    "access": "",
    "games": [
      "ボンバーガール"
    ]
  },
  {
    "name": "ラウンドワン守口店",
    "operation_time": "",
    "holiday": "",
    "latitude": "34.7562488",
    "longitude": "135.5886793",
    "tel": "06-6907-9270",
    "address": "守口市佐太東町2-6-14ジャガーグリーン2F",
    "access": "",
    "games": [
      "ボンバーガール"
    ]
  },
  {
    "name": "GiGOあべのアポロ",
    "operation_time": "10:00～24:00",
    "holiday": "",
    "latitude": "34.646623",
    "longitude": "135.511677",
    "tel": "06-6647-0716",
    "address": "大阪市阿倍野区阿倍野筋1-5-31アポロビル3F･4F",
    "access": "JR 天王寺駅・近鉄あべの橋駅より徒歩3分 アポロビル 3F",
    "games": [
      "ボンバーガール"
    ]
  },
  {
    "name": "ラウンドワン岸和田店",
    "operation_time": "",
    "holiday": "",
    "latitude": "34.45649962",
    "longitude": "135.3885278",
    "tel": "072-429-1100",
    "address": "岸和田市八阪町2-11-1",
    "access": "",
    "games": [
      "ボンバーガール"
    ]
  },
  {
    "name": "YAZ寝屋川店",
    "operation_time": "",
    "holiday": "",
    "latitude": "34.78044073",
    "longitude": "135.6193889",
    "tel": "072-830-7755",
    "address": "寝屋川市石津中町25-26",
    "access": "",
    "games": [
      "ボンバーガール"
    ]
  },
  {
    "name": "ラウンドワン城東放出店",
    "operation_time": "",
    "holiday": "",
    "latitude": "34.69651235",
    "longitude": "135.559648",
    "tel": "06-6936-0100",
    "address": "大阪市城東区今福南3-4-38",
    "access": "",
    "games": [
      "ボンバーガール"
    ]
  },
  {
    "name": "モンキートリック",
    "operation_time": "10:00～24:00",
    "holiday": "無し",
    "latitude": "34.78316526",
    "longitude": "135.628799",
    "tel": "072-835-6361",
    "address": "寝屋川市香里南之町32-5",
    "access": "京阪本線香里園駅下車徒歩2分",
    "games": [
      "ボンバーガール"
    ]
  },
  {
    "name": "ラウンドワン京都伏見店",
    "operation_time": "",
    "holiday": "",
    "latitude": "34.93599659",
    "longitude": "135.746198",
    "tel": "075-622-9911",
    "address": "京都市伏見区下鳥羽平塚町131",
    "access": "",
    "games": [
      "ボンバーガール"
    ]
  },
  {
    "name": "クァトロブーム小杉",
    "operation_time": "",
    "holiday": "",
    "latitude": "36.7205",
    "longitude": "137.092912",
    "tel": "0766-57-8219",
    "address": "射水市三ケ2602",
    "access": "",
    "games": [
      "ボンバーガール"
    ]
  },
  {
    "name": "エースレーン堅田",
    "operation_time": "10:00～23:45",
    "holiday": "無し",
    "latitude": "35.12458935",
    "longitude": "135.9194764",
    "tel": "077-571-1226",
    "address": "大津市今堅田2-40-10ACT堅田ビル2F",
    "access": "JR湖西線堅田駅下車徒歩10分",
    "games": [
      "ボンバーガール"
    ]
  },
  {
    "name": "ラウンドワン堺中央環状店",
    "operation_time": "",
    "holiday": "",
    "latitude": "34.55707895",
    "longitude": "135.5362412",
    "tel": "072-253-9559",
    "address": "堺市東区石原町2-241",
    "access": "",
    "games": [
      "ボンバーガール"
    ]
  },
  {
    "name": "ラウンドワン東大阪店",
    "operation_time": "",
    "holiday": "",
    "latitude": "34.6531932",
    "longitude": "135.60637",
    "tel": "06-6224-1700",
    "address": "東大阪市若江南町1-2-12",
    "access": "",
    "games": [
      "ボンバーガール"
    ]
  },
  {
    "name": "トヤマレジャーランド呉羽店",
    "operation_time": "一部24時間営業",
    "holiday": "無し",
    "latitude": "36.71545083",
    "longitude": "137.1579046",
    "tel": "076-434-5336",
    "address": "富山市高木字貝塚2054",
    "access": "県道44号線沿い呉羽本町交差点を富山方面方向に車で3分",
    "games": [
      "ボンバーガール"
    ]
  },
  {
    "name": "滋賀レジャーランド大津店",
    "operation_time": "",
    "holiday": "",
    "latitude": "35.003875",
    "longitude": "135.883431",
    "tel": "077-548-7851",
    "address": "大津市におの浜3-1-43",
    "access": "",
    "games": [
      "ボンバーガール"
    ]
  },
  {
    "name": "ラウンドワン青森店",
    "operation_time": "",
    "holiday": "",
    "latitude": "40.79867718",
    "longitude": "140.7483213",
    "tel": "017-762-3591",
    "address": "青森市浜田3-1-1",
    "access": "",
    "games": [
      "ボンバーガール"
    ]
  },
  {
    "name": "アピナ富山豊田店",
    "operation_time": "10:00～24:00",
    "holiday": "無し",
    "latitude": "36.7211336",
    "longitude": "137.2352552",
    "tel": "076-433-3355",
    "address": "富山市豊田町2-12-66",
    "access": "国道8号線豊田東交差点近く",
    "games": [
      "ボンバーガール"
    ]
  },
  {
    "name": "エースレーン守山",
    "operation_time": "10:00～24:00",
    "holiday": "無し",
    "latitude": "35.06802993",
    "longitude": "135.9957195",
    "tel": "077-514-2455",
    "address": "守山市播磨田町231-4ACT守山3番館内",
    "access": "名神高速道栗東IC出て国道8号線彦根方面向かい辻交差点左折し15分 JR守山駅よりタクシー5分",
    "games": [
      "ボンバーガール"
    ]
  },
  {
    "name": "エースレーン草津",
    "operation_time": "10:00～24:00",
    "holiday": "無し",
    "latitude": "34.99965692",
    "longitude": "135.9463199",
    "tel": "077-569-0472",
    "address": "草津市野路3-1-11",
    "access": "JR東海道線南草津駅より徒歩10分。国道1号線南田山交差点そば",
    "games": [
      "ボンバーガール"
    ]
  },
  {
    "name": "富山レジャーランド掛尾店",
    "operation_time": "",
    "holiday": "",
    "latitude": "36.66605175",
    "longitude": "137.208892",
    "tel": "076-413-2606",
    "address": "富山市掛尾町360-1",
    "access": "",
    "games": [
      "ボンバーガール"
    ]
  },
  {
    "name": "エースレーン近江八幡",
    "operation_time": "月～木・日・祝09:00～24:00 金・土・祝前日09:00～翌2:00",
    "holiday": "無し",
    "latitude": "35.13185244",
    "longitude": "136.1023481",
    "tel": "0748-31-2468",
    "address": "近江八幡市出町736",
    "access": "",
    "games": [
      "ボンバーガール"
    ]
  },
  {
    "name": "タイトーFステーションイオン近江八幡店",
    "operation_time": "",
    "holiday": "",
    "latitude": "35.12047338",
    "longitude": "136.1037493",
    "tel": "0748-38-5172",
    "address": "近江八幡市鷹飼町190-9イオン近江八幡2番街 1F",
    "access": "",
    "games": [
      "ボンバーガール"
    ]
  },
  {
    "name": "ゲームスポットアップル",
    "operation_time": "",
    "holiday": "",
    "latitude": "36.8255737",
    "longitude": "137.4142933",
    "tel": "0765-24-7740",
    "address": "魚津市吉島2-407-1",
    "access": "",
    "games": [
      "ボンバーガール"
    ]
  },
  {
    "name": "ラウンドワン奈良ミナーラ店",
    "operation_time": "",
    "holiday": "",
    "latitude": "34.685231",
    "longitude": "135.802224",
    "tel": "0742-32-3900",
    "address": "奈良市二条大路南1-3-1ミ･ナーラ5F",
    "access": "",
    "games": [
      "ボンバーガール"
    ]
  },
  {
    "name": "アミューズメントCUE奈良三条店",
    "operation_time": "10:00～24:00",
    "holiday": "無し",
    "latitude": "34.68177805",
    "longitude": "135.8221257",
    "tel": "0742-25-5115",
    "address": "奈良市三条町478-1",
    "access": "JR奈良駅から三条通りを東へすぐ",
    "games": [
      "ボンバーガール"
    ]
  },
  {
    "name": "楽市楽座イオンモール大和郡山店",
    "operation_time": "10:00～21:00",
    "holiday": "無し",
    "latitude": "34.6510396",
    "longitude": "135.8022702",
    "tel": "0743-58-5660",
    "address": "大和郡山市下三橋町741-333イオンモール大和郡山店3F",
    "access": "イオンモール大和郡山店内3F",
    "games": [
      "ボンバーガール"
    ]
  },
  {
    "name": "彦根パスカ",
    "operation_time": "13:00～24:00",
    "holiday": "無し",
    "latitude": "35.25868777",
    "longitude": "136.2653241",
    "tel": "070-3166-4833",
    "address": "彦根市西沼波町166",
    "access": "近江鉄道ひこね芹川駅下車徒歩10分",
    "games": [
      "ボンバーガール"
    ]
  },
  {
    "name": "アミューズメントCUE大和高田",
    "operation_time": "10:00～24:00",
    "holiday": "無し",
    "latitude": "34.49978101",
    "longitude": "135.7354379",
    "tel": "0745-25-3335",
    "address": "大和高田市東中2-11-16",
    "access": "国道166号線東宝交差点そば",
    "games": [
      "ボンバーガール"
    ]
  },
  {
    "name": "namcoイオンタウン大館西店",
    "operation_time": "",
    "holiday": "",
    "latitude": "40.2737682",
    "longitude": "140.5298986",
    "tel": "0186-42-4997",
    "address": "大館市根下戸新町18-121イオンタウン大館西内",
    "access": "",
    "games": [
      "ボンバーガール"
    ]
  },
  {
    "name": "ラウンドワン秋田店",
    "operation_time": "",
    "holiday": "",
    "latitude": "39.70235247",
    "longitude": "140.1092394",
    "tel": "018-896-6711",
    "address": "秋田市卸町1-1-2",
    "access": "",
    "games": [
      "ボンバーガール"
    ]
  },
  {
    "name": "アミューズメントスペースコミ丸アリババ大垣店",
    "operation_time": "10:00～24:00",
    "holiday": "無し",
    "latitude": "35.38404596",
    "longitude": "136.5956139",
    "tel": "050-3575-0530",
    "address": "大垣市池尻町940-1",
    "access": "関が原バイパス沿い",
    "games": [
      "ボンバーガール"
    ]
  },
  {
    "name": "ラウンドワンモレラ岐阜店",
    "operation_time": "",
    "holiday": "",
    "latitude": "35.455121",
    "longitude": "136.672955",
    "tel": "058-323-6600",
    "address": "本巣市三橋1100",
    "access": "",
    "games": [
      "ボンバーガール"
    ]
  },
  {
    "name": "岐阜レジャーランド穂積店",
    "operation_time": "7:00～24:00",
    "holiday": "無し",
    "latitude": "35.38432479",
    "longitude": "136.6846653",
    "tel": "058-326-1133",
    "address": "瑞穂市稲里630",
    "access": "国道21号線沿い瑞穂市野田新田交差点近く",
    "games": [
      "ボンバーガール"
    ]
  },
  {
    "name": "A.Cグランド",
    "operation_time": "9:00～24:00",
    "holiday": "無し",
    "latitude": "35.38308553",
    "longitude": "136.7461998",
    "tel": "058-275-0351",
    "address": "岐阜市茜部大川1-77",
    "access": "名鉄新岐阜駅15分",
    "games": [
      "ボンバーガール"
    ]
  },
  {
    "name": "上越レジャーランボウル",
    "operation_time": "一部24時間営業",
    "holiday": "無し",
    "latitude": "37.16405087",
    "longitude": "138.2489336",
    "tel": "0255-31-2030",
    "address": "上越市下門前薬島827-2",
    "access": "国道8号線沿い高岡市内関川大橋そば",
    "games": [
      "ボンバーガール"
    ]
  },
  {
    "name": "タイトーFステーション上越店",
    "operation_time": "",
    "holiday": "",
    "latitude": "37.148097",
    "longitude": "138.259034",
    "tel": "025-530-7115",
    "address": "上越市富岡3524J-maxシアター内1F",
    "access": "J-MAXシアター1F",
    "games": [
      "ボンバーガール"
    ]
  },
  {
    "name": "ゲームアルカナ",
    "operation_time": "",
    "holiday": "",
    "latitude": "35.25180865",
    "longitude": "136.7788584",
    "tel": "0587-50-6605",
    "address": "稲沢市朝府町2-33",
    "access": "",
    "games": [
      "ボンバーガール"
    ]
  },
  {
    "name": "ユーズランド下田店",
    "operation_time": "10:00～21:00",
    "holiday": "無し",
    "latitude": "40.60188383",
    "longitude": "141.4176032",
    "tel": "0178-50-3237",
    "address": "上北郡おいらせ町中野平40-1イオンモール下田1F",
    "access": "イオン下田SC1・2FJR下田駅よりバスで10分八戸市より車で約15km、三沢市より車で約15km",
    "games": [
      "ボンバーガール"
    ]
  },
  {
    "name": "ゲームピコ鵜沼",
    "operation_time": "",
    "holiday": "",
    "latitude": "35.40109361",
    "longitude": "136.9365717",
    "tel": "080-7661-4285",
    "address": "各務原市鵜沼西町3-309イオンタウン各務原鵜沼店1F",
    "access": "",
    "games": [
      "ボンバーガール"
    ]
  },
  {
    "name": "アミューズメントスペースコミ丸四日市店",
    "operation_time": "",
    "holiday": "",
    "latitude": "34.96631",
    "longitude": "136.61633",
    "tel": "059-325-7685",
    "address": "四日市市鵜の森1-3-19",
    "access": "",
    "games": [
      "ボンバーガール"
    ]
  },
  {
    "name": "アピナ四日市店",
    "operation_time": "",
    "holiday": "",
    "latitude": "34.94000426",
    "longitude": "136.6070666",
    "tel": "059-349-5011",
    "address": "四日市市泊小柳町4-34",
    "access": "",
    "games": [
      "ボンバーガール"
    ]
  },
  {
    "name": "ラウンドワン名古屋西春店",
    "operation_time": "",
    "holiday": "",
    "latitude": "35.25506282",
    "longitude": "136.8439405",
    "tel": "0568-26-4001",
    "address": "北名古屋市宇福寺神明15",
    "access": "",
    "games": [
      "ボンバーガール"
    ]
  },
  {
    "name": "ラウンドワンみえ川越IC店",
    "operation_time": "",
    "holiday": "",
    "latitude": "35.02319916",
    "longitude": "136.6836502",
    "tel": "059-361-2130",
    "address": "三重郡川越町大字南福崎851-1",
    "access": "",
    "games": [
      "ボンバーガール"
    ]
  },
  {
    "name": "楽市街道022名古屋店1F",
    "operation_time": "10:00～24:00",
    "holiday": "無し",
    "latitude": "35.23957843",
    "longitude": "136.848742",
    "tel": "0568-27-2622",
    "address": "北名古屋市中之郷字神明45-1-1F",
    "access": "22号線バイパス沿い",
    "games": [
      "ボンバーガール"
    ]
  },
  {
    "name": "ラウンドワン新潟店",
    "operation_time": "",
    "holiday": "",
    "latitude": "37.88807436",
    "longitude": "139.0177537",
    "tel": "025-280-1322",
    "address": "新潟市中央区美咲町2-1-38",
    "access": "",
    "games": [
      "ボンバーガール"
    ]
  },
  {
    "name": "オリエンタルバッティングセンター可児店",
    "operation_time": "",
    "holiday": "",
    "latitude": "35.4295369",
    "longitude": "137.0390315",
    "tel": "0574-61-3991",
    "address": "可児市今渡695-1",
    "access": "",
    "games": [
      "ボンバーガール"
    ]
  },
  {
    "name": "プレイハウスエリナ",
    "operation_time": "",
    "holiday": "",
    "latitude": "37.71741366",
    "longitude": "138.8908286",
    "tel": "0256-82-4541",
    "address": "新潟市西蒲区津雲田640",
    "access": "JR「岩室駅」より車で5分。駅より国道116号を南下し国道沿い右側。",
    "games": [
      "ボンバーガール"
    ]
  },
  {
    "name": "ファンタジープラザ名古屋店",
    "operation_time": "10:00～翌5:00",
    "holiday": "無し",
    "latitude": "35.22569311",
    "longitude": "136.908786",
    "tel": "052-938-3461",
    "address": "名古屋市北区玄馬町234-1クロスタウン2F",
    "access": "比良駅徒歩6分/大我麻交差点付近",
    "games": [
      "ボンバーガール"
    ]
  },
  {
    "name": "BOX.Q3",
    "operation_time": "10:00～24:00",
    "holiday": "無し",
    "latitude": "35.17310098",
    "longitude": "136.876603",
    "tel": "052-452-0920",
    "address": "名古屋市中村区則武1-16-8第一Uコーポ1F",
    "access": "各線名古屋駅 太閤口徒歩5分",
    "games": [
      "ボンバーガール"
    ]
  },
  {
    "name": "コムテックタワー",
    "operation_time": "平日10:00～24:00、土日祝9:00～24:00",
    "holiday": "",
    "latitude": "35.16941986",
    "longitude": "136.885993",
    "tel": "052-565-6471",
    "address": "名古屋市中村区名駅4-10-20",
    "access": "JR名古屋駅徒歩5分",
    "games": [
      "ボンバーガール"
    ]
  },
  {
    "name": "ラウンドワン中川一号線店",
    "operation_time": "",
    "holiday": "",
    "latitude": "35.12338322",
    "longitude": "136.8636484",
    "tel": "052-665-5353",
    "address": "名古屋市中川区法蔵町2-23",
    "access": "",
    "games": [
      "ボンバーガール"
    ]
  },
  {
    "name": "キングジョイ",
    "operation_time": "9:00～24:00",
    "holiday": "無し",
    "latitude": "35.16797694",
    "longitude": "136.9050444",
    "tel": "052-241-9515",
    "address": "名古屋市中区栄3-3-32",
    "access": "地下鉄栄駅徒歩3分",
    "games": [
      "ボンバーガール"
    ]
  },
  {
    "name": "モーリーファンタジーf新潟亀田インター",
    "operation_time": "9:00～22:00",
    "holiday": "無し",
    "latitude": "37.87624975",
    "longitude": "139.0816577",
    "tel": "070-3100-4212",
    "address": "新潟市江南区下早通柳田1-1-1イオンモール新潟亀田インター2F",
    "access": "新潟亀田ICから約5分。 JR新潟駅から約4キロ、JR亀田駅から約2.5キロ",
    "games": [
      "ボンバーガール"
    ]
  },
  {
    "name": "タイトーステーションフェドラ大須店",
    "operation_time": "10:00～24:00",
    "holiday": "無し",
    "latitude": "35.15945319",
    "longitude": "136.9054236",
    "tel": "052-242-2011",
    "address": "名古屋市中区大須3-30-31萬松寺駐車場ビル1F･2F",
    "access": "地下鉄名城線上前津駅より徒歩1分",
    "games": [
      "ボンバーガール"
    ]
  },
  {
    "name": "コムテックスクウェア金山",
    "operation_time": "9:00～24:00",
    "holiday": "",
    "latitude": "35.14401179",
    "longitude": "136.8999767",
    "tel": "052-321-5601",
    "address": "名古屋市中区金山1-16-8",
    "access": "名鉄金山駅徒歩3分",
    "games": [
      "ボンバーガール"
    ]
  },
  {
    "name": "ADXマミー春日井出川店",
    "operation_time": "",
    "holiday": "",
    "latitude": "35.26729521",
    "longitude": "137.012739",
    "tel": "0568-54-8590",
    "address": "春日井市不二が丘1-5",
    "access": "",
    "games": [
      "ボンバーガール"
    ]
  },
  {
    "name": "名古屋レジャーランド内田橋店",
    "operation_time": "一部24時間営業",
    "holiday": "無し",
    "latitude": "35.1137072",
    "longitude": "136.9098069",
    "tel": "052-694-6051",
    "address": "名古屋市南区内田橋2-26-22",
    "access": "名鉄常滑線豊田本町駅近く",
    "games": [
      "ボンバーガール"
    ]
  },
  {
    "name": "ゲームチャオ松阪店",
    "operation_time": "10:00～24:00",
    "holiday": "無し",
    "latitude": "34.58867016",
    "longitude": "136.5257638",
    "tel": "0598-53-3918",
    "address": "松阪市船江町782",
    "access": "国道42号線沿い、松阪駅から車で5分",
    "games": [
      "ボンバーガール"
    ]
  },
  {
    "name": "アピナ長岡店",
    "operation_time": "10:00～24:00",
    "holiday": "無し",
    "latitude": "37.45794202",
    "longitude": "138.8125194",
    "tel": "0258-22-5510",
    "address": "長岡市堺東町22",
    "access": "国道8号線長岡バイパス堺交差点近く",
    "games": [
      "ボンバーガール"
    ]
  },
  {
    "name": "メジャーロード見附店EAST",
    "operation_time": "10:00～24:00",
    "holiday": "無し",
    "latitude": "37.54347146",
    "longitude": "138.8916293",
    "tel": "0258-61-4515",
    "address": "見附市今町4-12-20",
    "access": "高速「中之島見附IC」より車で5分。国道8号線を北上し「今町」交差点先の右側。",
    "games": [
      "ボンバーガール"
    ]
  },
  {
    "name": "ゲームパニック大高",
    "operation_time": "9:00～23:45",
    "holiday": "無し",
    "latitude": "35.04850561",
    "longitude": "136.9496236",
    "tel": "052-625-5360",
    "address": "名古屋市緑区忠治山201グランドボウルB2F",
    "access": "国道23号線大高町共和IC側道グランドボウルB2階",
    "games": [
      "ボンバーガール"
    ]
  },
  {
    "name": "ゲームセンターテクノポリス",
    "operation_time": "10:00～24:00",
    "holiday": "無し",
    "latitude": "37.42498834",
    "longitude": "138.8377613",
    "tel": "0258-33-1516",
    "address": "長岡市要町1-8-50",
    "access": "JR「宮内駅」西口より徒歩で5分。県道498号線沿い。",
    "games": [
      "ボンバーガール"
    ]
  },
  {
    "name": "GiGO長久手",
    "operation_time": "9:00～24:00",
    "holiday": "無し",
    "latitude": "35.17139252",
    "longitude": "137.045573",
    "tel": "0561-64-5205",
    "address": "長久手市武蔵塚705",
    "access": "",
    "games": [
      "ボンバーガール"
    ]
  },
  {
    "name": "ダイナソアエイジ",
    "operation_time": "",
    "holiday": "",
    "latitude": "35.03099",
    "longitude": "136.95617",
    "tel": "0562-47-1234",
    "address": "大府市東新町3-88",
    "access": "",
    "games": [
      "ボンバーガール"
    ]
  },
  {
    "name": "タイトーFステーション南紀",
    "operation_time": "10:00～21:00",
    "holiday": "無し",
    "latitude": "33.67212987",
    "longitude": "135.9704993",
    "tel": "0735-31-3375",
    "address": "新宮市佐野3-11-19スーパーセンターオオクワ1F",
    "access": "JR紀勢本線紀伊佐野駅下車徒歩10分",
    "games": [
      "ボンバーガール"
    ]
  },
  {
    "name": "アピナ大橋店",
    "operation_time": "10:00～24:00",
    "holiday": "無し",
    "latitude": "36.6265199",
    "longitude": "138.2003591",
    "tel": "026-225-8765",
    "address": "長野市若里7-9-12",
    "access": "R18号長野大橋北側",
    "games": [
      "ボンバーガール"
    ]
  },
  {
    "name": "ラウンドワン長野店",
    "operation_time": "",
    "holiday": "",
    "latitude": "36.65105714",
    "longitude": "138.225192",
    "tel": "026-254-5801",
    "address": "長野市大字東和田827-6",
    "access": "",
    "games": [
      "ボンバーガール"
    ]
  },
  {
    "name": "G3ポロス横手南店",
    "operation_time": "",
    "holiday": "",
    "latitude": "39.29452197",
    "longitude": "140.5520782",
    "tel": "0182-23-5415",
    "address": "横手市大字婦気大堤字中田4-1イオンスーパーセンター横手南店2F",
    "access": "",
    "games": [
      "ボンバーガール"
    ]
  },
  {
    "name": "ユーズランド東浦店",
    "operation_time": "10:00～21:00",
    "holiday": "無し",
    "latitude": "34.97885364",
    "longitude": "136.9741411",
    "tel": "0562-82-2782",
    "address": "知多郡東浦町大字緒川字旭13-2イオンモール東浦2F",
    "access": "イオン東浦SC2FJR緒川駅より徒歩5分知多半島道路東浦知多ICより約4km",
    "games": [
      "ボンバーガール"
    ]
  },
  {
    "name": "M'sPARK刈谷店",
    "operation_time": "10:00～24:00",
    "holiday": "無し",
    "latitude": "35.00549344",
    "longitude": "137.0014494",
    "tel": "0566-27-5822",
    "address": "刈谷市稲場町3-206",
    "access": "155号沿い",
    "games": [
      "ボンバーガール"
    ]
  },
  {
    "name": "半田メトロポリス",
    "operation_time": "平日10:00～23:50 土日祝日前 9:00～23:50",
    "holiday": "無し",
    "latitude": "34.87469206",
    "longitude": "136.9217723",
    "tel": "0569-24-5226",
    "address": "半田市旭町3-11-1半田コロナワールド内2F",
    "access": "JR武豊線東成岩駅より徒歩1分",
    "games": [
      "ボンバーガール"
    ]
  },
  {
    "name": "ラウンドワン半田店",
    "operation_time": "",
    "holiday": "",
    "latitude": "34.88609688",
    "longitude": "136.9412056",
    "tel": "0569-25-7351",
    "address": "半田市瑞穂町6-7-8",
    "access": "",
    "games": [
      "ボンバーガール"
    ]
  },
  {
    "name": "アピナ松本",
    "operation_time": "10:00～24:00",
    "holiday": "無し",
    "latitude": "36.21052692",
    "longitude": "137.9610526",
    "tel": "0263-24-1133",
    "address": "松本市双葉19-10",
    "access": "国道19号線沿い、イトーヨーカドーそば",
    "games": [
      "ボンバーガール"
    ]
  },
  {
    "name": "HapipiLand十日町店",
    "operation_time": "",
    "holiday": "",
    "latitude": "37.13648",
    "longitude": "138.7456",
    "tel": "080-7143-5507",
    "address": "十日町市丑735-1",
    "access": "",
    "games": [
      "ボンバーガール"
    ]
  },
  {
    "name": "M'Sパーク豊田店",
    "operation_time": "一部24時間営業",
    "holiday": "",
    "latitude": "35.0565113",
    "longitude": "137.1404324",
    "tel": "0565-71-0027",
    "address": "豊田市寿町3-10-11",
    "access": "愛知環状鉄道三河豊田駅10分。名鉄三河線土橋駅より徒歩10分。",
    "games": [
      "ボンバーガール"
    ]
  },
  {
    "name": "ラウンドワン盛岡店",
    "operation_time": "",
    "holiday": "",
    "latitude": "39.70035197",
    "longitude": "141.133077",
    "tel": "019-654-9011",
    "address": "盛岡市盛岡駅西通2-10-35",
    "access": "",
    "games": [
      "ボンバーガール"
    ]
  },
  {
    "name": "ADXマミー岡崎店",
    "operation_time": "",
    "holiday": "",
    "latitude": "34.97692806",
    "longitude": "137.161659",
    "tel": "0564-83-6262",
    "address": "岡崎市井田新町6-1",
    "access": "",
    "games": [
      "ボンバーガール"
    ]
  },
  {
    "name": "GiGO北岡崎",
    "operation_time": "9:00～24:00",
    "holiday": "無し",
    "latitude": "34.97365547",
    "longitude": "137.1600268",
    "tel": "070-1393-5583",
    "address": "岡崎市錦町2-4",
    "access": "国道248号線沿い、愛知環状線北岡崎駅から徒歩3分",
    "games": [
      "ボンバーガール"
    ]
  },
  {
    "name": "プレイゾーンバンブー",
    "operation_time": "11:00～24:00",
    "holiday": "無し",
    "latitude": "37.051028",
    "longitude": "138.868007",
    "tel": "025-782-5277",
    "address": "南魚沼市竹俣60-6",
    "access": "JR「六日町」より車で5分。国道17号線沿い。",
    "games": [
      "ボンバーガール"
    ]
  },
  {
    "name": "ポート24幸田",
    "operation_time": "10:00～24:00",
    "holiday": "無休",
    "latitude": "34.89016302",
    "longitude": "137.1632649",
    "tel": "0564-63-6588",
    "address": "額田郡幸田町大字高力字沖原15カメリアガーデン幸田内",
    "access": "東名高速音羽蒲郡ICから車で30分",
    "games": [
      "ボンバーガール"
    ]
  },
  {
    "name": "HapipiLand佐久店",
    "operation_time": "",
    "holiday": "",
    "latitude": "36.28959",
    "longitude": "138.48686",
    "tel": "080-7143-5458",
    "address": "佐久市岩村田6-2佐久ステーションパーク内",
    "access": "",
    "games": [
      "ボンバーガール"
    ]
  },
  {
    "name": "GiGO天童",
    "operation_time": "10:00～24:00",
    "holiday": "無し",
    "latitude": "38.34302924",
    "longitude": "140.3739732",
    "tel": "023-656-9370",
    "address": "天童市南町1-5-26",
    "access": "JR「天童駅」より車で10分。国道13号線を南下し国道沿い左側。",
    "games": [
      "ボンバーガール"
    ]
  },
  {
    "name": "テクノワールド",
    "operation_time": "店舗にてご確認ください",
    "holiday": "無し",
    "latitude": "39.179225",
    "longitude": "141.162155",
    "tel": "0197-47-3619",
    "address": "奥州市江刺愛宕梁川127-1",
    "access": "",
    "games": [
      "ボンバーガール"
    ]
  },
  {
    "name": "ゲームゾーントレジャー北町店",
    "operation_time": "",
    "holiday": "",
    "latitude": "38.268738",
    "longitude": "140.329329",
    "tel": "023-682-3356",
    "address": "山形市北町2-2-45山形ファミリーボウル内",
    "access": "",
    "games": [
      "ボンバーガール"
    ]
  },
  {
    "name": "ゲームゾーントレジャー吉原店",
    "operation_time": "10:00～24:00",
    "holiday": "無し",
    "latitude": "38.22961845",
    "longitude": "140.3040511",
    "tel": "023-646-9336",
    "address": "山形市前明石1352-5",
    "access": "ジャスコ山形南店側",
    "games": [
      "ボンバーガール"
    ]
  },
  {
    "name": "ラウンドワン豊橋店",
    "operation_time": "",
    "holiday": "",
    "latitude": "34.7239242",
    "longitude": "137.4323261",
    "tel": "0532-65-2212",
    "address": "豊橋市大岩町字岩田27-2",
    "access": "",
    "games": [
      "ボンバーガール"
    ]
  },
  {
    "name": "群馬レジャーランド渋川店",
    "operation_time": "",
    "holiday": "",
    "latitude": "36.4742053",
    "longitude": "139.0154654",
    "tel": "0279-25-0718",
    "address": "渋川市八木原1364",
    "access": "",
    "games": [
      "ボンバーガール"
    ]
  },
  {
    "name": "GiGO会津若松",
    "operation_time": "9:00～24:00",
    "holiday": "無し",
    "latitude": "37.51832577",
    "longitude": "139.9222191",
    "tel": "0242-37-0777",
    "address": "会津若松市町北町上荒久田字宮下142",
    "access": "磐越道会津若松IC側",
    "games": [
      "ボンバーガール"
    ]
  },
  {
    "name": "ポート24浜松店",
    "operation_time": "10:00～24:00",
    "holiday": "無休",
    "latitude": "34.68017431",
    "longitude": "137.6443768",
    "tel": "053-440-5588",
    "address": "浜松市中央区坪井町4183",
    "access": "東名高速浜松西ICから車で15分",
    "games": [
      "ボンバーガール"
    ]
  },
  {
    "name": "ユーズランド高崎店",
    "operation_time": "10:00～21:00",
    "holiday": "",
    "latitude": "36.39047889",
    "longitude": "139.0067302",
    "tel": "027-310-9113",
    "address": "高崎市棟高町1400イオン高崎SC2F",
    "access": "",
    "games": [
      "ボンバーガール"
    ]
  },
  {
    "name": "楽市楽座サンストリート浜北店",
    "operation_time": "10:00～22:00",
    "holiday": "無し",
    "latitude": "34.79467266",
    "longitude": "137.7607979",
    "tel": "0535-84-6136",
    "address": "浜松市浜名区平口2861サンストリート浜北内 M-207",
    "access": "",
    "games": [
      "ボンバーガール"
    ]
  },
  {
    "name": "群馬レジャーランド高崎駅東口店",
    "operation_time": "一部24時間営業",
    "holiday": "無し",
    "latitude": "36.32992086",
    "longitude": "139.0128661",
    "tel": "027-330-3002",
    "address": "高崎市江木町333-1高崎EXビル2F",
    "access": "JR高崎駅東口徒歩10分",
    "games": [
      "ボンバーガール"
    ]
  },
  {
    "name": "群馬レジャーランド前橋店",
    "operation_time": "",
    "holiday": "",
    "latitude": "36.40497647",
    "longitude": "139.0794189",
    "tel": "050-1726-4972",
    "address": "前橋市日吉町4-37-1",
    "access": "",
    "games": [
      "ボンバーガール"
    ]
  },
  {
    "name": "ラウンドワン浜松店",
    "operation_time": "",
    "holiday": "",
    "latitude": "34.73795995",
    "longitude": "137.7638799",
    "tel": "053-461-1101",
    "address": "浜松市中央区天王町諏訪1981-17",
    "access": "",
    "games": [
      "ボンバーガール"
    ]
  },
  {
    "name": "マトリクス前橋店",
    "operation_time": "10:00～24:00",
    "holiday": "無し",
    "latitude": "36.37294244",
    "longitude": "139.059637",
    "tel": "027-212-3133",
    "address": "前橋市小相木町563-3",
    "access": "県道13号線小相木交差点を高崎方面へ150m",
    "games": [
      "ボンバーガール"
    ]
  },
  {
    "name": "サープラOZ浜松あそびタウン",
    "operation_time": "9:00～24:00",
    "holiday": "無し",
    "latitude": "34.72247074",
    "longitude": "137.7647101",
    "tel": "053-466-3387",
    "address": "浜松市中央区宮竹町322-1",
    "access": "東名高速浜松IC車で20分",
    "games": [
      "ボンバーガール"
    ]
  },
  {
    "name": "ゲームパニック甲府",
    "operation_time": "",
    "holiday": "",
    "latitude": "35.64182781",
    "longitude": "138.547239",
    "tel": "080-3350-2893",
    "address": "甲府市国母5-20-24",
    "access": "",
    "games": [
      "ボンバーガール"
    ]
  },
  {
    "name": "アピナ富谷店",
    "operation_time": "",
    "holiday": "",
    "latitude": "38.36528256",
    "longitude": "140.8765988",
    "tel": "022-341-5177",
    "address": "富谷市大清水1-33-1イオンモール109シネマズ富谷1F",
    "access": "",
    "games": [
      "ボンバーガール"
    ]
  },
  {
    "name": "群馬レジャーランド藤岡店",
    "operation_time": "一部24時間営業",
    "holiday": "",
    "latitude": "36.27426745",
    "longitude": "139.0718857",
    "tel": "0274-40-2371",
    "address": "藤岡市中2002-1",
    "access": "県道13号沿い、上信越道藤岡IC北 カーオプション店『ピット100』2階",
    "games": [
      "ボンバーガール"
    ]
  },
  {
    "name": "GAME BANK",
    "operation_time": "9:00～24:00",
    "holiday": "無し",
    "latitude": "38.352801",
    "longitude": "140.877385",
    "tel": "022-776-5677",
    "address": "仙台市泉区大沢2-5-4",
    "access": "東北自動車道 泉インター直ぐ",
    "games": [
      "ボンバーガール"
    ]
  },
  {
    "name": "GiGOイオン仙台中山",
    "operation_time": "",
    "holiday": "",
    "latitude": "38.299061",
    "longitude": "140.828497",
    "tel": "022-347-3139",
    "address": "仙台市泉区南中山1-35-57イオン仙台中山店別館3F",
    "access": "",
    "games": [
      "ボンバーガール"
    ]
  },
  {
    "name": "ラウンドワンスタジアム仙台泉店",
    "operation_time": "",
    "holiday": "",
    "latitude": "38.35192551",
    "longitude": "140.8797545",
    "tel": "022-347-4471",
    "address": "仙台市泉区大沢2-12-4仙台泉インターシティ1F",
    "access": "",
    "games": [
      "ボンバーガール"
    ]
  },
  {
    "name": "群馬レジャーランド伊勢崎店",
    "operation_time": "一部24時間営業",
    "holiday": "無し",
    "latitude": "36.31824274",
    "longitude": "139.1723592",
    "tel": "0270-40-5330",
    "address": "伊勢崎市連取町3066-1",
    "access": "伊勢崎市内県道2号線沿い伊勢崎オート近く",
    "games": [
      "ボンバーガール"
    ]
  },
  {
    "name": "GiGO仙台一番町",
    "operation_time": "",
    "holiday": "",
    "latitude": "38.26424",
    "longitude": "140.87121",
    "tel": "022-393-6746",
    "address": "仙台市青葉区一番町4-5-13サンシャインビル1F",
    "access": "",
    "games": [
      "ボンバーガール"
    ]
  },
  {
    "name": "タイトーステーション仙台クリスロード店",
    "operation_time": "9:00～24:00",
    "holiday": "無し",
    "latitude": "38.261006",
    "longitude": "140.875705",
    "tel": "022-262-2541",
    "address": "仙台市青葉区中央2-3-25",
    "access": "JR仙台駅・地下鉄仙台駅より徒歩8分(ハピナ名掛丁アーケード内)",
    "games": [
      "ボンバーガール"
    ]
  },
  {
    "name": "ラウンドワン仙台苦竹店",
    "operation_time": "",
    "holiday": "",
    "latitude": "38.26828399",
    "longitude": "140.9172614",
    "tel": "022-788-2581",
    "address": "仙台市宮城野区苦竹1-7-10",
    "access": "",
    "games": [
      "ボンバーガール"
    ]
  },
  {
    "name": "GiGO利府",
    "operation_time": "10:00～24:00",
    "holiday": "無し",
    "latitude": "38.32801132",
    "longitude": "140.9756135",
    "tel": "080-7500-4898",
    "address": "宮城郡利府町加瀬字新前谷地55-1",
    "access": "三陸自動車道 利府中IC下車利府バイパス沿い車で5分",
    "games": [
      "ボンバーガール"
    ]
  },
  {
    "name": "GiGO福島南",
    "operation_time": "10:00～24:00",
    "holiday": "無し",
    "latitude": "37.72791083",
    "longitude": "140.4671033",
    "tel": "024-544-0280",
    "address": "福島市黒岩字中島7-2",
    "access": "高速福島西ICより車で15分。国道4号線を右折し「黒岩」交差点手前左側。",
    "games": [
      "ボンバーガール"
    ]
  },
  {
    "name": "ゲームコーナー東部",
    "operation_time": "9:00～24:00",
    "holiday": "無し",
    "latitude": "38.25101621",
    "longitude": "140.9438974",
    "tel": "022-287-5880",
    "address": "仙台市若林区六丁の目中町26-60",
    "access": "六丁目の交差点より多賀城方面へ向かい車で5分。産業通り沿い。",
    "games": [
      "ボンバーガール"
    ]
  },
  {
    "name": "アップル島田店",
    "operation_time": "",
    "holiday": "",
    "latitude": "34.82659503",
    "longitude": "138.187415",
    "tel": "0547-54-4351",
    "address": "島田市宝来町8-5",
    "access": "",
    "games": [
      "ボンバーガール"
    ]
  },
  {
    "name": "ビデオゲームミュージアムロボット深谷店",
    "operation_time": "10:00～24:00",
    "holiday": "無し",
    "latitude": "36.17966807",
    "longitude": "139.2987761",
    "tel": "048-573-3951",
    "address": "深谷市上柴町西4-12-1",
    "access": "",
    "games": [
      "ボンバーガール"
    ]
  },
  {
    "name": "群馬レジャーランド太田店",
    "operation_time": "一部24時間営業",
    "holiday": "無し",
    "latitude": "36.26802219",
    "longitude": "139.3761382",
    "tel": "0276-47-8030",
    "address": "太田市西矢島町162-2",
    "access": "",
    "games": [
      "ボンバーガール"
    ]
  },
  {
    "name": "ユーズランド太田店",
    "operation_time": "10:00～21:00",
    "holiday": "無し",
    "latitude": "36.29327372",
    "longitude": "139.4001931",
    "tel": "0276-47-8722",
    "address": "太田市石原町81イオンモール太田2F",
    "access": "イオン太田SC2F東武伊勢崎線太田駅よりバスで10分東北道館林ICよりR354～R122(太田バイパス)経由約30分",
    "games": [
      "ボンバーガール"
    ]
  },
  {
    "name": "タイトーFステーション郡山オリエントパーク店",
    "operation_time": "",
    "holiday": "",
    "latitude": "37.37465045",
    "longitude": "140.3487929",
    "tel": "024-946-8222",
    "address": "郡山市安積町荒井字大久保35-1",
    "access": "",
    "games": [
      "ボンバーガール"
    ]
  },
  {
    "name": "ドラマ足利店",
    "operation_time": "10:00～24:00",
    "holiday": "無し",
    "latitude": "36.32220259",
    "longitude": "139.4503607",
    "tel": "0284-73-9559",
    "address": "足利市朝倉町244-1",
    "access": "東武伊勢崎線足利市駅より徒歩10分",
    "games": [
      "ボンバーガール"
    ]
  },
  {
    "name": "ラウンドワン郡山店",
    "operation_time": "",
    "holiday": "",
    "latitude": "37.40229903",
    "longitude": "140.3957065",
    "tel": "024-941-3191",
    "address": "郡山市向河原町4-55",
    "access": "",
    "games": [
      "ボンバーガール"
    ]
  },
  {
    "name": "namcoイオンタウン郡山店",
    "operation_time": "",
    "holiday": "",
    "latitude": "37.389283",
    "longitude": "140.390809",
    "tel": "024-943-2715",
    "address": "郡山市松木町2-88イオンタウン郡山",
    "access": "",
    "games": [
      "ボンバーガール"
    ]
  },
  {
    "name": "アップル新北街道店",
    "operation_time": "10:00～24:00",
    "holiday": "無休",
    "latitude": "34.99831803",
    "longitude": "138.4134069",
    "tel": "054-261-9109",
    "address": "静岡市葵区沓谷5-13-4",
    "access": "東名高速静岡ICから車で20分",
    "games": [
      "ボンバーガール"
    ]
  },
  {
    "name": "アミューズパーク郡山店",
    "operation_time": "店舗にてご確認ください",
    "holiday": "無し",
    "latitude": "37.37446344",
    "longitude": "140.3838207",
    "tel": "0249-44-9898",
    "address": "郡山市安積町日出山2-80",
    "access": "JR郡山駅より車で10分。東部幹線沿い。",
    "games": [
      "ボンバーガール"
    ]
  },
  {
    "name": "アップルグランリバー 大井川店",
    "operation_time": "10:00～24:00",
    "holiday": "無し",
    "latitude": "34.80971624",
    "longitude": "138.2732243",
    "tel": "054-270-3244",
    "address": "焼津市下江留1327",
    "access": "東名高速道路、吉田ICより車で10分",
    "games": [
      "ボンバーガール"
    ]
  },
  {
    "name": "アピナ焼津店",
    "operation_time": "",
    "holiday": "",
    "latitude": "34.83371431",
    "longitude": "138.3059489",
    "tel": "054-623-8555",
    "address": "焼津市道原585",
    "access": "",
    "games": [
      "ボンバーガール"
    ]
  },
  {
    "name": "namco熊谷店",
    "operation_time": "",
    "holiday": "",
    "latitude": "36.13883458",
    "longitude": "139.395236",
    "tel": "048-527-3675",
    "address": "熊谷市銀座2-97",
    "access": "",
    "games": [
      "ボンバーガール"
    ]
  },
  {
    "name": "namcoフェドラP&D佐野店",
    "operation_time": "10:00～23:00 土日祝9:00～23:00",
    "holiday": "無し",
    "latitude": "36.29729",
    "longitude": "139.605644",
    "tel": "0283-85-9518",
    "address": "佐野市高萩町1340",
    "access": "",
    "games": [
      "ボンバーガール"
    ]
  },
  {
    "name": "ラウンドワン富士店",
    "operation_time": "",
    "holiday": "",
    "latitude": "35.15310644",
    "longitude": "138.6938016",
    "tel": "0545-51-3636",
    "address": "富士市八代町4-15",
    "access": "",
    "games": [
      "ボンバーガール"
    ]
  },
  {
    "name": "アミューズメントヒカリ",
    "operation_time": "",
    "holiday": "",
    "latitude": "36.56004",
    "longitude": "139.88167",
    "tel": "028-632-0382",
    "address": "宇都宮市江野町7-13ヒカリビル1F",
    "access": "",
    "games": [
      "ボンバーガール"
    ]
  },
  {
    "name": "ラウンドワンさいたま･鴻巣店",
    "operation_time": "",
    "holiday": "",
    "latitude": "36.08064011",
    "longitude": "139.4902201",
    "tel": "048-595-2001",
    "address": "鴻巣市箕田3163-7",
    "access": "",
    "games": [
      "ボンバーガール"
    ]
  },
  {
    "name": "ラウンドワン宇都宮店",
    "operation_time": "",
    "holiday": "",
    "latitude": "36.54080987",
    "longitude": "139.8868656",
    "tel": "028-614-8171",
    "address": "宇都宮市江曽島町2072-1",
    "access": "",
    "games": [
      "ボンバーガール"
    ]
  },
  {
    "name": "キャロム 坂戸店",
    "operation_time": "12:00～翌3:00/祝前日、土曜日 午前5:00まで",
    "holiday": "無し",
    "latitude": "35.95251751",
    "longitude": "139.3985348",
    "tel": "0492-84-7821",
    "address": "坂戸市関間2-151-1",
    "access": "西入間警察署裏",
    "games": [
      "ボンバーガール"
    ]
  },
  {
    "name": "キャロム青梅店",
    "operation_time": "10:00～翌5:00",
    "holiday": "",
    "latitude": "35.78660433",
    "longitude": "139.2700032",
    "tel": "0428-23-9208",
    "address": "青梅市千ヶ瀬町4-326-1",
    "access": "",
    "games": [
      "ボンバーガール"
    ]
  },
  {
    "name": "インターパークプラスワン 宇都宮店",
    "operation_time": "9:00～24:00",
    "holiday": "無し",
    "latitude": "36.48822111",
    "longitude": "139.9053211",
    "tel": "028-657-6789",
    "address": "宇都宮市インターパーク6-5-1",
    "access": "国道4号線、北関東自動車道、宇都宮上三川インターインター降りてすぐ",
    "games": [
      "ボンバーガール"
    ]
  },
  {
    "name": "ラウンドワン入間店",
    "operation_time": "",
    "holiday": "",
    "latitude": "35.82812299",
    "longitude": "139.3755366",
    "tel": "042-960-1521",
    "address": "入間市小谷田3-7-25",
    "access": "",
    "games": [
      "ボンバーガール"
    ]
  },
  {
    "name": "タイトーFステーションクレアモール川越店",
    "operation_time": "",
    "holiday": "",
    "latitude": "35.91384483",
    "longitude": "139.482921",
    "tel": "049-298-8963",
    "address": "川越市新富町2-1-13本川越SSビル1-4F",
    "access": "",
    "games": [
      "ボンバーガール"
    ]
  },
  {
    "name": "アピナ小山店",
    "operation_time": "10:00～24:00",
    "holiday": "無し",
    "latitude": "36.300419",
    "longitude": "139.809126",
    "tel": "0285-31-0050",
    "address": "小山市駅南町4-27-18",
    "access": "国道50号線沿い駅南町交差点",
    "games": [
      "ボンバーガール"
    ]
  },
  {
    "name": "サープラ沼津あそびタウン",
    "operation_time": "10:00～24:00",
    "holiday": "無し",
    "latitude": "35.10266451",
    "longitude": "138.8598883",
    "tel": "055-926-7739",
    "address": "沼津市大手町1-1-5",
    "access": "JR沼津駅徒歩5分",
    "games": [
      "ボンバーガール"
    ]
  },
  {
    "name": "沼津バッティングスタジアム",
    "operation_time": "10:00～24:00",
    "holiday": "無し",
    "latitude": "35.12119847",
    "longitude": "138.8770371",
    "tel": "055-923-4199",
    "address": "沼津市岡一色三竹道19-2",
    "access": "",
    "games": [
      "ボンバーガール"
    ]
  },
  {
    "name": "アピナ上尾店",
    "operation_time": "",
    "holiday": "",
    "latitude": "35.987191",
    "longitude": "139.579877",
    "tel": "048-783-4747",
    "address": "上尾市緑丘3-3-11-2プリンセス棟別棟",
    "access": "",
    "games": [
      "ボンバーガール"
    ]
  },
  {
    "name": "ラウンドワンさいたま･栗橋店",
    "operation_time": "",
    "holiday": "",
    "latitude": "36.12348469",
    "longitude": "139.7152159",
    "tel": "0480-55-0831",
    "address": "久喜市小右衛門192-1",
    "access": "",
    "games": [
      "ボンバーガール"
    ]
  },
  {
    "name": "ゲームプラザセントラル八王子店",
    "operation_time": "10:00～翌1:00",
    "holiday": "無し",
    "latitude": "35.65802575",
    "longitude": "139.338208",
    "tel": "0426-44-0078",
    "address": "八王子市東町12-15第5セントラルビル",
    "access": "JR八王子駅徒歩1分",
    "games": [
      "ボンバーガール"
    ]
  },
  {
    "name": "ラウンドワン上尾店",
    "operation_time": "",
    "holiday": "",
    "latitude": "35.98574121",
    "longitude": "139.6078308",
    "tel": "048-778-3411",
    "address": "上尾市大字平塚917-1",
    "access": "",
    "games": [
      "ボンバーガール"
    ]
  },
  {
    "name": "シルクハット八王子",
    "operation_time": "10:00～24:45",
    "holiday": "",
    "latitude": "35.65636374",
    "longitude": "139.3384725",
    "tel": "",
    "address": "八王子市旭町2-5八王子ツインタワービル3F",
    "access": "JR八王子駅前",
    "games": [
      "ボンバーガール"
    ]
  },
  {
    "name": "アミューズメントフィールドバイヨン",
    "operation_time": "10:00～24:00",
    "holiday": "無し",
    "latitude": "35.85617882",
    "longitude": "139.522425",
    "tel": "0492-65-1400",
    "address": "ふじみ野市うれし野2-16-1LCモールうれし野2F",
    "access": "東武東上線「ふじみ野」駅徒歩6分ショッピングモールリズム横",
    "games": [
      "ボンバーガール"
    ]
  },
  {
    "name": "ドラマ八王子高倉店",
    "operation_time": "10:00～24:00",
    "holiday": "無し",
    "latitude": "35.66506526",
    "longitude": "139.3664795",
    "tel": "0426-45-7050",
    "address": "八王子市高倉町55-4",
    "access": "国道20号、八王子市高倉町「高倉町西」交差点を日野バイパス豊田方面右手",
    "games": [
      "ボンバーガール"
    ]
  },
  {
    "name": "ラウンドワン所沢店",
    "operation_time": "",
    "holiday": "",
    "latitude": "35.78935214",
    "longitude": "139.4700049",
    "tel": "04-2940-8631",
    "address": "所沢市東町5-22TOCOTOCO SQUARE6F",
    "access": "",
    "games": [
      "ボンバーガール"
    ]
  },
  {
    "name": "タイトーステーション所沢店",
    "operation_time": "09:00～24:00",
    "holiday": "無し",
    "latitude": "35.7881",
    "longitude": "139.47243",
    "tel": "04-2925-9071",
    "address": "所沢市日吉町3-7",
    "access": "所沢駅西口プロペ通りを徒歩3分",
    "games": [
      "ボンバーガール"
    ]
  },
  {
    "name": "タイトーステーション立川北口店",
    "operation_time": "",
    "holiday": "",
    "latitude": "35.699058",
    "longitude": "139.412162",
    "tel": "042-512-9651",
    "address": "立川市曙町2-4-5OSJ TACHIKAWA2･3F",
    "access": "",
    "games": [
      "ボンバーガール"
    ]
  },
  {
    "name": "インターワールド幸手店",
    "operation_time": "",
    "holiday": "",
    "latitude": "36.05714632",
    "longitude": "139.7144119",
    "tel": "0480-47-0540",
    "address": "幸手市上高野2142-1",
    "access": "",
    "games": [
      "ボンバーガール"
    ]
  },
  {
    "name": "キャロム 所沢店",
    "operation_time": "12:00～翌3:00/祝前日、土曜日翌5:00まで",
    "holiday": "無し",
    "latitude": "35.79106583",
    "longitude": "139.5042181",
    "tel": "042-946-2160",
    "address": "所沢市下安松969-1",
    "access": "旧463号沿い",
    "games": [
      "ボンバーガール"
    ]
  },
  {
    "name": "WORLD GAME CIRCUS",
    "operation_time": "",
    "holiday": "",
    "latitude": "35.69651",
    "longitude": "139.42878",
    "tel": "042-512-5610",
    "address": "立川市羽衣町2-4-13羽衣長田ビル101",
    "access": "",
    "games": [
      "ボンバーガール"
    ]
  },
  {
    "name": "ビッグボウル杉戸",
    "operation_time": "10:00～翌1:00",
    "holiday": "無し",
    "latitude": "36.04028926",
    "longitude": "139.720837",
    "tel": "0480-34-7870",
    "address": "北葛飾郡杉戸町杉戸2338",
    "access": "東武伊勢崎線東武動物公園駅より徒歩30分 国道4号線沿い",
    "games": [
      "ボンバーガール"
    ]
  },
  {
    "name": "埼玉レジャーランド大宮ラクーン店",
    "operation_time": "",
    "holiday": "",
    "latitude": "35.90775385",
    "longitude": "139.6256741",
    "tel": "048-871-5539",
    "address": "さいたま市大宮区宮町1-60大宮ラクーン5F",
    "access": "",
    "games": [
      "ボンバーガール"
    ]
  },
  {
    "name": "タイトーステーション大宮店",
    "operation_time": "9:00～翌1:00",
    "holiday": "無し",
    "latitude": "35.907441",
    "longitude": "139.625505",
    "tel": "048-782-5461",
    "address": "さいたま市大宮区大門町1-1",
    "access": "大宮駅東口徒歩1分",
    "games": [
      "ボンバーガール"
    ]
  },
  {
    "name": "フリスポ下館",
    "operation_time": "",
    "holiday": "",
    "latitude": "36.30255879",
    "longitude": "139.9564543",
    "tel": "0296-22-7552",
    "address": "筑西市神分472",
    "access": "国道50号を下館から小山方面へ10分",
    "games": [
      "ボンバーガール"
    ]
  },
  {
    "name": "タイトーステーション国分寺店",
    "operation_time": "",
    "holiday": "",
    "latitude": "35.701889",
    "longitude": "139.480156",
    "tel": "042-401-0592",
    "address": "国分寺市本町3-5-11",
    "access": "",
    "games": [
      "ボンバーガール"
    ]
  },
  {
    "name": "Amusement&Game MAGHREB",
    "operation_time": "10:00～24:00",
    "holiday": "無し",
    "latitude": "35.624024",
    "longitude": "139.423196",
    "tel": "042-371-5556",
    "address": "多摩市落合1-39-2マグレブビル1F",
    "access": "京王線・小田急線 多摩センター駅 徒歩3分/多摩モノレール多摩センター駅 徒歩1分",
    "games": [
      "ボンバーガール"
    ]
  },
  {
    "name": "ラウンドワン府中本町駅前店",
    "operation_time": "",
    "holiday": "",
    "latitude": "35.667312",
    "longitude": "139.477387",
    "tel": "042-340-4901",
    "address": "府中市本町1-13-3カネタビル",
    "access": "",
    "games": [
      "ボンバーガール"
    ]
  },
  {
    "name": "ラウンドワン朝霞店",
    "operation_time": "",
    "holiday": "",
    "latitude": "35.79026242",
    "longitude": "139.5796756",
    "tel": "048-450-1822",
    "address": "朝霞市膝折町2-16-10",
    "access": "",
    "games": [
      "ボンバーガール"
    ]
  },
  {
    "name": "埼玉レジャーランド春日部店",
    "operation_time": "一部24時間",
    "holiday": "無し",
    "latitude": "35.95940469",
    "longitude": "139.7289621",
    "tel": "048-763-4061",
    "address": "春日部市大字増富字谷際163-1",
    "access": "国道16号線沿い春日部市増富地内",
    "games": [
      "ボンバーガール"
    ]
  },
  {
    "name": "アミューズメントクラブ浦和",
    "operation_time": "10:00～23:45",
    "holiday": "無し",
    "latitude": "35.86027333",
    "longitude": "139.6535096",
    "tel": "048-814-0200",
    "address": "さいたま市浦和区仲町1-10-7",
    "access": "浦和駅西口徒歩8分",
    "games": [
      "ボンバーガール"
    ]
  },
  {
    "name": "アドアーズ和光店",
    "operation_time": "10:00～23:30",
    "holiday": "無し",
    "latitude": "35.78829096",
    "longitude": "139.6116504",
    "tel": "048-463-5108",
    "address": "和光市本町3-5Million Annex 和光1-3F",
    "access": "和光市駅南口駅前交番前",
    "games": [
      "ボンバーガール"
    ]
  },
  {
    "name": "ギガステーション戸田店",
    "operation_time": "10:00～24:00",
    "holiday": "無し",
    "latitude": "35.83477805",
    "longitude": "139.6530213",
    "tel": "048-421-1201",
    "address": "戸田市美女木943-7",
    "access": "",
    "games": [
      "ボンバーガール"
    ]
  },
  {
    "name": "タイトーステーション和光店",
    "operation_time": "10:00～24:00",
    "holiday": "無し",
    "latitude": "35.78667068",
    "longitude": "139.613806",
    "tel": "048-465-7161",
    "address": "和光市丸山台1-4-5",
    "access": "東武東上線・和光市駅より徒歩5分",
    "games": [
      "ボンバーガール"
    ]
  },
  {
    "name": "神奈川レジャーランド厚木店",
    "operation_time": "一部24時間営業",
    "holiday": "無し",
    "latitude": "35.44802433",
    "longitude": "139.3431365",
    "tel": "050-1722-4336",
    "address": "厚木市戸室5-31-1",
    "access": "小田急本厚木駅よりバスにてアンリツ前バス停下車徒歩1分",
    "games": [
      "ボンバーガール"
    ]
  },
  {
    "name": "ラウンドワンわらび店",
    "operation_time": "",
    "holiday": "",
    "latitude": "35.83078787",
    "longitude": "139.6742521",
    "tel": "048-447-8080",
    "address": "蕨市北町5-1-6",
    "access": "",
    "games": [
      "ボンバーガール"
    ]
  },
  {
    "name": "GiGO成増",
    "operation_time": "",
    "holiday": "",
    "latitude": "35.7774666",
    "longitude": "139.6312648",
    "tel": "070-1459-3563",
    "address": "板橋区成増2-17-24五曠第6ビルB1F-1F",
    "access": "",
    "games": [
      "ボンバーガール"
    ]
  },
  {
    "name": "ラウンドワン町田店",
    "operation_time": "",
    "holiday": "",
    "latitude": "35.54409488",
    "longitude": "139.4432407",
    "tel": "042-710-0091",
    "address": "町田市森野1-13-14",
    "access": "",
    "games": [
      "ボンバーガール"
    ]
  },
  {
    "name": "シルクハット本厚木",
    "operation_time": "9:00～23:45",
    "holiday": "無し",
    "latitude": "35.44024066",
    "longitude": "139.3629959",
    "tel": "",
    "address": "厚木市中町3-4-22第二会田ビル2F",
    "access": "小田急「本厚木駅」北口より徒歩1分 第二会田ビル",
    "games": [
      "ボンバーガール"
    ]
  },
  {
    "name": "ピンクパンサー 下妻店",
    "operation_time": "12:00～24:00",
    "holiday": "無し",
    "latitude": "36.17067062",
    "longitude": "139.9664734",
    "tel": "0296-43-6880",
    "address": "下妻市小島884-10",
    "access": "国道旧294号線沿い",
    "games": [
      "ボンバーガール"
    ]
  },
  {
    "name": "東京レジャーランド吉祥寺店",
    "operation_time": "",
    "holiday": "",
    "latitude": "35.7036243",
    "longitude": "139.5786419",
    "tel": "0422-27-2200",
    "address": "武蔵野市吉祥寺本町1-3-7YSビル",
    "access": "",
    "games": [
      "ボンバーガール"
    ]
  },
  {
    "name": "ラウンドワン吉祥寺店",
    "operation_time": "",
    "holiday": "",
    "latitude": "35.706276",
    "longitude": "139.580884",
    "tel": "0422-29-1051",
    "address": "武蔵野市吉祥寺本町1-11-22",
    "access": "",
    "games": [
      "ボンバーガール"
    ]
  },
  {
    "name": "タイトーFステーション吉祥寺JOY",
    "operation_time": "",
    "holiday": "",
    "latitude": "35.70436",
    "longitude": "139.57963",
    "tel": "090-7265-2005",
    "address": "武蔵野市吉祥寺本町1-8-23河田ビル",
    "access": "",
    "games": [
      "ボンバーガール"
    ]
  },
  {
    "name": "タイトーステーション町田店",
    "operation_time": "10:00～24:00",
    "holiday": "無し",
    "latitude": "35.542593",
    "longitude": "139.448333",
    "tel": "042-739-6196",
    "address": "町田市原町田6-21-23松山ビル1F",
    "access": "JR横浜線町田駅より徒歩3分・小田急線町田駅より徒歩5分",
    "games": [
      "ボンバーガール"
    ]
  },
  {
    "name": "タイトーステーション海老名ビナウォーク店",
    "operation_time": "10:00～24:00",
    "holiday": "無し",
    "latitude": "35.452455",
    "longitude": "139.395834",
    "tel": "046-292-5160",
    "address": "海老名市中央1-18-1ビナウォーク6番館2F",
    "access": "JR相模線、相鉄線、小田急線、海老名駅より徒歩5分",
    "games": [
      "ボンバーガール"
    ]
  },
  {
    "name": "千葉レジャーランド野田店",
    "operation_time": "一部24時間営業",
    "holiday": "無し",
    "latitude": "35.97154747",
    "longitude": "139.8653487",
    "tel": "04-7120-3535",
    "address": "野田市吉春776-1",
    "access": "国道16号線沿い野田市吉春地内",
    "games": [
      "ボンバーガール"
    ]
  },
  {
    "name": "ゲームシティ川口店",
    "operation_time": "10:00～23:50",
    "holiday": "無し",
    "latitude": "35.80263316",
    "longitude": "139.7255584",
    "tel": "048-250-3855",
    "address": "川口市栄町1-10-5",
    "access": "JR川口駅東口徒歩10分",
    "games": [
      "ボンバーガール"
    ]
  },
  {
    "name": "ゲームW店",
    "operation_time": "10:00～24:00",
    "holiday": "不定休",
    "latitude": "35.72942259",
    "longitude": "139.6828924",
    "tel": "03-5983-7880",
    "address": "豊島区南長崎5-27-6",
    "access": "西武池袋線 東長崎駅より徒歩2分",
    "games": [
      "ボンバーガール"
    ]
  },
  {
    "name": "ゲームサファリ大山",
    "operation_time": "10:00～24:00",
    "holiday": "無し",
    "latitude": "35.74900603",
    "longitude": "139.7022497",
    "tel": "03-5248-4743",
    "address": "板橋区大山東町60-10パチンコやすだ2F",
    "access": "東武東上線大山駅徒歩1分",
    "games": [
      "ボンバーガール"
    ]
  },
  {
    "name": "ユーズランド越谷店",
    "operation_time": "10:00～21:00",
    "holiday": "無し",
    "latitude": "35.87763779",
    "longitude": "139.8247477",
    "tel": "048-934-3342",
    "address": "越谷市レイクタウン4-2-2イオンレイクタウンKAZE 3F",
    "access": "武蔵野線レイクタウン駅下車徒歩1分",
    "games": [
      "ボンバーガール"
    ]
  },
  {
    "name": "タイトーステーション池袋西口店",
    "operation_time": "",
    "holiday": "",
    "latitude": "35.73058948",
    "longitude": "139.709706",
    "tel": "03-6907-3560",
    "address": "豊島区西池袋1-15-9第一西池ビル",
    "access": "",
    "games": [
      "ボンバーガール"
    ]
  },
  {
    "name": "ラウンドワン池袋店",
    "operation_time": "",
    "holiday": "",
    "latitude": "35.730175",
    "longitude": "139.714846",
    "tel": "03-5928-0221",
    "address": "豊島区東池袋1-14-1池袋スクエア",
    "access": "",
    "games": [
      "ボンバーガール"
    ]
  },
  {
    "name": "GiGO総本店",
    "operation_time": "",
    "holiday": "",
    "latitude": "35.72930775",
    "longitude": "139.7150562",
    "tel": "080-7018-7351",
    "address": "豊島区東池袋1-13-6ロクマルゲート池袋B1F-3F",
    "access": "",
    "games": [
      "ボンバーガール"
    ]
  },
  {
    "name": "高田馬場ゲーセンミカド",
    "operation_time": "",
    "holiday": "",
    "latitude": "35.71273889",
    "longitude": "139.7034543",
    "tel": "03-5386-0127",
    "address": "新宿区高田馬場4-5-10",
    "access": "",
    "games": [
      "ボンバーガール"
    ]
  },
  {
    "name": "タイトーステーションBIGBOX高田馬場",
    "operation_time": "10:00～24:00",
    "holiday": "無し",
    "latitude": "35.712933",
    "longitude": "139.70419",
    "tel": "03-5272-9855",
    "address": "新宿区高田馬場1-35-3BIGBOX6F",
    "access": "西武新宿線・高田馬場駅より徒歩1分",
    "games": [
      "ボンバーガール"
    ]
  },
  {
    "name": "タイトーステーション溝の口店",
    "operation_time": "",
    "holiday": "",
    "latitude": "35.600042",
    "longitude": "139.61245",
    "tel": "044-328-9262",
    "address": "川崎市高津区溝口1-11-8",
    "access": "",
    "games": [
      "ボンバーガール"
    ]
  },
  {
    "name": "ラウンドワン草加店",
    "operation_time": "",
    "holiday": "",
    "latitude": "35.81240056",
    "longitude": "139.7878993",
    "tel": "048-920-3701",
    "address": "草加市谷塚上町204-1",
    "access": "",
    "games": [
      "ボンバーガール"
    ]
  },
  {
    "name": "ゲームファクトリーマグマ",
    "operation_time": "～24:00",
    "holiday": "無し",
    "latitude": "35.82819969",
    "longitude": "139.8024875",
    "tel": "0489-24-9800",
    "address": "草加市氷川町2125-1",
    "access": "東武伊勢崎線草加駅徒歩1分",
    "games": [
      "ボンバーガール"
    ]
  },
  {
    "name": "ゲームパニック新宿歌舞伎町",
    "operation_time": "",
    "holiday": "",
    "latitude": "35.69606337",
    "longitude": "139.7012777",
    "tel": "03-6265-9021",
    "address": "新宿区歌舞伎町1-20-1ヒューマックスパビリオン1-2F",
    "access": "",
    "games": [
      "ボンバーガール"
    ]
  },
  {
    "name": "GiGO新宿西口",
    "operation_time": "",
    "holiday": "",
    "latitude": "35.68945769",
    "longitude": "139.6973935",
    "tel": "03-3349-0257",
    "address": "新宿区西新宿1-12-5",
    "access": "",
    "games": [
      "ボンバーガール"
    ]
  },
  {
    "name": "新宿スポーツランド本館",
    "operation_time": "",
    "holiday": "",
    "latitude": "35.69316847",
    "longitude": "139.7018443",
    "tel": "03-3352-5489",
    "address": "新宿区新宿3-22-12",
    "access": "",
    "games": [
      "ボンバーガール"
    ]
  },
  {
    "name": "タイトーステーション新宿南口ゲームワールド店",
    "operation_time": "10:00～25:00",
    "holiday": "無し",
    "latitude": "35.689926",
    "longitude": "139.702372",
    "tel": "03-3226-0395",
    "address": "新宿区新宿3-35-8",
    "access": "JR・新宿駅より徒歩1分",
    "games": [
      "ボンバーガール"
    ]
  },
  {
    "name": "ラウンドワンららぽーと新三郷店",
    "operation_time": "",
    "holiday": "",
    "latitude": "35.859813",
    "longitude": "139.865774",
    "tel": "048-950-7501",
    "address": "三郷市新三郷ららシティ3-1-1ららぽーと新三郷 2F",
    "access": "",
    "games": [
      "ボンバーガール"
    ]
  },
  {
    "name": "ドラマ港北インター店",
    "operation_time": "10:00～24:00",
    "holiday": "無し",
    "latitude": "35.51925659",
    "longitude": "139.5847927",
    "tel": "045-474-6604",
    "address": "横浜市都筑区東方町321-6",
    "access": "第三京浜港北IC右側交差点左折約500M",
    "games": [
      "ボンバーガール"
    ]
  },
  {
    "name": "タイトーステーション渋谷店",
    "operation_time": "10:00～24:00",
    "holiday": "無し",
    "latitude": "35.659983",
    "longitude": "139.70204",
    "tel": "03-5467-6565",
    "address": "渋谷区渋谷1-24-12渋谷東映プラザB1F",
    "access": "JR渋谷駅・宮益坂口より徒歩1分",
    "games": [
      "ボンバーガール"
    ]
  },
  {
    "name": "ゲームパニック三郷",
    "operation_time": "",
    "holiday": "",
    "latitude": "35.84215546",
    "longitude": "139.8548102",
    "tel": "048-953-8295",
    "address": "三郷市ピアラシティ1-1-200",
    "access": "",
    "games": [
      "ボンバーガール"
    ]
  },
  {
    "name": "GiGO神楽坂",
    "operation_time": "",
    "holiday": "",
    "latitude": "35.701061",
    "longitude": "139.741994",
    "tel": "03-3260-7253",
    "address": "新宿区神楽坂2-11第2カグラヒルズ1F",
    "access": "",
    "games": [
      "ボンバーガール"
    ]
  },
  {
    "name": "GAMESPOT VERSUS",
    "operation_time": "10:00～翌1:00",
    "holiday": "無し",
    "latitude": "35.73191",
    "longitude": "139.76804",
    "tel": "03-6806-6343",
    "address": "荒川区西日暮里5-15-10",
    "access": "JR西日暮里駅徒歩5分",
    "games": [
      "ボンバーガール"
    ]
  },
  {
    "name": "ドラマ藤沢店",
    "operation_time": "10:00～24:00",
    "holiday": "無し",
    "latitude": "35.35751243",
    "longitude": "139.4682681",
    "tel": "0466-82-0328",
    "address": "藤沢市本藤沢5-6-8",
    "access": "小田急江ノ島線善行駅より徒歩15分",
    "games": [
      "ボンバーガール"
    ]
  },
  {
    "name": "ASO:VIBA!",
    "operation_time": "10:00～24:00",
    "holiday": "無し",
    "latitude": "35.64677066",
    "longitude": "139.7109583",
    "tel": "03-3444-4912",
    "address": "渋谷区恵比寿1-10-5",
    "access": "JR山手線恵比寿駅徒歩1分",
    "games": [
      "ボンバーガール"
    ]
  },
  {
    "name": "タイトーステーション上野御徒町店",
    "operation_time": "",
    "holiday": "",
    "latitude": "35.708938",
    "longitude": "139.774321",
    "tel": "03-5817-4511",
    "address": "台東区上野4-6-9湯島商事ビル",
    "access": "",
    "games": [
      "ボンバーガール"
    ]
  },
  {
    "name": "東京レジャーランド秋葉原店",
    "operation_time": "10:00～25:00",
    "holiday": "無し",
    "latitude": "35.69887947",
    "longitude": "139.7701404",
    "tel": "03-5298-1360",
    "address": "千代田区外神田1-9-5",
    "access": "JR秋葉原駅徒歩5分",
    "games": [
      "ボンバーガール"
    ]
  },
  {
    "name": "東京レジャーランド秋葉原2号店",
    "operation_time": "10:00～25:00",
    "holiday": "無し",
    "latitude": "35.70073433",
    "longitude": "139.7718424",
    "tel": "03-5209-5650",
    "address": "千代田区外神田4-3-3",
    "access": "JR秋葉原駅より徒歩5分",
    "games": [
      "ボンバーガール"
    ]
  },
  {
    "name": "タイトーステーション秋葉原店",
    "operation_time": "10:00～24:00",
    "holiday": "無し",
    "latitude": "35.70025258",
    "longitude": "139.7716985",
    "tel": "03-5289-8445",
    "address": "千代田区外神田4-2-2貴三ビル",
    "access": "JR秋葉原駅電気街口を出て徒歩3分",
    "games": [
      "ボンバーガール"
    ]
  },
  {
    "name": "Hey(タイトー)",
    "operation_time": "10:00～24:00",
    "holiday": "無し",
    "latitude": "35.698992",
    "longitude": "139.77108",
    "tel": "03-5209-2030",
    "address": "千代田区外神田1-10-5広瀬本社ビル2F",
    "access": "JR秋葉原駅電気街口を出て徒歩2分",
    "games": [
      "ボンバーガール"
    ]
  },
  {
    "name": "ゲームパニック秋葉原",
    "operation_time": "",
    "holiday": "",
    "latitude": "35.69891",
    "longitude": "139.77165",
    "tel": "03-6285-2820",
    "address": "千代田区外神田1-13-1第122東京ビル",
    "access": "",
    "games": [
      "ボンバーガール"
    ]
  },
  {
    "name": "ゲームメガつくば店",
    "operation_time": "",
    "holiday": "",
    "latitude": "36.07682559",
    "longitude": "140.1047877",
    "tel": "029-846-1200",
    "address": "つくば市小野崎177-2",
    "access": "",
    "games": [
      "ボンバーガール"
    ]
  },
  {
    "name": "ユーズランド水戸内原店",
    "operation_time": "10:00～21:00",
    "holiday": "",
    "latitude": "36.374428",
    "longitude": "140.3590138",
    "tel": "029-259-1218",
    "address": "水戸市内原2-1イオンモール水戸内原2F",
    "access": "",
    "games": [
      "ボンバーガール"
    ]
  },
  {
    "name": "東京レジャーランド亀有店",
    "operation_time": "",
    "holiday": "",
    "latitude": "35.765462",
    "longitude": "139.84798",
    "tel": "03-5680-8893",
    "address": "葛飾区亀有3-21-2",
    "access": "",
    "games": [
      "ボンバーガール"
    ]
  },
  {
    "name": "嶺宝スポーツセンター",
    "operation_time": "11:00～23:00",
    "holiday": "火曜日",
    "latitude": "36.97400283",
    "longitude": "140.8903913",
    "tel": "0246-58-8093",
    "address": "いわき市小名浜住吉字折返2-2",
    "access": "6号バイパス住吉交差点横",
    "games": [
      "ボンバーガール"
    ]
  },
  {
    "name": "スーパーウェーブ柏店",
    "operation_time": "9:00～24:00",
    "holiday": "無し",
    "latitude": "35.88165286",
    "longitude": "139.9615303",
    "tel": "04-7144-8366",
    "address": "柏市十余二249-5MEM内",
    "access": "国道16号線沿い マルハンエンタテインメントモール内",
    "games": [
      "ボンバーガール"
    ]
  },
  {
    "name": "ラウンドワン横浜駅西口店",
    "operation_time": "",
    "holiday": "",
    "latitude": "35.46393717",
    "longitude": "139.6180549",
    "tel": "045-412-0880",
    "address": "横浜市西区南幸2-8-16",
    "access": "",
    "games": [
      "ボンバーガール"
    ]
  },
  {
    "name": "タイトーステーション横浜西口五番街店",
    "operation_time": "平日10:00～23:50 土日祝日9:00～23:50",
    "holiday": "無し",
    "latitude": "35.464648",
    "longitude": "139.619593",
    "tel": "045-411-5288",
    "address": "横浜市西区南幸1-12-9",
    "access": "JR・相鉄線・東横線・みなとみらい線 横浜駅より徒歩3分",
    "games": [
      "ボンバーガール"
    ]
  },
  {
    "name": "シルクハット大船",
    "operation_time": "9:00～23:45",
    "holiday": "無し",
    "latitude": "35.35325232",
    "longitude": "139.5325488",
    "tel": "",
    "address": "鎌倉市大船1-24大船駅前ビル1-3F",
    "access": "JR大船駅徒歩1分",
    "games": [
      "ボンバーガール"
    ]
  },
  {
    "name": "タイトーステーション錦糸町楽天地店",
    "operation_time": "10:00～24:00",
    "holiday": "無し",
    "latitude": "35.696456",
    "longitude": "139.815836",
    "tel": "03-5638-0701",
    "address": "墨田区江東橋4-27-14楽天地ビルB1F",
    "access": "東京メトロ半蔵門線・錦糸町駅2番出口直通!東京楽天地ビル地下1階",
    "games": [
      "ボンバーガール"
    ]
  },
  {
    "name": "アドアーズ亀戸店",
    "operation_time": "10:00～23:45",
    "holiday": "無し",
    "latitude": "35.69873199",
    "longitude": "139.8259341",
    "tel": "03-5836-5761",
    "address": "江東区亀戸5-2-6サンエービル1-5F",
    "access": "明治通りラーメン「日高屋」隣",
    "games": [
      "ボンバーガール"
    ]
  },
  {
    "name": "シルクハット蒲田西口",
    "operation_time": "10:00～24:45",
    "holiday": "",
    "latitude": "35.56301591",
    "longitude": "139.7158447",
    "tel": "",
    "address": "大田区西蒲田7-2-3第二醍醐ビルB1-2F",
    "access": "",
    "games": [
      "ボンバーガール"
    ]
  },
  {
    "name": "namco松戸店",
    "operation_time": "",
    "holiday": "",
    "latitude": "35.783581",
    "longitude": "139.900789",
    "tel": "047-711-7274",
    "address": "松戸市松戸1230-1ピアザ松戸1F",
    "access": "",
    "games": [
      "ボンバーガール"
    ]
  },
  {
    "name": "ゲームコスモ鶴見店",
    "operation_time": "10:00～24:00",
    "holiday": "無し",
    "latitude": "35.50924389",
    "longitude": "139.6754695",
    "tel": "045-585-0030",
    "address": "横浜市鶴見区豊岡町17-4",
    "access": "JR「鶴見駅」西口徒歩1分",
    "games": [
      "ボンバーガール"
    ]
  },
  {
    "name": "ゲームガリバー柏",
    "operation_time": "8:30～23:00",
    "holiday": "無し",
    "latitude": "35.86153036",
    "longitude": "139.970926",
    "tel": "04-7164-9818",
    "address": "柏市柏1-1-11ファミリかしわB1F",
    "access": "JR柏駅東口および南口マルイ地下1階",
    "games": [
      "ボンバーガール"
    ]
  },
  {
    "name": "タイトーステーション柏店",
    "operation_time": "10:00～24:00",
    "holiday": "無し",
    "latitude": "35.86145714",
    "longitude": "139.972664",
    "tel": "04-7164-0866",
    "address": "柏市柏2-3-1",
    "access": "JR常磐線・柏駅より徒歩3分",
    "games": [
      "ボンバーガール"
    ]
  },
  {
    "name": "シルクハット川崎ダイス",
    "operation_time": "9:00～24:45",
    "holiday": "無し",
    "latitude": "35.5314121",
    "longitude": "139.7002166",
    "tel": "",
    "address": "川崎市川崎区駅前本町8ダイスビルB2F",
    "access": "JR川崎駅アゼリア地下街と直結、京急川崎駅中央口徒歩1分",
    "games": [
      "ボンバーガール"
    ]
  },
  {
    "name": "シルクハット川崎モアーズ",
    "operation_time": "8:30～24:45",
    "holiday": "無し",
    "latitude": "35.53053954",
    "longitude": "139.6996583",
    "tel": "",
    "address": "川崎市川崎区駅前本町7岡田屋モアーズ1-2F",
    "access": "川崎銀柳商店街内、マクドナルド隣",
    "games": [
      "ボンバーガール"
    ]
  },
  {
    "name": "ピンクパンサー 水戸赤塚店",
    "operation_time": "10:00～24:00",
    "holiday": "無し",
    "latitude": "36.3807337",
    "longitude": "140.4136026",
    "tel": "029-309-1983",
    "address": "水戸市河和田1-1",
    "access": "JR水戸線 赤塚駅徒歩5分 フレスポ赤塚内",
    "games": [
      "ボンバーガール"
    ]
  },
  {
    "name": "ラウンドワン南砂店",
    "operation_time": "",
    "holiday": "",
    "latitude": "35.67184786",
    "longitude": "139.8361845",
    "tel": "03-5617-6911",
    "address": "江東区南砂6-7-15トピレックプラザ4F",
    "access": "",
    "games": [
      "ボンバーガール"
    ]
  },
  {
    "name": "ピンクパンサー土浦店",
    "operation_time": "",
    "holiday": "",
    "latitude": "36.106571",
    "longitude": "140.215204",
    "tel": "029-886-6467",
    "address": "土浦市木田余4585-3",
    "access": "",
    "games": [
      "ボンバーガール"
    ]
  },
  {
    "name": "ラウンドワン川崎大師店",
    "operation_time": "",
    "holiday": "",
    "latitude": "35.53846653",
    "longitude": "139.741634",
    "tel": "044-270-1541",
    "address": "川崎市川崎区殿町1-5-1",
    "access": "",
    "games": [
      "ボンバーガール"
    ]
  },
  {
    "name": "ゲームパニックつくば",
    "operation_time": "",
    "holiday": "",
    "latitude": "36.04632758",
    "longitude": "140.1679958",
    "tel": "080-3350-1839",
    "address": "土浦市中村東1-1-1",
    "access": "",
    "games": [
      "ボンバーガール"
    ]
  },
  {
    "name": "ラウンドワンアリオ柏店",
    "operation_time": "",
    "holiday": "",
    "latitude": "35.832403",
    "longitude": "140.012023",
    "tel": "04-7190-1201",
    "address": "柏市大島田1-6-1セブンパークアリオ柏 1070",
    "access": "",
    "games": [
      "ボンバーガール"
    ]
  },
  {
    "name": "スタジオプリモ本八幡店",
    "operation_time": "",
    "holiday": "",
    "latitude": "35.72122007",
    "longitude": "139.9274269",
    "tel": "047-711-3534",
    "address": "市川市八幡2-15-10パティオ本八幡5F",
    "access": "",
    "games": [
      "ボンバーガール"
    ]
  },
  {
    "name": "ゲームメガ日立店",
    "operation_time": "10:00～24:00",
    "holiday": "無し",
    "latitude": "36.54818909",
    "longitude": "140.6305166",
    "tel": "0294-32-1983",
    "address": "日立市東多賀町5-10-10",
    "access": "常陸多賀駅徒歩5分",
    "games": [
      "ボンバーガール"
    ]
  },
  {
    "name": "大慶園",
    "operation_time": "一部24時間営業",
    "holiday": "無し",
    "latitude": "35.76304297",
    "longitude": "139.96933",
    "tel": "047-337-5001",
    "address": "市川市大町359",
    "access": "JR市川大野駅下車 市川植物園行きバス乗車 市川斎場前下車徒歩10分・北総線大町駅から車5分",
    "games": [
      "ボンバーガール"
    ]
  },
  {
    "name": "ラウンドワン市川鬼高店",
    "operation_time": "",
    "holiday": "",
    "latitude": "35.711239",
    "longitude": "139.927465",
    "tel": "047-320-3801",
    "address": "市川市鬼高4-1-3",
    "access": "",
    "games": [
      "ボンバーガール"
    ]
  },
  {
    "name": "ゲームプラザセントラル浦安店",
    "operation_time": "10:00～24:00",
    "holiday": "無し",
    "latitude": "35.66516962",
    "longitude": "139.8933569",
    "tel": "0473-55-2447",
    "address": "浦安市北栄1-16-15",
    "access": "地下鉄東西線浦安駅前",
    "games": [
      "ボンバーガール"
    ]
  },
  {
    "name": "アミューズメントパレスワンダーヴュー阿見店",
    "operation_time": "",
    "holiday": "",
    "latitude": "36.04223085",
    "longitude": "140.2100215",
    "tel": "0476-23-0561",
    "address": "稲敷郡阿見町大字阿見2958ショッピングセンターマイ･アミ2F",
    "access": "",
    "games": [
      "ボンバーガール"
    ]
  },
  {
    "name": "タイトーFステーション市川妙典店",
    "operation_time": "施設の営業時間に準じる",
    "holiday": "施設の営業日に準じる",
    "latitude": "35.69246485",
    "longitude": "139.9267286",
    "tel": "047-318-3933",
    "address": "市川市妙典4-1-1イオン市川妙典店2番街2F",
    "access": "",
    "games": [
      "ボンバーガール"
    ]
  },
  {
    "name": "アミューズビバ",
    "operation_time": "",
    "holiday": "",
    "latitude": "36.40636031",
    "longitude": "140.5317325",
    "tel": "029-274-7311",
    "address": "ひたちなか市東大島2-11-11-1Fゲームコーナー",
    "access": "勝田駅東口より北へ1km",
    "games": [
      "ボンバーガール"
    ]
  },
  {
    "name": "ゲームメガ水戸けやき台店",
    "operation_time": "10:00～24:00",
    "holiday": "無し",
    "latitude": "36.33805576",
    "longitude": "140.4832773",
    "tel": "029-247-1983",
    "address": "水戸市酒門町3276-1",
    "access": "50号バイパス沿い",
    "games": [
      "ボンバーガール"
    ]
  },
  {
    "name": "タイトーステーション船橋店",
    "operation_time": "",
    "holiday": "",
    "latitude": "35.699888",
    "longitude": "139.98597",
    "tel": "047-436-8135",
    "address": "船橋市本町1-6-1",
    "access": "",
    "games": [
      "ボンバーガール"
    ]
  },
  {
    "name": "アミューズメントエース津田沼",
    "operation_time": "9:00～24:00",
    "holiday": "無し",
    "latitude": "35.69228053",
    "longitude": "140.0201572",
    "tel": "047-475-8918",
    "address": "船橋市前原西2-15-1ファミービル1-3F",
    "access": "JR「津田沼駅」下車北口より徒歩1分",
    "games": [
      "ボンバーガール"
    ]
  },
  {
    "name": "ラッキーバッティングドーム",
    "operation_time": "9:00～23:50",
    "holiday": "無し",
    "latitude": "35.72444576",
    "longitude": "140.0674286",
    "tel": "047-458-8208",
    "address": "八千代市大和田新田1088",
    "access": "東葉高速鉄道八千代緑が丘駅徒歩10分",
    "games": [
      "ボンバーガール"
    ]
  },
  {
    "name": "ラッキー佐倉店",
    "operation_time": "10:00～23:45",
    "holiday": "無し",
    "latitude": "35.71839979",
    "longitude": "140.1362206",
    "tel": "043-460-5165",
    "address": "佐倉市井野1475",
    "access": "京成線勝田台駅下車徒歩10分 国道296号沿い",
    "games": [
      "ボンバーガール"
    ]
  },
  {
    "name": "スポーツウェーブ鉄腕24稲毛長沼店",
    "operation_time": "一部24時間営業",
    "holiday": "無し",
    "latitude": "35.66179317",
    "longitude": "140.1264239",
    "tel": "043-215-5560",
    "address": "千葉市稲毛区長沼原町697",
    "access": "東関東自動車道 千葉北ICから約5分 千葉総合運動場そば",
    "games": [
      "ボンバーガール"
    ]
  },
  {
    "name": "イスカンダル木更津店",
    "operation_time": "10:00～24:00",
    "holiday": "無し",
    "latitude": "35.36956684",
    "longitude": "139.9172944",
    "tel": "0120-010-267",
    "address": "木更津市潮見4-1-2",
    "access": "木更津市役所より車で1分",
    "games": [
      "ボンバーガール"
    ]
  },
  {
    "name": "ラッキー中央店(フェリシダ)",
    "operation_time": "9:00～24:50",
    "holiday": "無し",
    "latitude": "35.61028144",
    "longitude": "140.1182438",
    "tel": "043-222-5610",
    "address": "千葉市中央区富士見2-8-1",
    "access": "JR千葉駅より徒歩5分",
    "games": [
      "ボンバーガール"
    ]
  },
  {
    "name": "ゲームチャリオット五井店",
    "operation_time": "10:00～24:00",
    "holiday": "無し",
    "latitude": "35.51363106",
    "longitude": "140.0899562",
    "tel": "0436-23-5533",
    "address": "市原市五井中央西2-1-2",
    "access": "JR五井駅西口駅前",
    "games": [
      "ボンバーガール"
    ]
  },
  {
    "name": "スポーツウェーブ鉄腕24浜野店",
    "operation_time": "一部24時間営業",
    "holiday": "無し",
    "latitude": "35.55423187",
    "longitude": "140.1264305",
    "tel": "043-300-8033",
    "address": "千葉市中央区浜野町1025-59",
    "access": "館山自動車道蘇我ICより車で8分",
    "games": [
      "ボンバーガール"
    ]
  },
  {
    "name": "ラウンドワン市原店",
    "operation_time": "",
    "holiday": "",
    "latitude": "35.54749256",
    "longitude": "140.1233239",
    "tel": "0436-44-8801",
    "address": "市原市八幡北町3-5-1",
    "access": "",
    "games": [
      "ボンバーガール"
    ]
  },
  {
    "name": "フリスポ佐原",
    "operation_time": "",
    "holiday": "",
    "latitude": "35.90115035",
    "longitude": "140.493442",
    "tel": "0478-54-6160",
    "address": "香取市佐原イ-4200",
    "access": "",
    "games": [
      "ボンバーガール"
    ]
  },
  {
    "name": "千葉レジャーランド成東店",
    "operation_time": "一部24時間営業",
    "holiday": "無し",
    "latitude": "35.58828462",
    "longitude": "140.3904243",
    "tel": "047-580-1777",
    "address": "山武市姫島111-1",
    "access": "国道126号線成東町姫島地内ローソン奥",
    "games": [
      "ボンバーガール"
    ]
  }
]