[
  {
    "name": "サープラ鹿屋あそびタウン",
    "operation_time": "",
    "holiday": "",
    "latitude": "31.388753",
    "longitude": "130.898",
    "tel": "0994-65-5911",
    "address": "肝属郡肝付町富山1008-5",
    "access": "",
    "games": [
      "ボンバーマン・ザ・メダル"
    ]
  },
  {
    "name": "ラウンドワン札幌白石本通店",
    "operation_time": "",
    "holiday": "",
    "latitude": "43.03673108",
    "longitude": "141.4328227",
    "tel": "011-865-8051",
    "address": "札幌市白石区本通-16-北1-50",
    "access": "",
    "games": [
      "ボンバーマン・ザ・メダル"
    ]
  },
  {
    "name": "ラウンドワン加古川店",
    "operation_time": "",
    "holiday": "",
    "latitude": "34.74708002",
    "longitude": "134.836935",
    "tel": "0794-29-2513",
    "address": "加古川市尾上町安田字小河原325番6号",
    "access": "",
    "games": [
      "ボンバーマン・ザ・メダル"
    ]
  },
  {
    "name": "ゲームパニック堺",
    "operation_time": "10:00～23:45",
    "holiday": "無し",
    "latitude": "34.597817",
    "longitude": "135.447433",
    "tel": "072-224-8295",
    "address": "堺市堺区築港八幡町1-1堺浜シーサイド内堺浜えんため館",
    "access": "南海バス20系統「堺市内北回り」 堺駅西口→堺浜シーサイドステージ約17分 堺東駅→堺浜シーサイドステージ約25分",
    "games": [
      "ボンバーマン・ザ・メダル"
    ]
  },
  {
    "name": "エースレーン堅田",
    "operation_time": "10:00～23:45",
    "holiday": "無し",
    "latitude": "35.12458935",
    "longitude": "135.9194764",
    "tel": "077-571-1226",
    "address": "大津市今堅田2-40-10ACT堅田ビル2F",
    "access": "JR湖西線堅田駅下車徒歩10分",
    "games": [
      "ボンバーマン・ザ・メダル"
    ]
  },
  {
    "name": "ラウンドワンモレラ岐阜店",
    "operation_time": "",
    "holiday": "",
    "latitude": "35.455121",
    "longitude": "136.672955",
    "tel": "058-323-6600",
    "address": "本巣市三橋1100",
    "access": "",
    "games": [
      "ボンバーマン・ザ・メダル"
    ]
  },
  {
    "name": "ラウンドワンスタジアム仙台泉店",
    "operation_time": "",
    "holiday": "",
    "latitude": "38.35192551",
    "longitude": "140.8797545",
    "tel": "022-347-4471",
    "address": "仙台市泉区大沢2-12-4仙台泉インターシティ1F",
    "access": "",
    "games": [
      "ボンバーマン・ザ・メダル"
    ]
  },
  {
    "name": "群馬レジャーランド太田店",
    "operation_time": "一部24時間営業",
    "holiday": "無し",
    "latitude": "36.26802219",
    "longitude": "139.3761382",
    "tel": "0276-47-8030",
    "address": "太田市西矢島町162-2",
    "access": "",
    "games": [
      "ボンバーマン・ザ・メダル"
    ]
  },
  {
    "name": "ラウンドワン富士店",
    "operation_time": "",
    "holiday": "",
    "latitude": "35.15310644",
    "longitude": "138.6938016",
    "tel": "0545-51-3636",
    "address": "富士市八代町4-15",
    "access": "",
    "games": [
      "ボンバーマン・ザ・メダル"
    ]
  },
  {
    "name": "ラウンドワンさいたま･鴻巣店",
    "operation_time": "",
    "holiday": "",
    "latitude": "36.08064011",
    "longitude": "139.4902201",
    "tel": "048-595-2001",
    "address": "鴻巣市箕田3163-7",
    "access": "",
    "games": [
      "ボンバーマン・ザ・メダル"
    ]
  },
  {
    "name": "ラウンドワン入間店",
    "operation_time": "",
    "holiday": "",
    "latitude": "35.82812299",
    "longitude": "139.3755366",
    "tel": "042-960-1521",
    "address": "入間市小谷田3-7-25",
    "access": "",
    "games": [
      "ボンバーマン・ザ・メダル"
    ]
  },
  {
    "name": "千葉レジャーランド野田店",
    "operation_time": "一部24時間営業",
    "holiday": "無し",
    "latitude": "35.97154747",
    "longitude": "139.8653487",
    "tel": "04-7120-3535",
    "address": "野田市吉春776-1",
    "access": "国道16号線沿い野田市吉春地内",
    "games": [
      "ボンバーマン・ザ・メダル"
    ]
  },
  {
    "name": "namco王子サンスクエア店",
    "operation_time": "",
    "holiday": "",
    "latitude": "35.7529261",
    "longitude": "139.7377633",
    "tel": "03-5959-9830",
    "address": "北区王子1-4-1サンスクエア2F",
    "access": "",
    "games": [
      "ボンバーマン・ザ・メダル"
    ]
  },
  {
    "name": "サープラ横浜あそびタウン",
    "operation_time": "9:00～24:00",
    "holiday": "無し",
    "latitude": "35.55234069",
    "longitude": "139.579585",
    "tel": "045-914-7386",
    "address": "横浜市都筑区中川中央1-25ノースポートモール6F",
    "access": "横浜市営地下鉄センター北駅ノースポートモール6F",
    "games": [
      "ボンバーマン・ザ・メダル"
    ]
  },
  {
    "name": "タイトーステーションBIGFUN平和島店",
    "operation_time": "",
    "holiday": "",
    "latitude": "35.586122",
    "longitude": "139.740355",
    "tel": "03-5762-7446",
    "address": "大田区平和島1-1-1BIGFUN平和島3F",
    "access": "",
    "games": [
      "ボンバーマン・ザ・メダル"
    ]
  },
  {
    "name": "ゲームパニックつくば",
    "operation_time": "",
    "holiday": "",
    "latitude": "36.04632758",
    "longitude": "140.1679958",
    "tel": "080-3350-1839",
    "address": "土浦市中村東1-1-1",
    "access": "",
    "games": [
      "ボンバーマン・ザ・メダル"
    ]
  },
  {
    "name": "ラウンドワン市川鬼高店",
    "operation_time": "",
    "holiday": "",
    "latitude": "35.711239",
    "longitude": "139.927465",
    "tel": "047-320-3801",
    "address": "市川市鬼高4-1-3",
    "access": "",
    "games": [
      "ボンバーマン・ザ・メダル"
    ]
  },
  {
    "name": "ラウンドワン市原店",
    "operation_time": "",
    "holiday": "",
    "latitude": "35.54749256",
    "longitude": "140.1233239",
    "tel": "0436-44-8801",
    "address": "市原市八幡北町3-5-1",
    "access": "",
    "games": [
      "ボンバーマン・ザ・メダル"
    ]
  }
]