[
  {
    "name": "ラウンドワン福岡天神店",
    "operation_time": "",
    "holiday": "",
    "latitude": "33.58960223",
    "longitude": "130.3968402",
    "tel": "092-720-8101",
    "address": "福岡市中央区天神2-6-12",
    "access": "",
    "games": [
      "チェイスチェイスジョーカーズ"
    ]
  },
  {
    "name": "ラウンドワン博多半道橋店",
    "operation_time": "",
    "holiday": "",
    "latitude": "33.58394157",
    "longitude": "130.4382666",
    "tel": "092-475-6611",
    "address": "福岡市博多区半道橋2-2-8",
    "access": "",
    "games": [
      "チェイスチェイスジョーカーズ"
    ]
  },
  {
    "name": "ラウンドワン佐賀店",
    "operation_time": "",
    "holiday": "",
    "latitude": "33.27533631",
    "longitude": "130.3015536",
    "tel": "0952-36-7070",
    "address": "佐賀市兵庫北4-2-1",
    "access": "",
    "games": [
      "チェイスチェイスジョーカーズ"
    ]
  },
  {
    "name": "ラウンドワン大野城店",
    "operation_time": "",
    "holiday": "",
    "latitude": "33.54646948",
    "longitude": "130.4822214",
    "tel": "092-504-7411",
    "address": "大野城市御笠川1-18-16",
    "access": "",
    "games": [
      "チェイスチェイスジョーカーズ"
    ]
  },
  {
    "name": "G-STAGE小倉店",
    "operation_time": "10:00～20:00",
    "holiday": "無し",
    "latitude": "33.88758128",
    "longitude": "130.8847829",
    "tel": "093-551-3133",
    "address": "北九州市小倉北区浅野2-14-5",
    "access": "小倉駅前あるあるシティ2F",
    "games": [
      "チェイスチェイスジョーカーズ"
    ]
  },
  {
    "name": "パスカワールドグリーンランド",
    "operation_time": "10:00～翌3:00",
    "holiday": "無し",
    "latitude": "32.98790587",
    "longitude": "130.4711246",
    "tel": "0968-69-3001",
    "address": "荒尾市本井手1574-54",
    "access": "三井グリーンランドウルトラマンランド横",
    "games": [
      "チェイスチェイスジョーカーズ"
    ]
  },
  {
    "name": "ラウンドワン鹿児島宇宿店",
    "operation_time": "",
    "holiday": "",
    "latitude": "31.54388304",
    "longitude": "130.5427759",
    "tel": "099-284-0655",
    "address": "鹿児島市宇宿2-2-2",
    "access": "",
    "games": [
      "チェイスチェイスジョーカーズ"
    ]
  },
  {
    "name": "トライセン萩原店",
    "operation_time": "ボウリングコーナー:10:00～24:00 ゲームコーナー:7:00～翌3:00",
    "holiday": "無し",
    "latitude": "33.249338",
    "longitude": "131.643415",
    "tel": "097-556-2188",
    "address": "大分市萩原4-227-1ACS内3F",
    "access": "臨界産業道路沿い 大洲総合運動公園近く",
    "games": [
      "チェイスチェイスジョーカーズ"
    ]
  },
  {
    "name": "ラウンドワン広島店",
    "operation_time": "",
    "holiday": "",
    "latitude": "34.39365895",
    "longitude": "132.4600423",
    "tel": "082-545-8910",
    "address": "広島市中区立町3-11",
    "access": "",
    "games": [
      "チェイスチェイスジョーカーズ"
    ]
  },
  {
    "name": "アミパラがいな店",
    "operation_time": "10:00 ～ 24:00",
    "holiday": "無し",
    "latitude": "35.43797411",
    "longitude": "133.3392651",
    "tel": "0859-39-1800",
    "address": "米子市日ノ出町1-8-13",
    "access": "米子しんまち天満屋から南西へ300m",
    "games": [
      "チェイスチェイスジョーカーズ"
    ]
  },
  {
    "name": "アミューズメントパークMGキスケ店",
    "operation_time": "",
    "holiday": "無し",
    "latitude": "33.84135404",
    "longitude": "132.753158",
    "tel": "089-933-2737",
    "address": "松山市宮田町4キスケボール1F内ゲームコーナー",
    "access": "JR松山駅より徒歩3分",
    "games": [
      "チェイスチェイスジョーカーズ"
    ]
  },
  {
    "name": "ラウンドワン福山店",
    "operation_time": "",
    "holiday": "",
    "latitude": "34.489155",
    "longitude": "133.3925782",
    "tel": "084-973-9891",
    "address": "福山市明神町1-9-28",
    "access": "",
    "games": [
      "チェイスチェイスジョーカーズ"
    ]
  },
  {
    "name": "ファンタジスタ",
    "operation_time": "12:00～24:00",
    "holiday": "店舗にお問合わせください",
    "latitude": "34.5583269",
    "longitude": "133.6767549",
    "tel": "086-526-0438",
    "address": "倉敷市新倉敷駅前5-194",
    "access": "JR西日本山陽本線「新倉敷」駅から南西に徒歩10分",
    "games": [
      "チェイスチェイスジョーカーズ"
    ]
  },
  {
    "name": "ラウンドワン岡山妹尾店",
    "operation_time": "",
    "holiday": "",
    "latitude": "34.62318926",
    "longitude": "133.8694608",
    "tel": "086-282-8851",
    "address": "岡山市南区妹尾3413-1",
    "access": "",
    "games": [
      "チェイスチェイスジョーカーズ"
    ]
  },
  {
    "name": "ラウンドワン札幌北21条店",
    "operation_time": "",
    "holiday": "",
    "latitude": "43.08681907",
    "longitude": "141.3495671",
    "tel": "011-733-8801",
    "address": "札幌市東区北21条東1-1-21",
    "access": "",
    "games": [
      "チェイスチェイスジョーカーズ"
    ]
  },
  {
    "name": "ラウンドワン札幌すすきの店",
    "operation_time": "",
    "holiday": "",
    "latitude": "43.05431311",
    "longitude": "141.3540587",
    "tel": "011-520-1022",
    "address": "札幌市中央区南五条西3-6-1札幌東宝公楽ビル",
    "access": "",
    "games": [
      "チェイスチェイスジョーカーズ"
    ]
  },
  {
    "name": "ラウンドワン高松店",
    "operation_time": "",
    "holiday": "",
    "latitude": "34.33898638",
    "longitude": "134.0669994",
    "tel": "087-812-6115",
    "address": "高松市松島町2-7-43",
    "access": "",
    "games": [
      "チェイスチェイスジョーカーズ"
    ]
  },
  {
    "name": "ラウンドワン旭川店",
    "operation_time": "",
    "holiday": "",
    "latitude": "43.78651521",
    "longitude": "142.397308",
    "tel": "0166-49-5071",
    "address": "旭川市永山3条1-4-7",
    "access": "",
    "games": [
      "チェイスチェイスジョーカーズ"
    ]
  },
  {
    "name": "ゲームアイビス太子店",
    "operation_time": "10:00～24:00",
    "holiday": "無し",
    "latitude": "34.83203126",
    "longitude": "134.6001053",
    "tel": "0792-77-2320",
    "address": "揖保郡太子町太田2148-1",
    "access": "姫路バイパス太子ランプより相生方面へ車で5分",
    "games": [
      "チェイスチェイスジョーカーズ"
    ]
  },
  {
    "name": "あそVIVA本店",
    "operation_time": "9:00～24:00",
    "holiday": "無し",
    "latitude": "35.28971907",
    "longitude": "135.1348229",
    "tel": "0773-25-5055",
    "address": "福知山市字堀小字上高田2146-1あそVIVA1F",
    "access": "",
    "games": [
      "チェイスチェイスジョーカーズ"
    ]
  },
  {
    "name": "ラウンドワン加古川店",
    "operation_time": "",
    "holiday": "",
    "latitude": "34.74708002",
    "longitude": "134.836935",
    "tel": "0794-29-2513",
    "address": "加古川市尾上町安田字小河原325番6号",
    "access": "",
    "games": [
      "チェイスチェイスジョーカーズ"
    ]
  },
  {
    "name": "GiGOイオンモール苫小牧",
    "operation_time": "ゲームコーナー9:00～24:00 / メダルコーナー9:00～23:30",
    "holiday": "無し",
    "latitude": "42.65619751",
    "longitude": "141.6419704",
    "tel": "0144-52-1212",
    "address": "苫小牧市柳町3-1-20イオンモール苫小牧2F",
    "access": "JR苫小牧駅よりバス20分",
    "games": [
      "チェイスチェイスジョーカーズ"
    ]
  },
  {
    "name": "アミューズメント ミール",
    "operation_time": "10:00～24:00",
    "holiday": "無し",
    "latitude": "34.88047252",
    "longitude": "135.2295927",
    "tel": "0795-64-5678",
    "address": "三田市対中町5-21",
    "access": "神戸電鉄三田本町駅下車国道176号線側へ徒歩5分。車の場合はガリバー三田店より176号を三田方面へ、ブックプラザ三田店の向かい。",
    "games": [
      "チェイスチェイスジョーカーズ"
    ]
  },
  {
    "name": "バイパスレジャーランド藤江本館",
    "operation_time": "一部24時間営業",
    "holiday": "無し",
    "latitude": "36.58397239",
    "longitude": "136.621523",
    "tel": "076-268-3798",
    "address": "金沢市藤江南2-41",
    "access": "国道8号線沿い藤江交差点近く",
    "games": [
      "チェイスチェイスジョーカーズ"
    ]
  },
  {
    "name": "福井レジャーランド板垣店",
    "operation_time": "",
    "holiday": "",
    "latitude": "36.042283",
    "longitude": "136.233748",
    "tel": "0776-33-5510",
    "address": "福井市下馬3-112",
    "access": "",
    "games": [
      "チェイスチェイスジョーカーズ"
    ]
  },
  {
    "name": "ラウンドワン金沢店",
    "operation_time": "",
    "holiday": "",
    "latitude": "36.54211559",
    "longitude": "136.626054",
    "tel": "076-245-1850",
    "address": "金沢市横川6-120-1",
    "access": "",
    "games": [
      "チェイスチェイスジョーカーズ"
    ]
  },
  {
    "name": "ラウンドワン伊丹店",
    "operation_time": "",
    "holiday": "",
    "latitude": "34.77891327",
    "longitude": "135.3932572",
    "tel": "0727-75-4150",
    "address": "伊丹市昆陽7-29",
    "access": "",
    "games": [
      "チェイスチェイスジョーカーズ"
    ]
  },
  {
    "name": "あそVIVA阪急茨木店",
    "operation_time": "",
    "holiday": "",
    "latitude": "34.817929",
    "longitude": "135.576325",
    "tel": "072-631-6606",
    "address": "茨木市永代町6-2スポーツプラザ茨木2F",
    "access": "",
    "games": [
      "チェイスチェイスジョーカーズ"
    ]
  },
  {
    "name": "ラウンドワン京都河原町店",
    "operation_time": "",
    "holiday": "",
    "latitude": "35.00699573",
    "longitude": "135.7685149",
    "tel": "075-213-8400",
    "address": "京都市中京区河原町通り三条下ル山崎町250",
    "access": "",
    "games": [
      "チェイスチェイスジョーカーズ"
    ]
  },
  {
    "name": "ラウンドワン守口店",
    "operation_time": "",
    "holiday": "",
    "latitude": "34.7562488",
    "longitude": "135.5886793",
    "tel": "06-6907-9270",
    "address": "守口市佐太東町2-6-14ジャガーグリーン2F",
    "access": "",
    "games": [
      "チェイスチェイスジョーカーズ"
    ]
  },
  {
    "name": "ラウンドワン堺駅前店",
    "operation_time": "",
    "holiday": "",
    "latitude": "34.58340412",
    "longitude": "135.468425",
    "tel": "072-222-0120",
    "address": "堺市堺区戎島町4-44-3",
    "access": "",
    "games": [
      "チェイスチェイスジョーカーズ"
    ]
  },
  {
    "name": "ラウンドワン岸和田店",
    "operation_time": "",
    "holiday": "",
    "latitude": "34.45649962",
    "longitude": "135.3885278",
    "tel": "072-429-1100",
    "address": "岸和田市八阪町2-11-1",
    "access": "",
    "games": [
      "チェイスチェイスジョーカーズ"
    ]
  },
  {
    "name": "モンキートリック",
    "operation_time": "10:00～24:00",
    "holiday": "無し",
    "latitude": "34.78316526",
    "longitude": "135.628799",
    "tel": "072-835-6361",
    "address": "寝屋川市香里南之町32-5",
    "access": "京阪本線香里園駅下車徒歩2分",
    "games": [
      "チェイスチェイスジョーカーズ"
    ]
  },
  {
    "name": "ラウンドワン堺中央環状店",
    "operation_time": "",
    "holiday": "",
    "latitude": "34.55707895",
    "longitude": "135.5362412",
    "tel": "072-253-9559",
    "address": "堺市東区石原町2-241",
    "access": "",
    "games": [
      "チェイスチェイスジョーカーズ"
    ]
  },
  {
    "name": "トヤマレジャーランド呉羽店",
    "operation_time": "一部24時間営業",
    "holiday": "無し",
    "latitude": "36.71545083",
    "longitude": "137.1579046",
    "tel": "076-434-5336",
    "address": "富山市高木字貝塚2054",
    "access": "県道44号線沿い呉羽本町交差点を富山方面方向に車で3分",
    "games": [
      "チェイスチェイスジョーカーズ"
    ]
  },
  {
    "name": "滋賀レジャーランド大津店",
    "operation_time": "",
    "holiday": "",
    "latitude": "35.003875",
    "longitude": "135.883431",
    "tel": "077-548-7851",
    "address": "大津市におの浜3-1-43",
    "access": "",
    "games": [
      "チェイスチェイスジョーカーズ"
    ]
  },
  {
    "name": "ラウンドワン青森店",
    "operation_time": "",
    "holiday": "",
    "latitude": "40.79867718",
    "longitude": "140.7483213",
    "tel": "017-762-3591",
    "address": "青森市浜田3-1-1",
    "access": "",
    "games": [
      "チェイスチェイスジョーカーズ"
    ]
  },
  {
    "name": "プレイランド黒部",
    "operation_time": "5:00～24:00",
    "holiday": "無し",
    "latitude": "36.88891002",
    "longitude": "137.4646533",
    "tel": "0765-52-5141",
    "address": "黒部市沓掛645",
    "access": "国道8号線沿い黒部IC入口交差点近く",
    "games": [
      "チェイスチェイスジョーカーズ"
    ]
  },
  {
    "name": "アミューズメントスペースコミ丸アリババ大垣店",
    "operation_time": "10:00～24:00",
    "holiday": "無し",
    "latitude": "35.38404596",
    "longitude": "136.5956139",
    "tel": "050-3575-0530",
    "address": "大垣市池尻町940-1",
    "access": "関が原バイパス沿い",
    "games": [
      "チェイスチェイスジョーカーズ"
    ]
  },
  {
    "name": "A.Cグランド",
    "operation_time": "9:00～24:00",
    "holiday": "無し",
    "latitude": "35.38308553",
    "longitude": "136.7461998",
    "tel": "058-275-0351",
    "address": "岐阜市茜部大川1-77",
    "access": "名鉄新岐阜駅15分",
    "games": [
      "チェイスチェイスジョーカーズ"
    ]
  },
  {
    "name": "アミューズメントスペースコミ丸四日市店",
    "operation_time": "",
    "holiday": "",
    "latitude": "34.96631",
    "longitude": "136.61633",
    "tel": "059-325-7685",
    "address": "四日市市鵜の森1-3-19",
    "access": "",
    "games": [
      "チェイスチェイスジョーカーズ"
    ]
  },
  {
    "name": "アピナ四日市店",
    "operation_time": "",
    "holiday": "",
    "latitude": "34.94000426",
    "longitude": "136.6070666",
    "tel": "059-349-5011",
    "address": "四日市市泊小柳町4-34",
    "access": "",
    "games": [
      "チェイスチェイスジョーカーズ"
    ]
  },
  {
    "name": "ラウンドワン名古屋西春店",
    "operation_time": "",
    "holiday": "",
    "latitude": "35.25506282",
    "longitude": "136.8439405",
    "tel": "0568-26-4001",
    "address": "北名古屋市宇福寺神明15",
    "access": "",
    "games": [
      "チェイスチェイスジョーカーズ"
    ]
  },
  {
    "name": "ラウンドワンみえ川越IC店",
    "operation_time": "",
    "holiday": "",
    "latitude": "35.02319916",
    "longitude": "136.6836502",
    "tel": "059-361-2130",
    "address": "三重郡川越町大字南福崎851-1",
    "access": "",
    "games": [
      "チェイスチェイスジョーカーズ"
    ]
  },
  {
    "name": "プレイハウスエリナ",
    "operation_time": "",
    "holiday": "",
    "latitude": "37.71741366",
    "longitude": "138.8908286",
    "tel": "0256-82-4541",
    "address": "新潟市西蒲区津雲田640",
    "access": "JR「岩室駅」より車で5分。駅より国道116号を南下し国道沿い右側。",
    "games": [
      "チェイスチェイスジョーカーズ"
    ]
  },
  {
    "name": "ラウンドワン中川一号線店",
    "operation_time": "",
    "holiday": "",
    "latitude": "35.12338322",
    "longitude": "136.8636484",
    "tel": "052-665-5353",
    "address": "名古屋市中川区法蔵町2-23",
    "access": "",
    "games": [
      "チェイスチェイスジョーカーズ"
    ]
  },
  {
    "name": "コムテックスクウェア金山",
    "operation_time": "9:00～24:00",
    "holiday": "",
    "latitude": "35.14401179",
    "longitude": "136.8999767",
    "tel": "052-321-5601",
    "address": "名古屋市中区金山1-16-8",
    "access": "名鉄金山駅徒歩3分",
    "games": [
      "チェイスチェイスジョーカーズ"
    ]
  },
  {
    "name": "ADXマミー春日井出川店",
    "operation_time": "",
    "holiday": "",
    "latitude": "35.26729521",
    "longitude": "137.012739",
    "tel": "0568-54-8590",
    "address": "春日井市不二が丘1-5",
    "access": "",
    "games": [
      "チェイスチェイスジョーカーズ"
    ]
  },
  {
    "name": "ゲームチャオ松阪店",
    "operation_time": "10:00～24:00",
    "holiday": "無し",
    "latitude": "34.58867016",
    "longitude": "136.5257638",
    "tel": "0598-53-3918",
    "address": "松阪市船江町782",
    "access": "国道42号線沿い、松阪駅から車で5分",
    "games": [
      "チェイスチェイスジョーカーズ"
    ]
  },
  {
    "name": "アピナ長岡店",
    "operation_time": "10:00～24:00",
    "holiday": "無し",
    "latitude": "37.45794202",
    "longitude": "138.8125194",
    "tel": "0258-22-5510",
    "address": "長岡市堺東町22",
    "access": "国道8号線長岡バイパス堺交差点近く",
    "games": [
      "チェイスチェイスジョーカーズ"
    ]
  },
  {
    "name": "ラウンドワン鳴海店",
    "operation_time": "",
    "holiday": "",
    "latitude": "35.09913151",
    "longitude": "136.9528735",
    "tel": "052-899-0700",
    "address": "名古屋市緑区鳴海町字杜若28",
    "access": "",
    "games": [
      "チェイスチェイスジョーカーズ"
    ]
  },
  {
    "name": "ラウンドワン長野店",
    "operation_time": "",
    "holiday": "",
    "latitude": "36.65105714",
    "longitude": "138.225192",
    "tel": "026-254-5801",
    "address": "長野市大字東和田827-6",
    "access": "",
    "games": [
      "チェイスチェイスジョーカーズ"
    ]
  },
  {
    "name": "M'sPARK刈谷店",
    "operation_time": "10:00～24:00",
    "holiday": "無し",
    "latitude": "35.00549344",
    "longitude": "137.0014494",
    "tel": "0566-27-5822",
    "address": "刈谷市稲場町3-206",
    "access": "155号沿い",
    "games": [
      "チェイスチェイスジョーカーズ"
    ]
  },
  {
    "name": "M'Sパーク豊田店",
    "operation_time": "一部24時間営業",
    "holiday": "",
    "latitude": "35.0565113",
    "longitude": "137.1404324",
    "tel": "0565-71-0027",
    "address": "豊田市寿町3-10-11",
    "access": "愛知環状鉄道三河豊田駅10分。名鉄三河線土橋駅より徒歩10分。",
    "games": [
      "チェイスチェイスジョーカーズ"
    ]
  },
  {
    "name": "ADXマミー岡崎店",
    "operation_time": "",
    "holiday": "",
    "latitude": "34.97692806",
    "longitude": "137.161659",
    "tel": "0564-83-6262",
    "address": "岡崎市井田新町6-1",
    "access": "",
    "games": [
      "チェイスチェイスジョーカーズ"
    ]
  },
  {
    "name": "テクノワールド",
    "operation_time": "店舗にてご確認ください",
    "holiday": "無し",
    "latitude": "39.179225",
    "longitude": "141.162155",
    "tel": "0197-47-3619",
    "address": "奥州市江刺愛宕梁川127-1",
    "access": "",
    "games": [
      "チェイスチェイスジョーカーズ"
    ]
  },
  {
    "name": "ラウンドワン豊橋店",
    "operation_time": "",
    "holiday": "",
    "latitude": "34.7239242",
    "longitude": "137.4323261",
    "tel": "0532-65-2212",
    "address": "豊橋市大岩町字岩田27-2",
    "access": "",
    "games": [
      "チェイスチェイスジョーカーズ"
    ]
  },
  {
    "name": "群馬レジャーランド渋川店",
    "operation_time": "",
    "holiday": "",
    "latitude": "36.4742053",
    "longitude": "139.0154654",
    "tel": "0279-25-0718",
    "address": "渋川市八木原1364",
    "access": "",
    "games": [
      "チェイスチェイスジョーカーズ"
    ]
  },
  {
    "name": "群馬レジャーランド高崎駅東口店",
    "operation_time": "一部24時間営業",
    "holiday": "無し",
    "latitude": "36.32992086",
    "longitude": "139.0128661",
    "tel": "027-330-3002",
    "address": "高崎市江木町333-1高崎EXビル2F",
    "access": "JR高崎駅東口徒歩10分",
    "games": [
      "チェイスチェイスジョーカーズ"
    ]
  },
  {
    "name": "ラウンドワン浜松店",
    "operation_time": "",
    "holiday": "",
    "latitude": "34.73795995",
    "longitude": "137.7638799",
    "tel": "053-461-1101",
    "address": "浜松市中央区天王町諏訪1981-17",
    "access": "",
    "games": [
      "チェイスチェイスジョーカーズ"
    ]
  },
  {
    "name": "ラウンドワン前橋店",
    "operation_time": "",
    "holiday": "",
    "latitude": "36.36888377",
    "longitude": "139.1051864",
    "tel": "027-287-1501",
    "address": "前橋市天川大島町1101-1",
    "access": "",
    "games": [
      "チェイスチェイスジョーカーズ"
    ]
  },
  {
    "name": "群馬レジャーランド伊勢崎店",
    "operation_time": "一部24時間営業",
    "holiday": "無し",
    "latitude": "36.31824274",
    "longitude": "139.1723592",
    "tel": "0270-40-5330",
    "address": "伊勢崎市連取町3066-1",
    "access": "伊勢崎市内県道2号線沿い伊勢崎オート近く",
    "games": [
      "チェイスチェイスジョーカーズ"
    ]
  },
  {
    "name": "ゲームコーナー東部",
    "operation_time": "9:00～24:00",
    "holiday": "無し",
    "latitude": "38.25101621",
    "longitude": "140.9438974",
    "tel": "022-287-5880",
    "address": "仙台市若林区六丁の目中町26-60",
    "access": "六丁目の交差点より多賀城方面へ向かい車で5分。産業通り沿い。",
    "games": [
      "チェイスチェイスジョーカーズ"
    ]
  },
  {
    "name": "ビデオゲームミュージアムロボット深谷店",
    "operation_time": "10:00～24:00",
    "holiday": "無し",
    "latitude": "36.17966807",
    "longitude": "139.2987761",
    "tel": "048-573-3951",
    "address": "深谷市上柴町西4-12-1",
    "access": "",
    "games": [
      "チェイスチェイスジョーカーズ"
    ]
  },
  {
    "name": "ラウンドワン静岡･駿河店",
    "operation_time": "",
    "holiday": "",
    "latitude": "34.950991",
    "longitude": "138.360524",
    "tel": "054-201-1601",
    "address": "静岡市駿河区向手越1-10-1",
    "access": "",
    "games": [
      "チェイスチェイスジョーカーズ"
    ]
  },
  {
    "name": "ラウンドワン郡山店",
    "operation_time": "",
    "holiday": "",
    "latitude": "37.40229903",
    "longitude": "140.3957065",
    "tel": "024-941-3191",
    "address": "郡山市向河原町4-55",
    "access": "",
    "games": [
      "チェイスチェイスジョーカーズ"
    ]
  },
  {
    "name": "ラウンドワンさいたま･鴻巣店",
    "operation_time": "",
    "holiday": "",
    "latitude": "36.08064011",
    "longitude": "139.4902201",
    "tel": "048-595-2001",
    "address": "鴻巣市箕田3163-7",
    "access": "",
    "games": [
      "チェイスチェイスジョーカーズ"
    ]
  },
  {
    "name": "ラウンドワン入間店",
    "operation_time": "",
    "holiday": "",
    "latitude": "35.82812299",
    "longitude": "139.3755366",
    "tel": "042-960-1521",
    "address": "入間市小谷田3-7-25",
    "access": "",
    "games": [
      "チェイスチェイスジョーカーズ"
    ]
  },
  {
    "name": "ウェアハウス三橋店",
    "operation_time": "一部24時間営業",
    "holiday": "無し",
    "latitude": "35.91589833",
    "longitude": "139.5959286",
    "tel": "048-795-8380",
    "address": "さいたま市西区三橋6-955-1",
    "access": "国道17号バイパス三橋六丁目交差点",
    "games": [
      "チェイスチェイスジョーカーズ"
    ]
  },
  {
    "name": "CLUB EXA2号館",
    "operation_time": "",
    "holiday": "",
    "latitude": "35.69616819",
    "longitude": "139.429228",
    "tel": "080-1569-7845",
    "address": "立川市羽衣町2-11-2プランドール立川1F",
    "access": "",
    "games": [
      "チェイスチェイスジョーカーズ"
    ]
  },
  {
    "name": "ビッグボウル杉戸",
    "operation_time": "10:00～翌1:00",
    "holiday": "無し",
    "latitude": "36.04028926",
    "longitude": "139.720837",
    "tel": "0480-34-7870",
    "address": "北葛飾郡杉戸町杉戸2338",
    "access": "東武伊勢崎線東武動物公園駅より徒歩30分 国道4号線沿い",
    "games": [
      "チェイスチェイスジョーカーズ"
    ]
  },
  {
    "name": "ラウンドワン大宮店",
    "operation_time": "",
    "holiday": "",
    "latitude": "35.91078012",
    "longitude": "139.6254963",
    "tel": "048-658-5666",
    "address": "さいたま市大宮区宮町4-90-7",
    "access": "",
    "games": [
      "チェイスチェイスジョーカーズ"
    ]
  },
  {
    "name": "ラウンドワン府中本町駅前店",
    "operation_time": "",
    "holiday": "",
    "latitude": "35.667312",
    "longitude": "139.477387",
    "tel": "042-340-4901",
    "address": "府中市本町1-13-3カネタビル",
    "access": "",
    "games": [
      "チェイスチェイスジョーカーズ"
    ]
  },
  {
    "name": "神奈川レジャーランド厚木店",
    "operation_time": "一部24時間営業",
    "holiday": "無し",
    "latitude": "35.44802433",
    "longitude": "139.3431365",
    "tel": "050-1722-4336",
    "address": "厚木市戸室5-31-1",
    "access": "小田急本厚木駅よりバスにてアンリツ前バス停下車徒歩1分",
    "games": [
      "チェイスチェイスジョーカーズ"
    ]
  },
  {
    "name": "ラウンドワンわらび店",
    "operation_time": "",
    "holiday": "",
    "latitude": "35.83078787",
    "longitude": "139.6742521",
    "tel": "048-447-8080",
    "address": "蕨市北町5-1-6",
    "access": "",
    "games": [
      "チェイスチェイスジョーカーズ"
    ]
  },
  {
    "name": "ラウンドワン町田店",
    "operation_time": "",
    "holiday": "",
    "latitude": "35.54409488",
    "longitude": "139.4432407",
    "tel": "042-710-0091",
    "address": "町田市森野1-13-14",
    "access": "",
    "games": [
      "チェイスチェイスジョーカーズ"
    ]
  },
  {
    "name": "タイトーステーション海老名ビナウォーク店",
    "operation_time": "10:00～24:00",
    "holiday": "無し",
    "latitude": "35.452455",
    "longitude": "139.395834",
    "tel": "046-292-5160",
    "address": "海老名市中央1-18-1ビナウォーク6番館2F",
    "access": "JR相模線、相鉄線、小田急線、海老名駅より徒歩5分",
    "games": [
      "チェイスチェイスジョーカーズ"
    ]
  },
  {
    "name": "ミラクル イン 中村橋",
    "operation_time": "10:00～24:00",
    "holiday": "無し",
    "latitude": "35.73696054",
    "longitude": "139.6383659",
    "tel": "03-5933-9312",
    "address": "練馬区貫井1-1-2",
    "access": "西武池袋線中村橋駅徒歩2分",
    "games": [
      "チェイスチェイスジョーカーズ"
    ]
  },
  {
    "name": "千葉レジャーランド野田店",
    "operation_time": "一部24時間営業",
    "holiday": "無し",
    "latitude": "35.97154747",
    "longitude": "139.8653487",
    "tel": "04-7120-3535",
    "address": "野田市吉春776-1",
    "access": "国道16号線沿い野田市吉春地内",
    "games": [
      "チェイスチェイスジョーカーズ"
    ]
  },
  {
    "name": "ゲームパニック新宿歌舞伎町",
    "operation_time": "",
    "holiday": "",
    "latitude": "35.69606337",
    "longitude": "139.7012777",
    "tel": "03-6265-9021",
    "address": "新宿区歌舞伎町1-20-1ヒューマックスパビリオン1-2F",
    "access": "",
    "games": [
      "チェイスチェイスジョーカーズ"
    ]
  },
  {
    "name": "Hey(タイトー)",
    "operation_time": "10:00～24:00",
    "holiday": "無し",
    "latitude": "35.698992",
    "longitude": "139.77108",
    "tel": "03-5209-2030",
    "address": "千代田区外神田1-10-5広瀬本社ビル2F",
    "access": "JR秋葉原駅電気街口を出て徒歩2分",
    "games": [
      "チェイスチェイスジョーカーズ"
    ]
  },
  {
    "name": "ウェアハウス南流山店",
    "operation_time": "10:00～24:00",
    "holiday": "無し",
    "latitude": "35.84020798",
    "longitude": "139.9050111",
    "tel": "04-7159-2351",
    "address": "流山市南流山4-16-6",
    "access": "南流山駅から徒歩3分",
    "games": [
      "チェイスチェイスジョーカーズ"
    ]
  },
  {
    "name": "ゲームメガつくば店",
    "operation_time": "",
    "holiday": "",
    "latitude": "36.07682559",
    "longitude": "140.1047877",
    "tel": "029-846-1200",
    "address": "つくば市小野崎177-2",
    "access": "",
    "games": [
      "チェイスチェイスジョーカーズ"
    ]
  },
  {
    "name": "嶺宝スポーツセンター",
    "operation_time": "11:00～23:00",
    "holiday": "火曜日",
    "latitude": "36.97400283",
    "longitude": "140.8903913",
    "tel": "0246-58-8093",
    "address": "いわき市小名浜住吉字折返2-2",
    "access": "6号バイパス住吉交差点横",
    "games": [
      "チェイスチェイスジョーカーズ"
    ]
  },
  {
    "name": "ラウンドワン横浜駅西口店",
    "operation_time": "",
    "holiday": "",
    "latitude": "35.46393717",
    "longitude": "139.6180549",
    "tel": "045-412-0880",
    "address": "横浜市西区南幸2-8-16",
    "access": "",
    "games": [
      "チェイスチェイスジョーカーズ"
    ]
  },
  {
    "name": "ピンクパンサー 水戸赤塚店",
    "operation_time": "10:00～24:00",
    "holiday": "無し",
    "latitude": "36.3807337",
    "longitude": "140.4136026",
    "tel": "029-309-1983",
    "address": "水戸市河和田1-1",
    "access": "JR水戸線 赤塚駅徒歩5分 フレスポ赤塚内",
    "games": [
      "チェイスチェイスジョーカーズ"
    ]
  },
  {
    "name": "ピンクパンサー土浦店",
    "operation_time": "",
    "holiday": "",
    "latitude": "36.106571",
    "longitude": "140.215204",
    "tel": "029-886-6467",
    "address": "土浦市木田余4585-3",
    "access": "",
    "games": [
      "チェイスチェイスジョーカーズ"
    ]
  },
  {
    "name": "タイトーFステーション市川妙典店",
    "operation_time": "施設の営業時間に準じる",
    "holiday": "施設の営業日に準じる",
    "latitude": "35.69246485",
    "longitude": "139.9267286",
    "tel": "047-318-3933",
    "address": "市川市妙典4-1-1イオン市川妙典店2番街2F",
    "access": "",
    "games": [
      "チェイスチェイスジョーカーズ"
    ]
  },
  {
    "name": "アミューズビバ",
    "operation_time": "",
    "holiday": "",
    "latitude": "36.40636031",
    "longitude": "140.5317325",
    "tel": "029-274-7311",
    "address": "ひたちなか市東大島2-11-11-1Fゲームコーナー",
    "access": "勝田駅東口より北へ1km",
    "games": [
      "チェイスチェイスジョーカーズ"
    ]
  },
  {
    "name": "アミューズメントエース津田沼",
    "operation_time": "9:00～24:00",
    "holiday": "無し",
    "latitude": "35.69228053",
    "longitude": "140.0201572",
    "tel": "047-475-8918",
    "address": "船橋市前原西2-15-1ファミービル1-3F",
    "access": "JR「津田沼駅」下車北口より徒歩1分",
    "games": [
      "チェイスチェイスジョーカーズ"
    ]
  },
  {
    "name": "ラッキー中央店(フェリシダ)",
    "operation_time": "9:00～24:50",
    "holiday": "無し",
    "latitude": "35.61028144",
    "longitude": "140.1182438",
    "tel": "043-222-5610",
    "address": "千葉市中央区富士見2-8-1",
    "access": "JR千葉駅より徒歩5分",
    "games": [
      "チェイスチェイスジョーカーズ"
    ]
  },
  {
    "name": "フリスポ佐原",
    "operation_time": "",
    "holiday": "",
    "latitude": "35.90115035",
    "longitude": "140.493442",
    "tel": "0478-54-6160",
    "address": "香取市佐原イ-4200",
    "access": "",
    "games": [
      "チェイスチェイスジョーカーズ"
    ]
  }
]