[
  {
    "name": "サープラ新宮あそびタウン",
    "operation_time": "",
    "holiday": "",
    "latitude": "33.706165",
    "longitude": "130.440645",
    "tel": "092-410-4528",
    "address": "糟屋郡新宮町美咲3-1-40",
    "access": "",
    "games": [
      "カラコロッタ めざせ！夢の宝島"
    ]
  },
  {
    "name": "サープラ鹿屋あそびタウン",
    "operation_time": "",
    "holiday": "",
    "latitude": "31.388753",
    "longitude": "130.898",
    "tel": "0994-65-5911",
    "address": "肝属郡肝付町富山1008-5",
    "access": "",
    "games": [
      "カラコロッタ めざせ！夢の宝島"
    ]
  },
  {
    "name": "アミパラ神辺店",
    "operation_time": "10:00～24:00",
    "holiday": "無し",
    "latitude": "34.54578493",
    "longitude": "133.3586159",
    "tel": "084-963-3555",
    "address": "福山市神辺町大字新道上字1-2-1",
    "access": "フジグラン神辺店向かい",
    "games": [
      "カラコロッタ めざせ！夢の宝島"
    ]
  },
  {
    "name": "GAME BANK",
    "operation_time": "9:00～24:00",
    "holiday": "無し",
    "latitude": "38.352801",
    "longitude": "140.877385",
    "tel": "022-776-5677",
    "address": "仙台市泉区大沢2-5-4",
    "access": "東北自動車道 泉インター直ぐ",
    "games": [
      "カラコロッタ めざせ！夢の宝島"
    ]
  },
  {
    "name": "サープラ島田あそびタウン",
    "operation_time": "10:00-24:00",
    "holiday": "無し",
    "latitude": "34.83815977",
    "longitude": "138.1659736",
    "tel": "0547-34-2556",
    "address": "島田市中溝町2531",
    "access": "藤枝バイパス旗指IC5分TSUTAYA2F",
    "games": [
      "カラコロッタ めざせ！夢の宝島"
    ]
  },
  {
    "name": "サープラ沼津あそびタウン",
    "operation_time": "10:00～24:00",
    "holiday": "無し",
    "latitude": "35.10266451",
    "longitude": "138.8598883",
    "tel": "055-926-7739",
    "address": "沼津市大手町1-1-5",
    "access": "JR沼津駅徒歩5分",
    "games": [
      "カラコロッタ めざせ！夢の宝島"
    ]
  }
]