[
  {
    "name": "福山メトロポリス",
    "operation_time": "10:00～23:50",
    "holiday": "無し",
    "latitude": "34.46583759",
    "longitude": "133.407424",
    "tel": "084-981-5095",
    "address": "福山市一文字町24-1",
    "access": "JR東福山駅より車で10分",
    "games": [
      "カラコロッタ"
    ]
  },
  {
    "name": "GiGOイオンモール苫小牧",
    "operation_time": "ゲームコーナー9:00～24:00 / メダルコーナー9:00～23:30",
    "holiday": "無し",
    "latitude": "42.65619751",
    "longitude": "141.6419704",
    "tel": "0144-52-1212",
    "address": "苫小牧市柳町3-1-20イオンモール苫小牧2F",
    "access": "JR苫小牧駅よりバス20分",
    "games": [
      "カラコロッタ"
    ]
  },
  {
    "name": "アミューズメントCUE大和高田",
    "operation_time": "10:00～24:00",
    "holiday": "無し",
    "latitude": "34.49978101",
    "longitude": "135.7354379",
    "tel": "0745-25-3335",
    "address": "大和高田市東中2-11-16",
    "access": "国道166号線東宝交差点そば",
    "games": [
      "カラコロッタ"
    ]
  },
  {
    "name": "メジャーロード見附店",
    "operation_time": "10:00～24:00",
    "holiday": "無し",
    "latitude": "37.54318868",
    "longitude": "138.8915351",
    "tel": "0258-66-8080",
    "address": "見附市上新田町516-1",
    "access": "高速「中之島見附IC」より車で5分。国道8号線を北上し「今町」交差点先の右側。",
    "games": [
      "カラコロッタ"
    ]
  },
  {
    "name": "イミグランデ本厚木店",
    "operation_time": "10:00～24:00",
    "holiday": "無し",
    "latitude": "35.43943108",
    "longitude": "139.3616156",
    "tel": "0462-24-9933",
    "address": "厚木市中町3-2-1",
    "access": "小田急「本厚木」駅徒歩3分",
    "games": [
      "カラコロッタ"
    ]
  },
  {
    "name": "イミグランデ大和店",
    "operation_time": "10:00～24:00",
    "holiday": "無し",
    "latitude": "35.49148588",
    "longitude": "139.4547647",
    "tel": "046-277-8571",
    "address": "大和市鶴間2-12-27",
    "access": "小田急鶴間駅徒歩5分",
    "games": [
      "カラコロッタ"
    ]
  }
]