[
  {
    "name": "アミパラ光明池店",
    "operation_time": "",
    "holiday": "",
    "latitude": "34.47172523",
    "longitude": "135.4765946",
    "tel": "0725-58-7230",
    "address": "和泉市室堂町824-36コムボックス光明池2F",
    "access": "",
    "games": [
      "カラコロッタ フローズンアイランド"
    ]
  },
  {
    "name": "GiGO長久手",
    "operation_time": "9:00～24:00",
    "holiday": "無し",
    "latitude": "35.17139252",
    "longitude": "137.045573",
    "tel": "0561-64-5205",
    "address": "長久手市武蔵塚705",
    "access": "",
    "games": [
      "カラコロッタ フローズンアイランド"
    ]
  },
  {
    "name": "アドアーズ和光店",
    "operation_time": "10:00～23:30",
    "holiday": "無し",
    "latitude": "35.78829096",
    "longitude": "139.6116504",
    "tel": "048-463-5108",
    "address": "和光市本町3-5Million Annex 和光1-3F",
    "access": "和光市駅南口駅前交番前",
    "games": [
      "カラコロッタ フローズンアイランド"
    ]
  },
  {
    "name": "サープラ八潮あそびタウン",
    "operation_time": "9:00～24:00",
    "holiday": "無し",
    "latitude": "35.80837561",
    "longitude": "139.8437875",
    "tel": "048-994-5377",
    "address": "八潮市大瀬1-1-3フレスポ八潮3F",
    "access": "つくばエクスプレス・八潮駅隣接フレスポ八潮3F",
    "games": [
      "カラコロッタ フローズンアイランド"
    ]
  }
]