[
  {
    "name": "アソビクル長崎戸町店",
    "operation_time": "",
    "holiday": "",
    "latitude": "32.72113757",
    "longitude": "129.8611866",
    "tel": "095-801-0955",
    "address": "長崎市戸町4-9-3",
    "access": "",
    "games": [
      "カラコロッタ まぼろしの桃源郷"
    ]
  },
  {
    "name": "ラウンドワン佐賀店",
    "operation_time": "",
    "holiday": "",
    "latitude": "33.27533631",
    "longitude": "130.3015536",
    "tel": "0952-36-7070",
    "address": "佐賀市兵庫北4-2-1",
    "access": "",
    "games": [
      "カラコロッタ まぼろしの桃源郷"
    ]
  },
  {
    "name": "GiGO中間",
    "operation_time": "",
    "holiday": "",
    "latitude": "33.8231005",
    "longitude": "130.721697",
    "tel": "093-246-1941",
    "address": "中間市上蓮花寺3-1-1",
    "access": "",
    "games": [
      "カラコロッタ まぼろしの桃源郷"
    ]
  },
  {
    "name": "ラウンドワン小倉店",
    "operation_time": "",
    "holiday": "",
    "latitude": "33.89742877",
    "longitude": "130.8598475",
    "tel": "093-562-8805",
    "address": "北九州市小倉北区西港町15-65",
    "access": "",
    "games": [
      "カラコロッタ まぼろしの桃源郷"
    ]
  },
  {
    "name": "パスカワールドグリーンランド",
    "operation_time": "10:00～翌3:00",
    "holiday": "無し",
    "latitude": "32.98790587",
    "longitude": "130.4711246",
    "tel": "0968-69-3001",
    "address": "荒尾市本井手1574-54",
    "access": "三井グリーンランドウルトラマンランド横",
    "games": [
      "カラコロッタ まぼろしの桃源郷"
    ]
  },
  {
    "name": "ラウンドワン熊本店",
    "operation_time": "",
    "holiday": "",
    "latitude": "32.78499883",
    "longitude": "130.6775647",
    "tel": "096-325-7200",
    "address": "熊本市西区春日7-25-15",
    "access": "",
    "games": [
      "カラコロッタ まぼろしの桃源郷"
    ]
  },
  {
    "name": "namcoワンダーシティ南熊本店",
    "operation_time": "",
    "holiday": "",
    "latitude": "32.78695703",
    "longitude": "130.7146907",
    "tel": "096-375-1131",
    "address": "熊本市中央区九品寺6-9-1",
    "access": "",
    "games": [
      "カラコロッタ まぼろしの桃源郷"
    ]
  },
  {
    "name": "ラウンドワン沖縄･宜野湾店",
    "operation_time": "",
    "holiday": "",
    "latitude": "26.27580261",
    "longitude": "127.7310389",
    "tel": "098-870-2110",
    "address": "宜野湾市真志喜3-28-8",
    "access": "",
    "games": [
      "カラコロッタ まぼろしの桃源郷"
    ]
  },
  {
    "name": "ラウンドワン沖縄･南風原店",
    "operation_time": "",
    "holiday": "",
    "latitude": "26.19509176",
    "longitude": "127.7210653",
    "tel": "098-940-6670",
    "address": "島尻郡南風原町字兼城下茂原552",
    "access": "",
    "games": [
      "カラコロッタ まぼろしの桃源郷"
    ]
  },
  {
    "name": "ラウンドワン鹿児島宇宿店",
    "operation_time": "",
    "holiday": "",
    "latitude": "31.54388304",
    "longitude": "130.5427759",
    "tel": "099-284-0655",
    "address": "鹿児島市宇宿2-2-2",
    "access": "",
    "games": [
      "カラコロッタ まぼろしの桃源郷"
    ]
  },
  {
    "name": "サープラ鹿児島あそびタウン",
    "operation_time": "9:00～24:00",
    "holiday": "無し",
    "latitude": "31.57003616",
    "longitude": "130.565823",
    "tel": "099-213-0223",
    "address": "鹿児島市与次郎1-11-1 2F",
    "access": "フレスポジャングルパーク鹿児島店2F",
    "games": [
      "カラコロッタ まぼろしの桃源郷"
    ]
  },
  {
    "name": "ラウンドワン大分店",
    "operation_time": "",
    "holiday": "",
    "latitude": "33.24885259",
    "longitude": "131.6402543",
    "tel": "097-573-2800",
    "address": "大分市萩原2-13-17",
    "access": "",
    "games": [
      "カラコロッタ まぼろしの桃源郷"
    ]
  },
  {
    "name": "アミパラ松江店",
    "operation_time": "",
    "holiday": "",
    "latitude": "35.463684",
    "longitude": "133.074132",
    "tel": "0852-67-1700",
    "address": "松江市東朝日町203-1",
    "access": "",
    "games": [
      "カラコロッタ まぼろしの桃源郷"
    ]
  },
  {
    "name": "GiGOアルパーク北棟",
    "operation_time": "",
    "holiday": "",
    "latitude": "34.37630292",
    "longitude": "132.3950257",
    "tel": "090-9155-1362",
    "address": "広島市西区草津南4-7-1アルパーク北棟2F",
    "access": "",
    "games": [
      "カラコロッタ まぼろしの桃源郷"
    ]
  },
  {
    "name": "アミパラ広島店",
    "operation_time": "10:00～24:00",
    "holiday": "無し",
    "latitude": "34.39350431",
    "longitude": "132.4360428",
    "tel": "082-297-7135",
    "address": "広島市西区西観音町3-17",
    "access": "平和大通り沿い、西区区役所から東へすぐ",
    "games": [
      "カラコロッタ まぼろしの桃源郷"
    ]
  },
  {
    "name": "ラウンドワン広島店",
    "operation_time": "",
    "holiday": "",
    "latitude": "34.39365895",
    "longitude": "132.4600423",
    "tel": "082-545-8910",
    "address": "広島市中区立町3-11",
    "access": "",
    "games": [
      "カラコロッタ まぼろしの桃源郷"
    ]
  },
  {
    "name": "ラウンドワン宮崎店",
    "operation_time": "",
    "holiday": "",
    "latitude": "31.89458335",
    "longitude": "131.4170876",
    "tel": "0985-63-1210",
    "address": "宮崎市中村東3-4-60",
    "access": "",
    "games": [
      "カラコロッタ まぼろしの桃源郷"
    ]
  },
  {
    "name": "ラウンドワン松山店",
    "operation_time": "",
    "holiday": "",
    "latitude": "33.8664873",
    "longitude": "132.751593",
    "tel": "089-911-5511",
    "address": "松山市東長戸1-3-10",
    "access": "",
    "games": [
      "カラコロッタ まぼろしの桃源郷"
    ]
  },
  {
    "name": "アミパラ松山店",
    "operation_time": "10:00～24:00",
    "holiday": "無し",
    "latitude": "33.833875",
    "longitude": "132.744981",
    "tel": "089-913-5533",
    "address": "松山市生石町655-1",
    "access": "JR松山駅から南西1km 国道196号線沿い",
    "games": [
      "カラコロッタ まぼろしの桃源郷"
    ]
  },
  {
    "name": "アミパラ東尾道店",
    "operation_time": "",
    "holiday": "",
    "latitude": "34.43048495",
    "longitude": "133.2315964",
    "tel": "0848-36-5715",
    "address": "尾道市高須町5688",
    "access": "",
    "games": [
      "カラコロッタ まぼろしの桃源郷"
    ]
  },
  {
    "name": "あみぱらんど福山店",
    "operation_time": "10:00～24:00",
    "holiday": "無し",
    "latitude": "34.48795195",
    "longitude": "133.3784594",
    "tel": "0849-25-6188",
    "address": "福山市三吉町南2-8-24",
    "access": "国道2号線沿い、福山警察署から東へすぐ",
    "games": [
      "カラコロッタ まぼろしの桃源郷"
    ]
  },
  {
    "name": "ラウンドワン福山店",
    "operation_time": "",
    "holiday": "",
    "latitude": "34.489155",
    "longitude": "133.3925782",
    "tel": "084-973-9891",
    "address": "福山市明神町1-9-28",
    "access": "",
    "games": [
      "カラコロッタ まぼろしの桃源郷"
    ]
  },
  {
    "name": "アミパラ倉敷店",
    "operation_time": "10:00～24:00",
    "holiday": "無し",
    "latitude": "34.58364137",
    "longitude": "133.7712207",
    "tel": "086-430-2111",
    "address": "倉敷市西中新田624-1アミパラボウル1F",
    "access": "倉敷市役所前、アミパラボウル1F",
    "games": [
      "カラコロッタ まぼろしの桃源郷"
    ]
  },
  {
    "name": "アミパラ丸亀店",
    "operation_time": "10:00～24:00",
    "holiday": "無し",
    "latitude": "34.28466398",
    "longitude": "133.8209638",
    "tel": "0877-24-6666",
    "address": "丸亀市飯野町西分字川縁甲584-1ハローズ棟",
    "access": "坂出ICから5分国道11号線沿い ニトリ隣",
    "games": [
      "カラコロッタ まぼろしの桃源郷"
    ]
  },
  {
    "name": "ラウンドワン札幌北21条店",
    "operation_time": "",
    "holiday": "",
    "latitude": "43.08681907",
    "longitude": "141.3495671",
    "tel": "011-733-8801",
    "address": "札幌市東区北21条東1-1-21",
    "access": "",
    "games": [
      "カラコロッタ まぼろしの桃源郷"
    ]
  },
  {
    "name": "ラウンドワン札幌すすきの店",
    "operation_time": "",
    "holiday": "",
    "latitude": "43.05431311",
    "longitude": "141.3540587",
    "tel": "011-520-1022",
    "address": "札幌市中央区南五条西3-6-1札幌東宝公楽ビル",
    "access": "",
    "games": [
      "カラコロッタ まぼろしの桃源郷"
    ]
  },
  {
    "name": "ラウンドワン高松店",
    "operation_time": "",
    "holiday": "",
    "latitude": "34.33898638",
    "longitude": "134.0669994",
    "tel": "087-812-6115",
    "address": "高松市松島町2-7-43",
    "access": "",
    "games": [
      "カラコロッタ まぼろしの桃源郷"
    ]
  },
  {
    "name": "ラウンドワン高知店",
    "operation_time": "",
    "holiday": "",
    "latitude": "33.55793713",
    "longitude": "133.554676",
    "tel": "088-804-3070",
    "address": "高知市南宝永町4-12",
    "access": "",
    "games": [
      "カラコロッタ まぼろしの桃源郷"
    ]
  },
  {
    "name": "アミパラ高松店",
    "operation_time": "",
    "holiday": "",
    "latitude": "34.30701859",
    "longitude": "134.0591822",
    "tel": "087-899-8868",
    "address": "高松市伏石町2168-2",
    "access": "",
    "games": [
      "カラコロッタ まぼろしの桃源郷"
    ]
  },
  {
    "name": "ラウンドワン札幌白石本通店",
    "operation_time": "",
    "holiday": "",
    "latitude": "43.03673108",
    "longitude": "141.4328227",
    "tel": "011-865-8051",
    "address": "札幌市白石区本通-16-北1-50",
    "access": "",
    "games": [
      "カラコロッタ まぼろしの桃源郷"
    ]
  },
  {
    "name": "キャッツアイ新札幌店",
    "operation_time": "10:00～24:00",
    "holiday": "無し",
    "latitude": "43.04493545",
    "longitude": "141.4754191",
    "tel": "011-899-1500",
    "address": "札幌市厚別区厚別東5条1-2-10",
    "access": "JR、札幌市営地下鉄新札幌駅下車徒歩20分",
    "games": [
      "カラコロッタ まぼろしの桃源郷"
    ]
  },
  {
    "name": "キャッツアイ清田店",
    "operation_time": "10:00～24:00",
    "holiday": "無し",
    "latitude": "43.00286736",
    "longitude": "141.4364379",
    "tel": "011-884-2828",
    "address": "札幌市清田区清田1条1-20-1",
    "access": "国道36号線、札幌ドームより車5分",
    "games": [
      "カラコロッタ まぼろしの桃源郷"
    ]
  },
  {
    "name": "アミパラ高知店",
    "operation_time": "10:00～24:00",
    "holiday": "無し",
    "latitude": "33.56792315",
    "longitude": "133.6344447",
    "tel": "088-863-4343",
    "address": "南国市篠原194-1",
    "access": "南国ICを降りて南に突き当たり、東へ1km",
    "games": [
      "カラコロッタ まぼろしの桃源郷"
    ]
  },
  {
    "name": "ラウンドワン旭川店",
    "operation_time": "",
    "holiday": "",
    "latitude": "43.78651521",
    "longitude": "142.397308",
    "tel": "0166-49-5071",
    "address": "旭川市永山3条1-4-7",
    "access": "",
    "games": [
      "カラコロッタ まぼろしの桃源郷"
    ]
  },
  {
    "name": "ラウンドワン姫路飾磨店",
    "operation_time": "",
    "holiday": "",
    "latitude": "34.79228629",
    "longitude": "134.6871127",
    "tel": "079-243-1830",
    "address": "姫路市飾磨区中島1-254",
    "access": "",
    "games": [
      "カラコロッタ まぼろしの桃源郷"
    ]
  },
  {
    "name": "アピナ姫路店",
    "operation_time": "",
    "holiday": "",
    "latitude": "34.82687",
    "longitude": "134.7151",
    "tel": "079-222-8811",
    "address": "姫路市東郷町1454-3姫路リオス2F",
    "access": "",
    "games": [
      "カラコロッタ まぼろしの桃源郷"
    ]
  },
  {
    "name": "ラウンドワン函館店",
    "operation_time": "",
    "holiday": "",
    "latitude": "41.82459206",
    "longitude": "140.7173548",
    "tel": "0138-49-8401",
    "address": "函館市西桔梗町848-11",
    "access": "",
    "games": [
      "カラコロッタ まぼろしの桃源郷"
    ]
  },
  {
    "name": "アミパラ加古川店",
    "operation_time": "10:00～24:00",
    "holiday": "無し",
    "latitude": "34.75139256",
    "longitude": "134.8287077",
    "tel": "079-456-0044",
    "address": "加古川市尾上町今福71-2",
    "access": "JR播但線 京口駅 徒歩20分",
    "games": [
      "カラコロッタ まぼろしの桃源郷"
    ]
  },
  {
    "name": "ホムスタ加古川店",
    "operation_time": "10:00～24:00",
    "holiday": "無し",
    "latitude": "34.74552902",
    "longitude": "134.8355115",
    "tel": "0794-56-2121",
    "address": "加古川市尾上町安田351-1メガコート",
    "access": "",
    "games": [
      "カラコロッタ まぼろしの桃源郷"
    ]
  },
  {
    "name": "ラウンドワン加古川店",
    "operation_time": "",
    "holiday": "",
    "latitude": "34.74708002",
    "longitude": "134.836935",
    "tel": "0794-29-2513",
    "address": "加古川市尾上町安田字小河原325番6号",
    "access": "",
    "games": [
      "カラコロッタ まぼろしの桃源郷"
    ]
  },
  {
    "name": "ラウンドワン徳島･万代店",
    "operation_time": "",
    "holiday": "",
    "latitude": "34.064828",
    "longitude": "134.564699",
    "tel": "088-612-0025",
    "address": "徳島市万代町4-19-1",
    "access": "",
    "games": [
      "カラコロッタ まぼろしの桃源郷"
    ]
  },
  {
    "name": "アミパラ垂水店",
    "operation_time": "10:00～24:00",
    "holiday": "無し",
    "latitude": "34.66458",
    "longitude": "135.066782",
    "tel": "078-707-9111",
    "address": "神戸市垂水区名谷町字室山1400-18",
    "access": "",
    "games": [
      "カラコロッタ まぼろしの桃源郷"
    ]
  },
  {
    "name": "バイパスレジャーランド加賀店",
    "operation_time": "一部24時間営業",
    "holiday": "無し",
    "latitude": "36.32515503",
    "longitude": "136.4113746",
    "tel": "0761-74-8007",
    "address": "加賀市箱宮町ヲ1-1",
    "access": "国道8号線加賀産業道路終点近く",
    "games": [
      "カラコロッタ まぼろしの桃源郷"
    ]
  },
  {
    "name": "バイパスレジャーランド藤江新館",
    "operation_time": "",
    "holiday": "",
    "latitude": "36.58375651",
    "longitude": "136.6206642",
    "tel": "076-268-7518",
    "address": "金沢市藤江南2-105",
    "access": "",
    "games": [
      "カラコロッタ まぼろしの桃源郷"
    ]
  },
  {
    "name": "バイパスレジャーランド藤江本館",
    "operation_time": "一部24時間営業",
    "holiday": "無し",
    "latitude": "36.58397239",
    "longitude": "136.621523",
    "tel": "076-268-3798",
    "address": "金沢市藤江南2-41",
    "access": "国道8号線沿い藤江交差点近く",
    "games": [
      "カラコロッタ まぼろしの桃源郷"
    ]
  },
  {
    "name": "フクイレジャーランドワイプラザ店",
    "operation_time": "一部24時間営業",
    "holiday": "無し",
    "latitude": "36.08750805",
    "longitude": "136.2494211",
    "tel": "0776-57-0433",
    "address": "福井市新保北1-303ヤスサキワイプラザB棟2F",
    "access": "国道8号線沿い福井市内新保交差点近くワイプラザ内",
    "games": [
      "カラコロッタ まぼろしの桃源郷"
    ]
  },
  {
    "name": "福井レジャーランド板垣店",
    "operation_time": "",
    "holiday": "",
    "latitude": "36.042283",
    "longitude": "136.233748",
    "tel": "0776-33-5510",
    "address": "福井市下馬3-112",
    "access": "",
    "games": [
      "カラコロッタ まぼろしの桃源郷"
    ]
  },
  {
    "name": "ラウンドワン金沢店",
    "operation_time": "",
    "holiday": "",
    "latitude": "36.54211559",
    "longitude": "136.626054",
    "tel": "076-245-1850",
    "address": "金沢市横川6-120-1",
    "access": "",
    "games": [
      "カラコロッタ まぼろしの桃源郷"
    ]
  },
  {
    "name": "namcoマグスミノエ店",
    "operation_time": "",
    "holiday": "",
    "latitude": "34.6100368",
    "longitude": "135.4682536",
    "tel": "06-6682-6856",
    "address": "大阪市住之江区泉1-1-82マグスミノエ1F",
    "access": "",
    "games": [
      "カラコロッタ まぼろしの桃源郷"
    ]
  },
  {
    "name": "ラウンドワン和歌山店",
    "operation_time": "",
    "holiday": "",
    "latitude": "34.19849168",
    "longitude": "135.1859428",
    "tel": "073-421-8210",
    "address": "和歌山市小雑賀739-3",
    "access": "",
    "games": [
      "カラコロッタ まぼろしの桃源郷"
    ]
  },
  {
    "name": "ラウンドワン岸和田店",
    "operation_time": "",
    "holiday": "",
    "latitude": "34.45649962",
    "longitude": "135.3885278",
    "tel": "072-429-1100",
    "address": "岸和田市八阪町2-11-1",
    "access": "",
    "games": [
      "カラコロッタ まぼろしの桃源郷"
    ]
  },
  {
    "name": "YAZ寝屋川店",
    "operation_time": "",
    "holiday": "",
    "latitude": "34.78044073",
    "longitude": "135.6193889",
    "tel": "072-830-7755",
    "address": "寝屋川市石津中町25-26",
    "access": "",
    "games": [
      "カラコロッタ まぼろしの桃源郷"
    ]
  },
  {
    "name": "アミュージアム岸和田店",
    "operation_time": "10:00～24:00",
    "holiday": "無し",
    "latitude": "34.45954954",
    "longitude": "135.3924047",
    "tel": "0724-33-9711",
    "address": "岸和田市下松町1-3-1ウィンディ岸和田",
    "access": "JR下松駅から徒歩7分。国道26号線沿い、ウインディ岸和田内",
    "games": [
      "カラコロッタ まぼろしの桃源郷"
    ]
  },
  {
    "name": "namcoアリオ鳳店",
    "operation_time": "",
    "holiday": "",
    "latitude": "34.524777",
    "longitude": "135.4571665",
    "tel": "072-273-9200",
    "address": "堺市西区鳳南町3-199-12アリオ鳳アリオモール3F3280",
    "access": "",
    "games": [
      "カラコロッタ まぼろしの桃源郷"
    ]
  },
  {
    "name": "GiGO布施",
    "operation_time": "",
    "holiday": "",
    "latitude": "34.66416946",
    "longitude": "135.5628455",
    "tel": "06-6783-6999",
    "address": "東大阪市長堂1-1-1ロンモール布施内",
    "access": "",
    "games": [
      "カラコロッタ まぼろしの桃源郷"
    ]
  },
  {
    "name": "アミパラ久御山店",
    "operation_time": "",
    "holiday": "",
    "latitude": "34.895478",
    "longitude": "135.747069",
    "tel": "075-754-7722",
    "address": "久世郡久御山町大字森大内337イオンタウン久御山内",
    "access": "",
    "games": [
      "カラコロッタ まぼろしの桃源郷"
    ]
  },
  {
    "name": "アミパラ大東店",
    "operation_time": "",
    "holiday": "",
    "latitude": "34.7010172",
    "longitude": "135.6386857",
    "tel": "072-813-7600",
    "address": "大東市南新田2-3-5",
    "access": "",
    "games": [
      "カラコロッタ まぼろしの桃源郷"
    ]
  },
  {
    "name": "ラウンドワン浜大津アーカス店",
    "operation_time": "",
    "holiday": "",
    "latitude": "35.010557",
    "longitude": "135.866804",
    "tel": "077-526-8722",
    "address": "大津市浜町2-1浜大津アーカス4F",
    "access": "",
    "games": [
      "カラコロッタ まぼろしの桃源郷"
    ]
  },
  {
    "name": "トヤマレジャーランド呉羽店",
    "operation_time": "一部24時間営業",
    "holiday": "無し",
    "latitude": "36.71545083",
    "longitude": "137.1579046",
    "tel": "076-434-5336",
    "address": "富山市高木字貝塚2054",
    "access": "県道44号線沿い呉羽本町交差点を富山方面方向に車で3分",
    "games": [
      "カラコロッタ まぼろしの桃源郷"
    ]
  },
  {
    "name": "ラウンドワン青森店",
    "operation_time": "",
    "holiday": "",
    "latitude": "40.79867718",
    "longitude": "140.7483213",
    "tel": "017-762-3591",
    "address": "青森市浜田3-1-1",
    "access": "",
    "games": [
      "カラコロッタ まぼろしの桃源郷"
    ]
  },
  {
    "name": "アミパラ草津店",
    "operation_time": "",
    "holiday": "",
    "latitude": "35.01928425",
    "longitude": "135.9424723",
    "tel": "077-569-4499",
    "address": "草津市木川町72",
    "access": "",
    "games": [
      "カラコロッタ まぼろしの桃源郷"
    ]
  },
  {
    "name": "富山レジャーランド掛尾店",
    "operation_time": "",
    "holiday": "",
    "latitude": "36.66605175",
    "longitude": "137.208892",
    "tel": "076-413-2606",
    "address": "富山市掛尾町360-1",
    "access": "",
    "games": [
      "カラコロッタ まぼろしの桃源郷"
    ]
  },
  {
    "name": "アピナ富山新庄店",
    "operation_time": "10:00～24:00",
    "holiday": "無し",
    "latitude": "36.69533117",
    "longitude": "137.2480753",
    "tel": "076-491-7700",
    "address": "富山市荒川3-2-12",
    "access": "",
    "games": [
      "カラコロッタ まぼろしの桃源郷"
    ]
  },
  {
    "name": "namcoビバシティ彦根店",
    "operation_time": "",
    "holiday": "",
    "latitude": "35.243621",
    "longitude": "136.250454",
    "tel": "0749-27-6211",
    "address": "彦根市竹ヶ鼻町43-1ビバシティ彦根2F",
    "access": "",
    "games": [
      "カラコロッタ まぼろしの桃源郷"
    ]
  },
  {
    "name": "ラウンドワン秋田店",
    "operation_time": "",
    "holiday": "",
    "latitude": "39.70235247",
    "longitude": "140.1092394",
    "tel": "018-896-6711",
    "address": "秋田市卸町1-1-2",
    "access": "",
    "games": [
      "カラコロッタ まぼろしの桃源郷"
    ]
  },
  {
    "name": "ラウンドワンモレラ岐阜店",
    "operation_time": "",
    "holiday": "",
    "latitude": "35.455121",
    "longitude": "136.672955",
    "tel": "058-323-6600",
    "address": "本巣市三橋1100",
    "access": "",
    "games": [
      "カラコロッタ まぼろしの桃源郷"
    ]
  },
  {
    "name": "岐阜レジャーランド穂積店",
    "operation_time": "7:00～24:00",
    "holiday": "無し",
    "latitude": "35.38432479",
    "longitude": "136.6846653",
    "tel": "058-326-1133",
    "address": "瑞穂市稲里630",
    "access": "国道21号線沿い瑞穂市野田新田交差点近く",
    "games": [
      "カラコロッタ まぼろしの桃源郷"
    ]
  },
  {
    "name": "ゲームファンタジアン柳津店",
    "operation_time": "一部24時間営業",
    "holiday": "無し",
    "latitude": "35.37596826",
    "longitude": "136.7145391",
    "tel": "058-279-0085",
    "address": "岐阜市柳津町上佐波西3-68",
    "access": "岐阜県ふれあい会館から南に4分",
    "games": [
      "カラコロッタ まぼろしの桃源郷"
    ]
  },
  {
    "name": "A.Cグランド",
    "operation_time": "9:00～24:00",
    "holiday": "無し",
    "latitude": "35.38308553",
    "longitude": "136.7461998",
    "tel": "058-275-0351",
    "address": "岐阜市茜部大川1-77",
    "access": "名鉄新岐阜駅15分",
    "games": [
      "カラコロッタ まぼろしの桃源郷"
    ]
  },
  {
    "name": "上越レジャーランボウル",
    "operation_time": "一部24時間営業",
    "holiday": "無し",
    "latitude": "37.16405087",
    "longitude": "138.2489336",
    "tel": "0255-31-2030",
    "address": "上越市下門前薬島827-2",
    "access": "国道8号線沿い高岡市内関川大橋そば",
    "games": [
      "カラコロッタ まぼろしの桃源郷"
    ]
  },
  {
    "name": "アミューズメントワールドメトロポリス小牧店",
    "operation_time": "平日10:00～23:50 土日祝日前 9:00～23:50",
    "holiday": "無し",
    "latitude": "35.2951722",
    "longitude": "136.905659",
    "tel": "0568-71-0005",
    "address": "小牧市村中新町33",
    "access": "名神高速小牧インターより南へ1km R41号間々本町交差点角",
    "games": [
      "カラコロッタ まぼろしの桃源郷"
    ]
  },
  {
    "name": "ラウンドワン新潟店",
    "operation_time": "",
    "holiday": "",
    "latitude": "37.88807436",
    "longitude": "139.0177537",
    "tel": "025-280-1322",
    "address": "新潟市中央区美咲町2-1-38",
    "access": "",
    "games": [
      "カラコロッタ まぼろしの桃源郷"
    ]
  },
  {
    "name": "namcoエアポートウォーク名古屋",
    "operation_time": "",
    "holiday": "",
    "latitude": "35.24598873",
    "longitude": "136.9246393",
    "tel": "0568-39-0765",
    "address": "西春日井郡豊山町大字豊場林先1-8エアポートウォーク名古屋3F",
    "access": "",
    "games": [
      "カラコロッタ まぼろしの桃源郷"
    ]
  },
  {
    "name": "ラウンドワン津･高茶屋店",
    "operation_time": "",
    "holiday": "",
    "latitude": "34.6726828",
    "longitude": "136.5194663",
    "tel": "059-238-0011",
    "address": "津市高茶屋小森町277-8",
    "access": "",
    "games": [
      "カラコロッタ まぼろしの桃源郷"
    ]
  },
  {
    "name": "キングジョイ",
    "operation_time": "9:00～24:00",
    "holiday": "無し",
    "latitude": "35.16797694",
    "longitude": "136.9050444",
    "tel": "052-241-9515",
    "address": "名古屋市中区栄3-3-32",
    "access": "地下鉄栄駅徒歩3分",
    "games": [
      "カラコロッタ まぼろしの桃源郷"
    ]
  },
  {
    "name": "ラウンドワン千種店",
    "operation_time": "",
    "holiday": "",
    "latitude": "35.16799971",
    "longitude": "136.9279985",
    "tel": "052-238-1615",
    "address": "名古屋市千種区新栄3-20-17タイホウ千種駅前南ビル8F",
    "access": "",
    "games": [
      "カラコロッタ まぼろしの桃源郷"
    ]
  },
  {
    "name": "名古屋レジャーランド内田橋店",
    "operation_time": "一部24時間営業",
    "holiday": "無し",
    "latitude": "35.1137072",
    "longitude": "136.9098069",
    "tel": "052-694-6051",
    "address": "名古屋市南区内田橋2-26-22",
    "access": "名鉄常滑線豊田本町駅近く",
    "games": [
      "カラコロッタ まぼろしの桃源郷"
    ]
  },
  {
    "name": "GiGO東名ボール",
    "operation_time": "",
    "holiday": "",
    "latitude": "35.209234",
    "longitude": "137.062873",
    "tel": "070-1459-2466",
    "address": "瀬戸市西原町2-114",
    "access": "",
    "games": [
      "カラコロッタ まぼろしの桃源郷"
    ]
  },
  {
    "name": "ゲームパニック大高",
    "operation_time": "9:00～23:45",
    "holiday": "無し",
    "latitude": "35.04850561",
    "longitude": "136.9496236",
    "tel": "052-625-5360",
    "address": "名古屋市緑区忠治山201グランドボウルB2F",
    "access": "国道23号線大高町共和IC側道グランドボウルB2階",
    "games": [
      "カラコロッタ まぼろしの桃源郷"
    ]
  },
  {
    "name": "ラウンドワン長野店",
    "operation_time": "",
    "holiday": "",
    "latitude": "36.65105714",
    "longitude": "138.225192",
    "tel": "026-254-5801",
    "address": "長野市大字東和田827-6",
    "access": "",
    "games": [
      "カラコロッタ まぼろしの桃源郷"
    ]
  },
  {
    "name": "アピナ長野村山店",
    "operation_time": "10:00～24:00",
    "holiday": "無し",
    "latitude": "36.6682177",
    "longitude": "138.2633103",
    "tel": "0262-95-9911",
    "address": "長野市村山502-1アミューズメントプレイスアピナ",
    "access": "R18号アップルライン入口",
    "games": [
      "カラコロッタ まぼろしの桃源郷"
    ]
  },
  {
    "name": "GiGOイオンタウン刈谷",
    "operation_time": "",
    "holiday": "",
    "latitude": "35.03882703",
    "longitude": "137.0267449",
    "tel": "0566-36-4338",
    "address": "刈谷市東境町京和1",
    "access": "",
    "games": [
      "カラコロッタ まぼろしの桃源郷"
    ]
  },
  {
    "name": "ラウンドワン半田店",
    "operation_time": "",
    "holiday": "",
    "latitude": "34.88609688",
    "longitude": "136.9412056",
    "tel": "0569-25-7351",
    "address": "半田市瑞穂町6-7-8",
    "access": "",
    "games": [
      "カラコロッタ まぼろしの桃源郷"
    ]
  },
  {
    "name": "アピナ塩尻店",
    "operation_time": "10:00～24:00",
    "holiday": "無し",
    "latitude": "36.14140932",
    "longitude": "137.9536147",
    "tel": "026-351-5511",
    "address": "塩尻市広丘野村1794-1",
    "access": "国道19号線沿い野村交差点から塩尻方面",
    "games": [
      "カラコロッタ まぼろしの桃源郷"
    ]
  },
  {
    "name": "M'Sパーク豊田店",
    "operation_time": "一部24時間営業",
    "holiday": "",
    "latitude": "35.0565113",
    "longitude": "137.1404324",
    "tel": "0565-71-0027",
    "address": "豊田市寿町3-10-11",
    "access": "愛知環状鉄道三河豊田駅10分。名鉄三河線土橋駅より徒歩10分。",
    "games": [
      "カラコロッタ まぼろしの桃源郷"
    ]
  },
  {
    "name": "安城メトロポリス",
    "operation_time": "平日10:00～24:00、土日祝日9:00～24:00",
    "holiday": "無し",
    "latitude": "34.95485697",
    "longitude": "137.0975854",
    "tel": "0566-74-8238",
    "address": "安城市浜富町6-8",
    "access": "JR東海道本線安城駅より車で3分・徒歩10分",
    "games": [
      "カラコロッタ まぼろしの桃源郷"
    ]
  },
  {
    "name": "ラウンドワン盛岡店",
    "operation_time": "",
    "holiday": "",
    "latitude": "39.70035197",
    "longitude": "141.133077",
    "tel": "019-654-9011",
    "address": "盛岡市盛岡駅西通2-10-35",
    "access": "",
    "games": [
      "カラコロッタ まぼろしの桃源郷"
    ]
  },
  {
    "name": "GiGO天童",
    "operation_time": "10:00～24:00",
    "holiday": "無し",
    "latitude": "38.34302924",
    "longitude": "140.3739732",
    "tel": "023-656-9370",
    "address": "天童市南町1-5-26",
    "access": "JR「天童駅」より車で10分。国道13号線を南下し国道沿い左側。",
    "games": [
      "カラコロッタ まぼろしの桃源郷"
    ]
  },
  {
    "name": "ラウンドワン豊橋店",
    "operation_time": "",
    "holiday": "",
    "latitude": "34.7239242",
    "longitude": "137.4323261",
    "tel": "0532-65-2212",
    "address": "豊橋市大岩町字岩田27-2",
    "access": "",
    "games": [
      "カラコロッタ まぼろしの桃源郷"
    ]
  },
  {
    "name": "群馬レジャーランド渋川店",
    "operation_time": "",
    "holiday": "",
    "latitude": "36.4742053",
    "longitude": "139.0154654",
    "tel": "0279-25-0718",
    "address": "渋川市八木原1364",
    "access": "",
    "games": [
      "カラコロッタ まぼろしの桃源郷"
    ]
  },
  {
    "name": "群馬レジャーランド高崎駅東口店",
    "operation_time": "一部24時間営業",
    "holiday": "無し",
    "latitude": "36.32992086",
    "longitude": "139.0128661",
    "tel": "027-330-3002",
    "address": "高崎市江木町333-1高崎EXビル2F",
    "access": "JR高崎駅東口徒歩10分",
    "games": [
      "カラコロッタ まぼろしの桃源郷"
    ]
  },
  {
    "name": "ラウンドワン浜松店",
    "operation_time": "",
    "holiday": "",
    "latitude": "34.73795995",
    "longitude": "137.7638799",
    "tel": "053-461-1101",
    "address": "浜松市中央区天王町諏訪1981-17",
    "access": "",
    "games": [
      "カラコロッタ まぼろしの桃源郷"
    ]
  },
  {
    "name": "ラウンドワン前橋店",
    "operation_time": "",
    "holiday": "",
    "latitude": "36.36888377",
    "longitude": "139.1051864",
    "tel": "027-287-1501",
    "address": "前橋市天川大島町1101-1",
    "access": "",
    "games": [
      "カラコロッタ まぼろしの桃源郷"
    ]
  },
  {
    "name": "ゲームパニック甲府",
    "operation_time": "",
    "holiday": "",
    "latitude": "35.64182781",
    "longitude": "138.547239",
    "tel": "080-3350-2893",
    "address": "甲府市国母5-20-24",
    "access": "",
    "games": [
      "カラコロッタ まぼろしの桃源郷"
    ]
  },
  {
    "name": "群馬レジャーランド藤岡店",
    "operation_time": "一部24時間営業",
    "holiday": "",
    "latitude": "36.27426745",
    "longitude": "139.0718857",
    "tel": "0274-40-2371",
    "address": "藤岡市中2002-1",
    "access": "県道13号沿い、上信越道藤岡IC北 カーオプション店『ピット100』2階",
    "games": [
      "カラコロッタ まぼろしの桃源郷"
    ]
  },
  {
    "name": "群馬レジャーランド伊勢崎店",
    "operation_time": "一部24時間営業",
    "holiday": "無し",
    "latitude": "36.31824274",
    "longitude": "139.1723592",
    "tel": "0270-40-5330",
    "address": "伊勢崎市連取町3066-1",
    "access": "伊勢崎市内県道2号線沿い伊勢崎オート近く",
    "games": [
      "カラコロッタ まぼろしの桃源郷"
    ]
  },
  {
    "name": "ラウンドワンさいたま･上里店",
    "operation_time": "",
    "holiday": "",
    "latitude": "36.259925",
    "longitude": "139.137383",
    "tel": "0495-35-2201",
    "address": "児玉郡上里町大字金久保字周川394-1",
    "access": "",
    "games": [
      "カラコロッタ まぼろしの桃源郷"
    ]
  },
  {
    "name": "ラウンドワン福島店",
    "operation_time": "",
    "holiday": "",
    "latitude": "37.75259469",
    "longitude": "140.4562354",
    "tel": "024-525-4731",
    "address": "福島市太田町14-18",
    "access": "",
    "games": [
      "カラコロッタ まぼろしの桃源郷"
    ]
  },
  {
    "name": "群馬レジャーランド太田店",
    "operation_time": "一部24時間営業",
    "holiday": "無し",
    "latitude": "36.26802219",
    "longitude": "139.3761382",
    "tel": "0276-47-8030",
    "address": "太田市西矢島町162-2",
    "access": "",
    "games": [
      "カラコロッタ まぼろしの桃源郷"
    ]
  },
  {
    "name": "アピナ太田店",
    "operation_time": "10:00～24:00",
    "holiday": "無し",
    "latitude": "36.28282169",
    "longitude": "139.3983139",
    "tel": "0276-48-1489",
    "address": "太田市内ヶ島町907-1",
    "access": "太田駅より車で5分富士重工近く",
    "games": [
      "カラコロッタ まぼろしの桃源郷"
    ]
  },
  {
    "name": "ドラマ足利店",
    "operation_time": "10:00～24:00",
    "holiday": "無し",
    "latitude": "36.32220259",
    "longitude": "139.4503607",
    "tel": "0284-73-9559",
    "address": "足利市朝倉町244-1",
    "access": "東武伊勢崎線足利市駅より徒歩10分",
    "games": [
      "カラコロッタ まぼろしの桃源郷"
    ]
  },
  {
    "name": "ラウンドワン静岡･駿河店",
    "operation_time": "",
    "holiday": "",
    "latitude": "34.950991",
    "longitude": "138.360524",
    "tel": "054-201-1601",
    "address": "静岡市駿河区向手越1-10-1",
    "access": "",
    "games": [
      "カラコロッタ まぼろしの桃源郷"
    ]
  },
  {
    "name": "ラウンドワン郡山店",
    "operation_time": "",
    "holiday": "",
    "latitude": "37.40229903",
    "longitude": "140.3957065",
    "tel": "024-941-3191",
    "address": "郡山市向河原町4-55",
    "access": "",
    "games": [
      "カラコロッタ まぼろしの桃源郷"
    ]
  },
  {
    "name": "namcoイオンタウン郡山店",
    "operation_time": "",
    "holiday": "",
    "latitude": "37.389283",
    "longitude": "140.390809",
    "tel": "024-943-2715",
    "address": "郡山市松木町2-88イオンタウン郡山",
    "access": "",
    "games": [
      "カラコロッタ まぼろしの桃源郷"
    ]
  },
  {
    "name": "スーパーウェーブ静岡店",
    "operation_time": "",
    "holiday": "",
    "latitude": "35.01361",
    "longitude": "138.43421",
    "tel": "054-340-5888",
    "address": "静岡市清水区鳥坂860フレスポ静岡2F西",
    "access": "",
    "games": [
      "カラコロッタ まぼろしの桃源郷"
    ]
  },
  {
    "name": "アピナ焼津店",
    "operation_time": "",
    "holiday": "",
    "latitude": "34.83371431",
    "longitude": "138.3059489",
    "tel": "054-623-8555",
    "address": "焼津市道原585",
    "access": "",
    "games": [
      "カラコロッタ まぼろしの桃源郷"
    ]
  },
  {
    "name": "namcoフェドラP&D佐野店",
    "operation_time": "10:00～23:00 土日祝9:00～23:00",
    "holiday": "無し",
    "latitude": "36.29729",
    "longitude": "139.605644",
    "tel": "0283-85-9518",
    "address": "佐野市高萩町1340",
    "access": "",
    "games": [
      "カラコロッタ まぼろしの桃源郷"
    ]
  },
  {
    "name": "ラウンドワン富士店",
    "operation_time": "",
    "holiday": "",
    "latitude": "35.15310644",
    "longitude": "138.6938016",
    "tel": "0545-51-3636",
    "address": "富士市八代町4-15",
    "access": "",
    "games": [
      "カラコロッタ まぼろしの桃源郷"
    ]
  },
  {
    "name": "ラウンドワン宇都宮店",
    "operation_time": "",
    "holiday": "",
    "latitude": "36.54080987",
    "longitude": "139.8868656",
    "tel": "028-614-8171",
    "address": "宇都宮市江曽島町2072-1",
    "access": "",
    "games": [
      "カラコロッタ まぼろしの桃源郷"
    ]
  },
  {
    "name": "namco宇都宮店",
    "operation_time": "",
    "holiday": "",
    "latitude": "36.54390559",
    "longitude": "139.8915705",
    "tel": "028-638-5011",
    "address": "宇都宮市簗瀬町1606-1P&Dビル",
    "access": "",
    "games": [
      "カラコロッタ まぼろしの桃源郷"
    ]
  },
  {
    "name": "ドラマ瑞穂店",
    "operation_time": "10:00～24:00",
    "holiday": "無し",
    "latitude": "35.76337213",
    "longitude": "139.3568934",
    "tel": "042-556-6605",
    "address": "西多摩郡瑞穂町武蔵382-1",
    "access": "JR八高線「箱根ヶ崎駅」から武蔵村山市方面に徒歩25分",
    "games": [
      "カラコロッタ まぼろしの桃源郷"
    ]
  },
  {
    "name": "アピナ小山店",
    "operation_time": "10:00～24:00",
    "holiday": "無し",
    "latitude": "36.300419",
    "longitude": "139.809126",
    "tel": "0285-31-0050",
    "address": "小山市駅南町4-27-18",
    "access": "国道50号線沿い駅南町交差点",
    "games": [
      "カラコロッタ まぼろしの桃源郷"
    ]
  },
  {
    "name": "アピナ川越店",
    "operation_time": "10:00～24:00",
    "holiday": "無し",
    "latitude": "35.9037481",
    "longitude": "139.5155363",
    "tel": "049-230-1068",
    "address": "川越市泉町1-1",
    "access": "JR川越線南古谷駅徒歩3分",
    "games": [
      "カラコロッタ まぼろしの桃源郷"
    ]
  },
  {
    "name": "アミューズメントフィールドバイヨン",
    "operation_time": "10:00～24:00",
    "holiday": "無し",
    "latitude": "35.85617882",
    "longitude": "139.522425",
    "tel": "0492-65-1400",
    "address": "ふじみ野市うれし野2-16-1LCモールうれし野2F",
    "access": "東武東上線「ふじみ野」駅徒歩6分ショッピングモールリズム横",
    "games": [
      "カラコロッタ まぼろしの桃源郷"
    ]
  },
  {
    "name": "ドラマ八王子高倉店",
    "operation_time": "10:00～24:00",
    "holiday": "無し",
    "latitude": "35.66506526",
    "longitude": "139.3664795",
    "tel": "0426-45-7050",
    "address": "八王子市高倉町55-4",
    "access": "国道20号、八王子市高倉町「高倉町西」交差点を日野バイパス豊田方面右手",
    "games": [
      "カラコロッタ まぼろしの桃源郷"
    ]
  },
  {
    "name": "タイトーステーション所沢店",
    "operation_time": "09:00～24:00",
    "holiday": "無し",
    "latitude": "35.7881",
    "longitude": "139.47243",
    "tel": "04-2925-9071",
    "address": "所沢市日吉町3-7",
    "access": "所沢駅西口プロペ通りを徒歩3分",
    "games": [
      "カラコロッタ まぼろしの桃源郷"
    ]
  },
  {
    "name": "ウェアハウス三橋店",
    "operation_time": "一部24時間営業",
    "holiday": "無し",
    "latitude": "35.91589833",
    "longitude": "139.5959286",
    "tel": "048-795-8380",
    "address": "さいたま市西区三橋6-955-1",
    "access": "国道17号バイパス三橋六丁目交差点",
    "games": [
      "カラコロッタ まぼろしの桃源郷"
    ]
  },
  {
    "name": "インターワールド幸手店",
    "operation_time": "",
    "holiday": "",
    "latitude": "36.05714632",
    "longitude": "139.7144119",
    "tel": "0480-47-0540",
    "address": "幸手市上高野2142-1",
    "access": "",
    "games": [
      "カラコロッタ まぼろしの桃源郷"
    ]
  },
  {
    "name": "Amusement&Game MAGHREB",
    "operation_time": "10:00～24:00",
    "holiday": "無し",
    "latitude": "35.624024",
    "longitude": "139.423196",
    "tel": "042-371-5556",
    "address": "多摩市落合1-39-2マグレブビル1F",
    "access": "京王線・小田急線 多摩センター駅 徒歩3分/多摩モノレール多摩センター駅 徒歩1分",
    "games": [
      "カラコロッタ まぼろしの桃源郷"
    ]
  },
  {
    "name": "ウェアハウス岩槻店",
    "operation_time": "7:00～23:45",
    "holiday": "無し",
    "latitude": "35.94092949",
    "longitude": "139.6859268",
    "tel": "048-758-8755",
    "address": "さいたま市岩槻区加倉3-3-63",
    "access": "岩槻IC降りて直ぐ",
    "games": [
      "カラコロッタ まぼろしの桃源郷"
    ]
  },
  {
    "name": "埼玉レジャーランド春日部店",
    "operation_time": "一部24時間",
    "holiday": "無し",
    "latitude": "35.95940469",
    "longitude": "139.7289621",
    "tel": "048-763-4061",
    "address": "春日部市大字増富字谷際163-1",
    "access": "国道16号線沿い春日部市増富地内",
    "games": [
      "カラコロッタ まぼろしの桃源郷"
    ]
  },
  {
    "name": "タイトーステーション小田原シティモール店",
    "operation_time": "10:00～24:00",
    "holiday": "無し",
    "latitude": "35.281376",
    "longitude": "139.193786",
    "tel": "0465-45-5052",
    "address": "小田原市前川120小田原シティーモールC棟2F",
    "access": "JR鴨宮駅より、徒歩約20分。",
    "games": [
      "カラコロッタ まぼろしの桃源郷"
    ]
  },
  {
    "name": "タイトーステーション和光店",
    "operation_time": "10:00～24:00",
    "holiday": "無し",
    "latitude": "35.78667068",
    "longitude": "139.613806",
    "tel": "048-465-7161",
    "address": "和光市丸山台1-4-5",
    "access": "東武東上線・和光市駅より徒歩5分",
    "games": [
      "カラコロッタ まぼろしの桃源郷"
    ]
  },
  {
    "name": "神奈川レジャーランド厚木店",
    "operation_time": "一部24時間営業",
    "holiday": "無し",
    "latitude": "35.44802433",
    "longitude": "139.3431365",
    "tel": "050-1722-4336",
    "address": "厚木市戸室5-31-1",
    "access": "小田急本厚木駅よりバスにてアンリツ前バス停下車徒歩1分",
    "games": [
      "カラコロッタ まぼろしの桃源郷"
    ]
  },
  {
    "name": "ラウンドワンわらび店",
    "operation_time": "",
    "holiday": "",
    "latitude": "35.83078787",
    "longitude": "139.6742521",
    "tel": "048-447-8080",
    "address": "蕨市北町5-1-6",
    "access": "",
    "games": [
      "カラコロッタ まぼろしの桃源郷"
    ]
  },
  {
    "name": "アピナ野田七光台店",
    "operation_time": "",
    "holiday": "",
    "latitude": "35.98235422",
    "longitude": "139.8501674",
    "tel": "0471-27-1137",
    "address": "野田市七光台4-2ロックタウン内",
    "access": "",
    "games": [
      "カラコロッタ まぼろしの桃源郷"
    ]
  },
  {
    "name": "千葉レジャーランド野田店",
    "operation_time": "一部24時間営業",
    "holiday": "無し",
    "latitude": "35.97154747",
    "longitude": "139.8653487",
    "tel": "04-7120-3535",
    "address": "野田市吉春776-1",
    "access": "国道16号線沿い野田市吉春地内",
    "games": [
      "カラコロッタ まぼろしの桃源郷"
    ]
  },
  {
    "name": "GiGO川口",
    "operation_time": "",
    "holiday": "",
    "latitude": "35.79475047",
    "longitude": "139.7475357",
    "tel": "048-226-1191",
    "address": "川口市東領家2-2-10",
    "access": "",
    "games": [
      "カラコロッタ まぼろしの桃源郷"
    ]
  },
  {
    "name": "アドアーズサンシャイン店",
    "operation_time": "10:00～23:45",
    "holiday": "無し",
    "latitude": "35.72996953",
    "longitude": "139.714918",
    "tel": "03-3971-9601",
    "address": "豊島区東池袋1-14-4シネマサンシャイン1-3F",
    "access": "シネマサンシャインビル内",
    "games": [
      "カラコロッタ まぼろしの桃源郷"
    ]
  },
  {
    "name": "namco王子サンスクエア店",
    "operation_time": "",
    "holiday": "",
    "latitude": "35.7529261",
    "longitude": "139.7377633",
    "tel": "03-5959-9830",
    "address": "北区王子1-4-1サンスクエア2F",
    "access": "",
    "games": [
      "カラコロッタ まぼろしの桃源郷"
    ]
  },
  {
    "name": "ラウンドワン草加店",
    "operation_time": "",
    "holiday": "",
    "latitude": "35.81240056",
    "longitude": "139.7878993",
    "tel": "048-920-3701",
    "address": "草加市谷塚上町204-1",
    "access": "",
    "games": [
      "カラコロッタ まぼろしの桃源郷"
    ]
  },
  {
    "name": "サープラ横浜あそびタウン",
    "operation_time": "9:00～24:00",
    "holiday": "無し",
    "latitude": "35.55234069",
    "longitude": "139.579585",
    "tel": "045-914-7386",
    "address": "横浜市都筑区中川中央1-25ノースポートモール6F",
    "access": "横浜市営地下鉄センター北駅ノースポートモール6F",
    "games": [
      "カラコロッタ まぼろしの桃源郷"
    ]
  },
  {
    "name": "ウェアハウス草加店",
    "operation_time": "一部24時間",
    "holiday": "無し",
    "latitude": "35.82979825",
    "longitude": "139.8207329",
    "tel": "048-930-5261",
    "address": "八潮市南後谷507",
    "access": "草加産業道路沿い",
    "games": [
      "カラコロッタ まぼろしの桃源郷"
    ]
  },
  {
    "name": "アドアーズ上野アメ横店",
    "operation_time": "10:00～23:30",
    "holiday": "無し",
    "latitude": "35.71002035",
    "longitude": "139.7742619",
    "tel": "03-5812-1570",
    "address": "台東区上野4-9-14上野KKビルB1-4F",
    "access": "アメ横センタービルそば",
    "games": [
      "カラコロッタ まぼろしの桃源郷"
    ]
  },
  {
    "name": "アドアーズ浅草店",
    "operation_time": "10:00～23:30",
    "holiday": "無し",
    "latitude": "35.71319542",
    "longitude": "139.7934854",
    "tel": "03-5830-4380",
    "address": "台東区浅草1-42-4ヒューリック浅草一丁目B1-1F",
    "access": "六区商店街フットサルコート前",
    "games": [
      "カラコロッタ まぼろしの桃源郷"
    ]
  },
  {
    "name": "スーパーウェーブ柏店",
    "operation_time": "9:00～24:00",
    "holiday": "無し",
    "latitude": "35.88165286",
    "longitude": "139.9615303",
    "tel": "04-7144-8366",
    "address": "柏市十余二249-5MEM内",
    "access": "国道16号線沿い マルハンエンタテインメントモール内",
    "games": [
      "カラコロッタ まぼろしの桃源郷"
    ]
  },
  {
    "name": "namco松戸店",
    "operation_time": "",
    "holiday": "",
    "latitude": "35.783581",
    "longitude": "139.900789",
    "tel": "047-711-7274",
    "address": "松戸市松戸1230-1ピアザ松戸1F",
    "access": "",
    "games": [
      "カラコロッタ まぼろしの桃源郷"
    ]
  },
  {
    "name": "アドアーズイサゴ店",
    "operation_time": "10:00～23:30",
    "holiday": "無し",
    "latitude": "35.52972044",
    "longitude": "139.7004317",
    "tel": "044-246-3161",
    "address": "川崎市川崎区砂子2-5-5(株)岡田屋2BKビル1F",
    "access": "銀柳から仲見世通り善光寺角を左",
    "games": [
      "カラコロッタ まぼろしの桃源郷"
    ]
  },
  {
    "name": "ゲームパニックつくば",
    "operation_time": "",
    "holiday": "",
    "latitude": "36.04632758",
    "longitude": "140.1679958",
    "tel": "080-3350-1839",
    "address": "土浦市中村東1-1-1",
    "access": "",
    "games": [
      "カラコロッタ まぼろしの桃源郷"
    ]
  },
  {
    "name": "GiGO水戸南",
    "operation_time": "",
    "holiday": "",
    "latitude": "36.350325",
    "longitude": "140.443003",
    "tel": "029-244-1045",
    "address": "水戸市千波町2017-1",
    "access": "",
    "games": [
      "カラコロッタ まぼろしの桃源郷"
    ]
  },
  {
    "name": "大慶園",
    "operation_time": "一部24時間営業",
    "holiday": "無し",
    "latitude": "35.76304297",
    "longitude": "139.96933",
    "tel": "047-337-5001",
    "address": "市川市大町359",
    "access": "JR市川大野駅下車 市川植物園行きバス乗車 市川斎場前下車徒歩10分・北総線大町駅から車5分",
    "games": [
      "カラコロッタ まぼろしの桃源郷"
    ]
  },
  {
    "name": "アドアーズ船橋店",
    "operation_time": "10:00～23:45",
    "holiday": "",
    "latitude": "35.700449",
    "longitude": "139.984231",
    "tel": "047-411-3337",
    "address": "船橋市本町1-31-26セブン船橋B1-3F",
    "access": "",
    "games": [
      "カラコロッタ まぼろしの桃源郷"
    ]
  },
  {
    "name": "ラッキー佐倉店",
    "operation_time": "10:00～23:45",
    "holiday": "無し",
    "latitude": "35.71839979",
    "longitude": "140.1362206",
    "tel": "043-460-5165",
    "address": "佐倉市井野1475",
    "access": "京成線勝田台駅下車徒歩10分 国道296号沿い",
    "games": [
      "カラコロッタ まぼろしの桃源郷"
    ]
  },
  {
    "name": "スポーツウェーブ鉄腕24稲毛長沼店",
    "operation_time": "一部24時間営業",
    "holiday": "無し",
    "latitude": "35.66179317",
    "longitude": "140.1264239",
    "tel": "043-215-5560",
    "address": "千葉市稲毛区長沼原町697",
    "access": "東関東自動車道 千葉北ICから約5分 千葉総合運動場そば",
    "games": [
      "カラコロッタ まぼろしの桃源郷"
    ]
  },
  {
    "name": "ゲームチャリオット辰巳店",
    "operation_time": "10:00～24:00",
    "holiday": "無し",
    "latitude": "35.52471801",
    "longitude": "140.121946",
    "tel": "0436-41-9211",
    "address": "市原市市原500-1",
    "access": "館山自動車道蘇我ICより車で10分、国道297号線沿い",
    "games": [
      "カラコロッタ まぼろしの桃源郷"
    ]
  },
  {
    "name": "千葉レジャーランド成東店",
    "operation_time": "一部24時間営業",
    "holiday": "無し",
    "latitude": "35.58828462",
    "longitude": "140.3904243",
    "tel": "047-580-1777",
    "address": "山武市姫島111-1",
    "access": "国道126号線成東町姫島地内ローソン奥",
    "games": [
      "カラコロッタ まぼろしの桃源郷"
    ]
  }
]