[
  {
    "name": "ラウンドワン福岡天神店",
    "operation_time": "",
    "holiday": "",
    "latitude": "33.58960223",
    "longitude": "130.3968402",
    "tel": "092-720-8101",
    "address": "福岡市中央区天神2-6-12",
    "access": "",
    "games": [
      "エルドラクラウン 悠久のラビリンス"
    ]
  },
  {
    "name": "ラウンドワン博多半道橋店",
    "operation_time": "",
    "holiday": "",
    "latitude": "33.58394157",
    "longitude": "130.4382666",
    "tel": "092-475-6611",
    "address": "福岡市博多区半道橋2-2-8",
    "access": "",
    "games": [
      "エルドラクラウン 悠久のラビリンス"
    ]
  },
  {
    "name": "ラウンドワン佐賀店",
    "operation_time": "",
    "holiday": "",
    "latitude": "33.27533631",
    "longitude": "130.3015536",
    "tel": "0952-36-7070",
    "address": "佐賀市兵庫北4-2-1",
    "access": "",
    "games": [
      "エルドラクラウン 悠久のラビリンス"
    ]
  },
  {
    "name": "ラウンドワン大野城店",
    "operation_time": "",
    "holiday": "",
    "latitude": "33.54646948",
    "longitude": "130.4822214",
    "tel": "092-504-7411",
    "address": "大野城市御笠川1-18-16",
    "access": "",
    "games": [
      "エルドラクラウン 悠久のラビリンス"
    ]
  },
  {
    "name": "ラウンドワン小倉店",
    "operation_time": "",
    "holiday": "",
    "latitude": "33.89742877",
    "longitude": "130.8598475",
    "tel": "093-562-8805",
    "address": "北九州市小倉北区西港町15-65",
    "access": "",
    "games": [
      "エルドラクラウン 悠久のラビリンス"
    ]
  },
  {
    "name": "パスカワールドグリーンランド",
    "operation_time": "10:00～翌3:00",
    "holiday": "無し",
    "latitude": "32.98790587",
    "longitude": "130.4711246",
    "tel": "0968-69-3001",
    "address": "荒尾市本井手1574-54",
    "access": "三井グリーンランドウルトラマンランド横",
    "games": [
      "エルドラクラウン 悠久のラビリンス"
    ]
  },
  {
    "name": "ラウンドワン熊本店",
    "operation_time": "",
    "holiday": "",
    "latitude": "32.78499883",
    "longitude": "130.6775647",
    "tel": "096-325-7200",
    "address": "熊本市西区春日7-25-15",
    "access": "",
    "games": [
      "エルドラクラウン 悠久のラビリンス"
    ]
  },
  {
    "name": "トライセン中津店",
    "operation_time": "10:00～24:00",
    "holiday": "無し",
    "latitude": "33.58950451",
    "longitude": "131.2110968",
    "tel": "0979-85-0688",
    "address": "中津市下池永67-3",
    "access": "",
    "games": [
      "エルドラクラウン 悠久のラビリンス"
    ]
  },
  {
    "name": "ラウンドワン沖縄･宜野湾店",
    "operation_time": "",
    "holiday": "",
    "latitude": "26.27580261",
    "longitude": "127.7310389",
    "tel": "098-870-2110",
    "address": "宜野湾市真志喜3-28-8",
    "access": "",
    "games": [
      "エルドラクラウン 悠久のラビリンス"
    ]
  },
  {
    "name": "ラウンドワン沖縄･南風原店",
    "operation_time": "",
    "holiday": "",
    "latitude": "26.19509176",
    "longitude": "127.7210653",
    "tel": "098-940-6670",
    "address": "島尻郡南風原町字兼城下茂原552",
    "access": "",
    "games": [
      "エルドラクラウン 悠久のラビリンス"
    ]
  },
  {
    "name": "ラウンドワン鹿児島宇宿店",
    "operation_time": "",
    "holiday": "",
    "latitude": "31.54388304",
    "longitude": "130.5427759",
    "tel": "099-284-0655",
    "address": "鹿児島市宇宿2-2-2",
    "access": "",
    "games": [
      "エルドラクラウン 悠久のラビリンス"
    ]
  },
  {
    "name": "ラウンドワン大分店",
    "operation_time": "",
    "holiday": "",
    "latitude": "33.24885259",
    "longitude": "131.6402543",
    "tel": "097-573-2800",
    "address": "大分市萩原2-13-17",
    "access": "",
    "games": [
      "エルドラクラウン 悠久のラビリンス"
    ]
  },
  {
    "name": "ラウンドワン広島店",
    "operation_time": "",
    "holiday": "",
    "latitude": "34.39365895",
    "longitude": "132.4600423",
    "tel": "082-545-8910",
    "address": "広島市中区立町3-11",
    "access": "",
    "games": [
      "エルドラクラウン 悠久のラビリンス"
    ]
  },
  {
    "name": "ラウンドワン宮崎店",
    "operation_time": "",
    "holiday": "",
    "latitude": "31.89458335",
    "longitude": "131.4170876",
    "tel": "0985-63-1210",
    "address": "宮崎市中村東3-4-60",
    "access": "",
    "games": [
      "エルドラクラウン 悠久のラビリンス"
    ]
  },
  {
    "name": "ラウンドワン松山店",
    "operation_time": "",
    "holiday": "",
    "latitude": "33.8664873",
    "longitude": "132.751593",
    "tel": "089-911-5511",
    "address": "松山市東長戸1-3-10",
    "access": "",
    "games": [
      "エルドラクラウン 悠久のラビリンス"
    ]
  },
  {
    "name": "ラウンドワン福山店",
    "operation_time": "",
    "holiday": "",
    "latitude": "34.489155",
    "longitude": "133.3925782",
    "tel": "084-973-9891",
    "address": "福山市明神町1-9-28",
    "access": "",
    "games": [
      "エルドラクラウン 悠久のラビリンス"
    ]
  },
  {
    "name": "ユーズランド倉敷店",
    "operation_time": "10:00～21:00",
    "holiday": "無し",
    "latitude": "34.60290341",
    "longitude": "133.7454258",
    "tel": "086-430-5234",
    "address": "倉敷市水江1イオン倉敷ショッピングセンター2F",
    "access": "イオン倉敷SC2F倉敷駅北口1番乗場よりバスで10分山陽自動車道倉敷ICより約7分",
    "games": [
      "エルドラクラウン 悠久のラビリンス"
    ]
  },
  {
    "name": "ラウンドワン岡山妹尾店",
    "operation_time": "",
    "holiday": "",
    "latitude": "34.62318926",
    "longitude": "133.8694608",
    "tel": "086-282-8851",
    "address": "岡山市南区妹尾3413-1",
    "access": "",
    "games": [
      "エルドラクラウン 悠久のラビリンス"
    ]
  },
  {
    "name": "キャッツアイ新川店",
    "operation_time": "10:00～24:00",
    "holiday": "無し",
    "latitude": "43.10077961",
    "longitude": "141.3102954",
    "tel": "011-766-2828",
    "address": "札幌市北区新川2条7-1-7",
    "access": "札樽自動車道新川IC前",
    "games": [
      "エルドラクラウン 悠久のラビリンス"
    ]
  },
  {
    "name": "ラウンドワン札幌北21条店",
    "operation_time": "",
    "holiday": "",
    "latitude": "43.08681907",
    "longitude": "141.3495671",
    "tel": "011-733-8801",
    "address": "札幌市東区北21条東1-1-21",
    "access": "",
    "games": [
      "エルドラクラウン 悠久のラビリンス"
    ]
  },
  {
    "name": "ラウンドワン札幌すすきの店",
    "operation_time": "",
    "holiday": "",
    "latitude": "43.05431311",
    "longitude": "141.3540587",
    "tel": "011-520-1022",
    "address": "札幌市中央区南五条西3-6-1札幌東宝公楽ビル",
    "access": "",
    "games": [
      "エルドラクラウン 悠久のラビリンス"
    ]
  },
  {
    "name": "ラウンドワン高松店",
    "operation_time": "",
    "holiday": "",
    "latitude": "34.33898638",
    "longitude": "134.0669994",
    "tel": "087-812-6115",
    "address": "高松市松島町2-7-43",
    "access": "",
    "games": [
      "エルドラクラウン 悠久のラビリンス"
    ]
  },
  {
    "name": "ラウンドワン高知店",
    "operation_time": "",
    "holiday": "",
    "latitude": "33.55793713",
    "longitude": "133.554676",
    "tel": "088-804-3070",
    "address": "高知市南宝永町4-12",
    "access": "",
    "games": [
      "エルドラクラウン 悠久のラビリンス"
    ]
  },
  {
    "name": "ラウンドワン札幌白石本通店",
    "operation_time": "",
    "holiday": "",
    "latitude": "43.03673108",
    "longitude": "141.4328227",
    "tel": "011-865-8051",
    "address": "札幌市白石区本通-16-北1-50",
    "access": "",
    "games": [
      "エルドラクラウン 悠久のラビリンス"
    ]
  },
  {
    "name": "ラウンドワン姫路飾磨店",
    "operation_time": "",
    "holiday": "",
    "latitude": "34.79228629",
    "longitude": "134.6871127",
    "tel": "079-243-1830",
    "address": "姫路市飾磨区中島1-254",
    "access": "",
    "games": [
      "エルドラクラウン 悠久のラビリンス"
    ]
  },
  {
    "name": "ラウンドワン函館店",
    "operation_time": "",
    "holiday": "",
    "latitude": "41.82459206",
    "longitude": "140.7173548",
    "tel": "0138-49-8401",
    "address": "函館市西桔梗町848-11",
    "access": "",
    "games": [
      "エルドラクラウン 悠久のラビリンス"
    ]
  },
  {
    "name": "ラウンドワン加古川店",
    "operation_time": "",
    "holiday": "",
    "latitude": "34.74708002",
    "longitude": "134.836935",
    "tel": "0794-29-2513",
    "address": "加古川市尾上町安田字小河原325番6号",
    "access": "",
    "games": [
      "エルドラクラウン 悠久のラビリンス"
    ]
  },
  {
    "name": "ラウンドワン徳島･万代店",
    "operation_time": "",
    "holiday": "",
    "latitude": "34.064828",
    "longitude": "134.564699",
    "tel": "088-612-0025",
    "address": "徳島市万代町4-19-1",
    "access": "",
    "games": [
      "エルドラクラウン 悠久のラビリンス"
    ]
  },
  {
    "name": "ラウンドワン三宮駅前店",
    "operation_time": "",
    "holiday": "",
    "latitude": "34.69403073",
    "longitude": "135.1973402",
    "tel": "078-252-7200",
    "address": "神戸市中央区小野柄通り6-1-17",
    "access": "",
    "games": [
      "エルドラクラウン 悠久のラビリンス"
    ]
  },
  {
    "name": "バイパスレジャーランド加賀店",
    "operation_time": "一部24時間営業",
    "holiday": "無し",
    "latitude": "36.32515503",
    "longitude": "136.4113746",
    "tel": "0761-74-8007",
    "address": "加賀市箱宮町ヲ1-1",
    "access": "国道8号線加賀産業道路終点近く",
    "games": [
      "エルドラクラウン 悠久のラビリンス"
    ]
  },
  {
    "name": "バイパスレジャーランド藤江本館",
    "operation_time": "一部24時間営業",
    "holiday": "無し",
    "latitude": "36.58397239",
    "longitude": "136.621523",
    "tel": "076-268-3798",
    "address": "金沢市藤江南2-41",
    "access": "国道8号線沿い藤江交差点近く",
    "games": [
      "エルドラクラウン 悠久のラビリンス"
    ]
  },
  {
    "name": "福井レジャーランド板垣店",
    "operation_time": "",
    "holiday": "",
    "latitude": "36.042283",
    "longitude": "136.233748",
    "tel": "0776-33-5510",
    "address": "福井市下馬3-112",
    "access": "",
    "games": [
      "エルドラクラウン 悠久のラビリンス"
    ]
  },
  {
    "name": "ラウンドワン金沢店",
    "operation_time": "",
    "holiday": "",
    "latitude": "36.54211559",
    "longitude": "136.626054",
    "tel": "076-245-1850",
    "address": "金沢市横川6-120-1",
    "access": "",
    "games": [
      "エルドラクラウン 悠久のラビリンス"
    ]
  },
  {
    "name": "ラウンドワン豊中店",
    "operation_time": "",
    "holiday": "",
    "latitude": "34.75733488",
    "longitude": "135.465555",
    "tel": "06-6865-2200",
    "address": "豊中市名神口1-1-1",
    "access": "",
    "games": [
      "エルドラクラウン 悠久のラビリンス"
    ]
  },
  {
    "name": "関大前フタバボウル",
    "operation_time": "10:00～24:00/日・祝:9:00～24:00",
    "holiday": "無し",
    "latitude": "34.77288114",
    "longitude": "135.5062328",
    "tel": "06-6338-3068",
    "address": "吹田市千里山東1-7-18",
    "access": "阪急関大前駅下車徒歩5分",
    "games": [
      "エルドラクラウン 悠久のラビリンス"
    ]
  },
  {
    "name": "ラウンドワン東淀川店",
    "operation_time": "",
    "holiday": "",
    "latitude": "34.74289355",
    "longitude": "135.5255278",
    "tel": "06-6160-2221",
    "address": "大阪市東淀川区菅原7-14-29",
    "access": "",
    "games": [
      "エルドラクラウン 悠久のラビリンス"
    ]
  },
  {
    "name": "ラウンドワン梅田店",
    "operation_time": "",
    "holiday": "",
    "latitude": "34.70337769",
    "longitude": "135.5009178",
    "tel": "06-6312-6800",
    "address": "大阪市北区小松原町4-16",
    "access": "",
    "games": [
      "エルドラクラウン 悠久のラビリンス"
    ]
  },
  {
    "name": "ゲームパニック堺",
    "operation_time": "10:00～23:45",
    "holiday": "無し",
    "latitude": "34.597817",
    "longitude": "135.447433",
    "tel": "072-224-8295",
    "address": "堺市堺区築港八幡町1-1堺浜シーサイド内堺浜えんため館",
    "access": "南海バス20系統「堺市内北回り」 堺駅西口→堺浜シーサイドステージ約17分 堺東駅→堺浜シーサイドステージ約25分",
    "games": [
      "エルドラクラウン 悠久のラビリンス"
    ]
  },
  {
    "name": "ラウンドワン千日前店",
    "operation_time": "",
    "holiday": "",
    "latitude": "34.667424",
    "longitude": "135.5026714",
    "tel": "06-4708-2600",
    "address": "大阪市中央区難波1-3-1",
    "access": "",
    "games": [
      "エルドラクラウン 悠久のラビリンス"
    ]
  },
  {
    "name": "ラウンドワン高槻店",
    "operation_time": "",
    "holiday": "",
    "latitude": "34.83266921",
    "longitude": "135.6301782",
    "tel": "072-672-9933",
    "address": "高槻市辻子3-6-4",
    "access": "",
    "games": [
      "エルドラクラウン 悠久のラビリンス"
    ]
  },
  {
    "name": "ラウンドワン和歌山店",
    "operation_time": "",
    "holiday": "",
    "latitude": "34.19849168",
    "longitude": "135.1859428",
    "tel": "073-421-8210",
    "address": "和歌山市小雑賀739-3",
    "access": "",
    "games": [
      "エルドラクラウン 悠久のラビリンス"
    ]
  },
  {
    "name": "ラウンドワン京都河原町店",
    "operation_time": "",
    "holiday": "",
    "latitude": "35.00699573",
    "longitude": "135.7685149",
    "tel": "075-213-8400",
    "address": "京都市中京区河原町通り三条下ル山崎町250",
    "access": "",
    "games": [
      "エルドラクラウン 悠久のラビリンス"
    ]
  },
  {
    "name": "ラウンドワン守口店",
    "operation_time": "",
    "holiday": "",
    "latitude": "34.7562488",
    "longitude": "135.5886793",
    "tel": "06-6907-9270",
    "address": "守口市佐太東町2-6-14ジャガーグリーン2F",
    "access": "",
    "games": [
      "エルドラクラウン 悠久のラビリンス"
    ]
  },
  {
    "name": "泉大津フタバボウル",
    "operation_time": "10:00～翌3:00",
    "holiday": "無し",
    "latitude": "34.5109011",
    "longitude": "135.4157314",
    "tel": "0725-22-8128",
    "address": "泉大津市松之浜町1-2-53",
    "access": "南海本線松ノ浜駅下車徒歩5分",
    "games": [
      "エルドラクラウン 悠久のラビリンス"
    ]
  },
  {
    "name": "ラウンドワン堺駅前店",
    "operation_time": "",
    "holiday": "",
    "latitude": "34.58340412",
    "longitude": "135.468425",
    "tel": "072-222-0120",
    "address": "堺市堺区戎島町4-44-3",
    "access": "",
    "games": [
      "エルドラクラウン 悠久のラビリンス"
    ]
  },
  {
    "name": "ラウンドワン岸和田店",
    "operation_time": "",
    "holiday": "",
    "latitude": "34.45649962",
    "longitude": "135.3885278",
    "tel": "072-429-1100",
    "address": "岸和田市八阪町2-11-1",
    "access": "",
    "games": [
      "エルドラクラウン 悠久のラビリンス"
    ]
  },
  {
    "name": "ラウンドワン城東放出店",
    "operation_time": "",
    "holiday": "",
    "latitude": "34.69651235",
    "longitude": "135.559648",
    "tel": "06-6936-0100",
    "address": "大阪市城東区今福南3-4-38",
    "access": "",
    "games": [
      "エルドラクラウン 悠久のラビリンス"
    ]
  },
  {
    "name": "ラウンドワン京都伏見店",
    "operation_time": "",
    "holiday": "",
    "latitude": "34.93599659",
    "longitude": "135.746198",
    "tel": "075-622-9911",
    "address": "京都市伏見区下鳥羽平塚町131",
    "access": "",
    "games": [
      "エルドラクラウン 悠久のラビリンス"
    ]
  },
  {
    "name": "ラウンドワン堺中央環状店",
    "operation_time": "",
    "holiday": "",
    "latitude": "34.55707895",
    "longitude": "135.5362412",
    "tel": "072-253-9559",
    "address": "堺市東区石原町2-241",
    "access": "",
    "games": [
      "エルドラクラウン 悠久のラビリンス"
    ]
  },
  {
    "name": "ラウンドワン東大阪店",
    "operation_time": "",
    "holiday": "",
    "latitude": "34.6531932",
    "longitude": "135.60637",
    "tel": "06-6224-1700",
    "address": "東大阪市若江南町1-2-12",
    "access": "",
    "games": [
      "エルドラクラウン 悠久のラビリンス"
    ]
  },
  {
    "name": "ラウンドワン浜大津アーカス店",
    "operation_time": "",
    "holiday": "",
    "latitude": "35.010557",
    "longitude": "135.866804",
    "tel": "077-526-8722",
    "address": "大津市浜町2-1浜大津アーカス4F",
    "access": "",
    "games": [
      "エルドラクラウン 悠久のラビリンス"
    ]
  },
  {
    "name": "トヤマレジャーランド呉羽店",
    "operation_time": "一部24時間営業",
    "holiday": "無し",
    "latitude": "36.71545083",
    "longitude": "137.1579046",
    "tel": "076-434-5336",
    "address": "富山市高木字貝塚2054",
    "access": "県道44号線沿い呉羽本町交差点を富山方面方向に車で3分",
    "games": [
      "エルドラクラウン 悠久のラビリンス"
    ]
  },
  {
    "name": "ラウンドワン青森店",
    "operation_time": "",
    "holiday": "",
    "latitude": "40.79867718",
    "longitude": "140.7483213",
    "tel": "017-762-3591",
    "address": "青森市浜田3-1-1",
    "access": "",
    "games": [
      "エルドラクラウン 悠久のラビリンス"
    ]
  },
  {
    "name": "エースレーン草津",
    "operation_time": "10:00～24:00",
    "holiday": "無し",
    "latitude": "34.99965692",
    "longitude": "135.9463199",
    "tel": "077-569-0472",
    "address": "草津市野路3-1-11",
    "access": "JR東海道線南草津駅より徒歩10分。国道1号線南田山交差点そば",
    "games": [
      "エルドラクラウン 悠久のラビリンス"
    ]
  },
  {
    "name": "ゲームスポットアップル",
    "operation_time": "",
    "holiday": "",
    "latitude": "36.8255737",
    "longitude": "137.4142933",
    "tel": "0765-24-7740",
    "address": "魚津市吉島2-407-1",
    "access": "",
    "games": [
      "エルドラクラウン 悠久のラビリンス"
    ]
  },
  {
    "name": "ラウンドワン奈良ミナーラ店",
    "operation_time": "",
    "holiday": "",
    "latitude": "34.685231",
    "longitude": "135.802224",
    "tel": "0742-32-3900",
    "address": "奈良市二条大路南1-3-1ミ･ナーラ5F",
    "access": "",
    "games": [
      "エルドラクラウン 悠久のラビリンス"
    ]
  },
  {
    "name": "ラウンドワン秋田店",
    "operation_time": "",
    "holiday": "",
    "latitude": "39.70235247",
    "longitude": "140.1092394",
    "tel": "018-896-6711",
    "address": "秋田市卸町1-1-2",
    "access": "",
    "games": [
      "エルドラクラウン 悠久のラビリンス"
    ]
  },
  {
    "name": "ラウンドワンモレラ岐阜店",
    "operation_time": "",
    "holiday": "",
    "latitude": "35.455121",
    "longitude": "136.672955",
    "tel": "058-323-6600",
    "address": "本巣市三橋1100",
    "access": "",
    "games": [
      "エルドラクラウン 悠久のラビリンス"
    ]
  },
  {
    "name": "岐阜レジャーランド穂積店",
    "operation_time": "7:00～24:00",
    "holiday": "無し",
    "latitude": "35.38432479",
    "longitude": "136.6846653",
    "tel": "058-326-1133",
    "address": "瑞穂市稲里630",
    "access": "国道21号線沿い瑞穂市野田新田交差点近く",
    "games": [
      "エルドラクラウン 悠久のラビリンス"
    ]
  },
  {
    "name": "A.Cグランド",
    "operation_time": "9:00～24:00",
    "holiday": "無し",
    "latitude": "35.38308553",
    "longitude": "136.7461998",
    "tel": "058-275-0351",
    "address": "岐阜市茜部大川1-77",
    "access": "名鉄新岐阜駅15分",
    "games": [
      "エルドラクラウン 悠久のラビリンス"
    ]
  },
  {
    "name": "アピナ四日市店",
    "operation_time": "",
    "holiday": "",
    "latitude": "34.94000426",
    "longitude": "136.6070666",
    "tel": "059-349-5011",
    "address": "四日市市泊小柳町4-34",
    "access": "",
    "games": [
      "エルドラクラウン 悠久のラビリンス"
    ]
  },
  {
    "name": "ラウンドワン名古屋西春店",
    "operation_time": "",
    "holiday": "",
    "latitude": "35.25506282",
    "longitude": "136.8439405",
    "tel": "0568-26-4001",
    "address": "北名古屋市宇福寺神明15",
    "access": "",
    "games": [
      "エルドラクラウン 悠久のラビリンス"
    ]
  },
  {
    "name": "ラウンドワンみえ川越IC店",
    "operation_time": "",
    "holiday": "",
    "latitude": "35.02319916",
    "longitude": "136.6836502",
    "tel": "059-361-2130",
    "address": "三重郡川越町大字南福崎851-1",
    "access": "",
    "games": [
      "エルドラクラウン 悠久のラビリンス"
    ]
  },
  {
    "name": "ラウンドワン新潟店",
    "operation_time": "",
    "holiday": "",
    "latitude": "37.88807436",
    "longitude": "139.0177537",
    "tel": "025-280-1322",
    "address": "新潟市中央区美咲町2-1-38",
    "access": "",
    "games": [
      "エルドラクラウン 悠久のラビリンス"
    ]
  },
  {
    "name": "ラウンドワン津･高茶屋店",
    "operation_time": "",
    "holiday": "",
    "latitude": "34.6726828",
    "longitude": "136.5194663",
    "tel": "059-238-0011",
    "address": "津市高茶屋小森町277-8",
    "access": "",
    "games": [
      "エルドラクラウン 悠久のラビリンス"
    ]
  },
  {
    "name": "ラウンドワン中川一号線店",
    "operation_time": "",
    "holiday": "",
    "latitude": "35.12338322",
    "longitude": "136.8636484",
    "tel": "052-665-5353",
    "address": "名古屋市中川区法蔵町2-23",
    "access": "",
    "games": [
      "エルドラクラウン 悠久のラビリンス"
    ]
  },
  {
    "name": "キングジョイ",
    "operation_time": "9:00～24:00",
    "holiday": "無し",
    "latitude": "35.16797694",
    "longitude": "136.9050444",
    "tel": "052-241-9515",
    "address": "名古屋市中区栄3-3-32",
    "access": "地下鉄栄駅徒歩3分",
    "games": [
      "エルドラクラウン 悠久のラビリンス"
    ]
  },
  {
    "name": "メジャーロード白根店",
    "operation_time": "9:00～24:00",
    "holiday": "無し",
    "latitude": "37.76046275",
    "longitude": "139.0221025",
    "tel": "025-373-6810",
    "address": "新潟市南区上下諏訪木948-2",
    "access": "ひらせい白根店敷地内",
    "games": [
      "エルドラクラウン 悠久のラビリンス"
    ]
  },
  {
    "name": "名古屋レジャーランド内田橋店",
    "operation_time": "一部24時間営業",
    "holiday": "無し",
    "latitude": "35.1137072",
    "longitude": "136.9098069",
    "tel": "052-694-6051",
    "address": "名古屋市南区内田橋2-26-22",
    "access": "名鉄常滑線豊田本町駅近く",
    "games": [
      "エルドラクラウン 悠久のラビリンス"
    ]
  },
  {
    "name": "メジャーロード見附店",
    "operation_time": "10:00～24:00",
    "holiday": "無し",
    "latitude": "37.54318868",
    "longitude": "138.8915351",
    "tel": "0258-66-8080",
    "address": "見附市上新田町516-1",
    "access": "高速「中之島見附IC」より車で5分。国道8号線を北上し「今町」交差点先の右側。",
    "games": [
      "エルドラクラウン 悠久のラビリンス"
    ]
  },
  {
    "name": "ラウンドワン鳴海店",
    "operation_time": "",
    "holiday": "",
    "latitude": "35.09913151",
    "longitude": "136.9528735",
    "tel": "052-899-0700",
    "address": "名古屋市緑区鳴海町字杜若28",
    "access": "",
    "games": [
      "エルドラクラウン 悠久のラビリンス"
    ]
  },
  {
    "name": "ゲームパニック大高",
    "operation_time": "9:00～23:45",
    "holiday": "無し",
    "latitude": "35.04850561",
    "longitude": "136.9496236",
    "tel": "052-625-5360",
    "address": "名古屋市緑区忠治山201グランドボウルB2F",
    "access": "国道23号線大高町共和IC側道グランドボウルB2階",
    "games": [
      "エルドラクラウン 悠久のラビリンス"
    ]
  },
  {
    "name": "ラウンドワン長野店",
    "operation_time": "",
    "holiday": "",
    "latitude": "36.65105714",
    "longitude": "138.225192",
    "tel": "026-254-5801",
    "address": "長野市大字東和田827-6",
    "access": "",
    "games": [
      "エルドラクラウン 悠久のラビリンス"
    ]
  },
  {
    "name": "ラウンドワン半田店",
    "operation_time": "",
    "holiday": "",
    "latitude": "34.88609688",
    "longitude": "136.9412056",
    "tel": "0569-25-7351",
    "address": "半田市瑞穂町6-7-8",
    "access": "",
    "games": [
      "エルドラクラウン 悠久のラビリンス"
    ]
  },
  {
    "name": "M'Sパーク豊田店",
    "operation_time": "一部24時間営業",
    "holiday": "",
    "latitude": "35.0565113",
    "longitude": "137.1404324",
    "tel": "0565-71-0027",
    "address": "豊田市寿町3-10-11",
    "access": "愛知環状鉄道三河豊田駅10分。名鉄三河線土橋駅より徒歩10分。",
    "games": [
      "エルドラクラウン 悠久のラビリンス"
    ]
  },
  {
    "name": "GiGO天童",
    "operation_time": "10:00～24:00",
    "holiday": "無し",
    "latitude": "38.34302924",
    "longitude": "140.3739732",
    "tel": "023-656-9370",
    "address": "天童市南町1-5-26",
    "access": "JR「天童駅」より車で10分。国道13号線を南下し国道沿い左側。",
    "games": [
      "エルドラクラウン 悠久のラビリンス"
    ]
  },
  {
    "name": "ラウンドワン豊橋店",
    "operation_time": "",
    "holiday": "",
    "latitude": "34.7239242",
    "longitude": "137.4323261",
    "tel": "0532-65-2212",
    "address": "豊橋市大岩町字岩田27-2",
    "access": "",
    "games": [
      "エルドラクラウン 悠久のラビリンス"
    ]
  },
  {
    "name": "群馬レジャーランド渋川店",
    "operation_time": "",
    "holiday": "",
    "latitude": "36.4742053",
    "longitude": "139.0154654",
    "tel": "0279-25-0718",
    "address": "渋川市八木原1364",
    "access": "",
    "games": [
      "エルドラクラウン 悠久のラビリンス"
    ]
  },
  {
    "name": "GiGO会津若松",
    "operation_time": "9:00～24:00",
    "holiday": "無し",
    "latitude": "37.51832577",
    "longitude": "139.9222191",
    "tel": "0242-37-0777",
    "address": "会津若松市町北町上荒久田字宮下142",
    "access": "磐越道会津若松IC側",
    "games": [
      "エルドラクラウン 悠久のラビリンス"
    ]
  },
  {
    "name": "群馬レジャーランド高崎駅東口店",
    "operation_time": "一部24時間営業",
    "holiday": "無し",
    "latitude": "36.32992086",
    "longitude": "139.0128661",
    "tel": "027-330-3002",
    "address": "高崎市江木町333-1高崎EXビル2F",
    "access": "JR高崎駅東口徒歩10分",
    "games": [
      "エルドラクラウン 悠久のラビリンス"
    ]
  },
  {
    "name": "ラウンドワン浜松店",
    "operation_time": "",
    "holiday": "",
    "latitude": "34.73795995",
    "longitude": "137.7638799",
    "tel": "053-461-1101",
    "address": "浜松市中央区天王町諏訪1981-17",
    "access": "",
    "games": [
      "エルドラクラウン 悠久のラビリンス"
    ]
  },
  {
    "name": "ゲームパニック甲府",
    "operation_time": "",
    "holiday": "",
    "latitude": "35.64182781",
    "longitude": "138.547239",
    "tel": "080-3350-2893",
    "address": "甲府市国母5-20-24",
    "access": "",
    "games": [
      "エルドラクラウン 悠久のラビリンス"
    ]
  },
  {
    "name": "群馬レジャーランド藤岡店",
    "operation_time": "一部24時間営業",
    "holiday": "",
    "latitude": "36.27426745",
    "longitude": "139.0718857",
    "tel": "0274-40-2371",
    "address": "藤岡市中2002-1",
    "access": "県道13号沿い、上信越道藤岡IC北 カーオプション店『ピット100』2階",
    "games": [
      "エルドラクラウン 悠久のラビリンス"
    ]
  },
  {
    "name": "ラウンドワンスタジアム仙台泉店",
    "operation_time": "",
    "holiday": "",
    "latitude": "38.35192551",
    "longitude": "140.8797545",
    "tel": "022-347-4471",
    "address": "仙台市泉区大沢2-12-4仙台泉インターシティ1F",
    "access": "",
    "games": [
      "エルドラクラウン 悠久のラビリンス"
    ]
  },
  {
    "name": "群馬レジャーランド伊勢崎店",
    "operation_time": "一部24時間営業",
    "holiday": "無し",
    "latitude": "36.31824274",
    "longitude": "139.1723592",
    "tel": "0270-40-5330",
    "address": "伊勢崎市連取町3066-1",
    "access": "伊勢崎市内県道2号線沿い伊勢崎オート近く",
    "games": [
      "エルドラクラウン 悠久のラビリンス"
    ]
  },
  {
    "name": "ラウンドワン仙台苦竹店",
    "operation_time": "",
    "holiday": "",
    "latitude": "38.26828399",
    "longitude": "140.9172614",
    "tel": "022-788-2581",
    "address": "仙台市宮城野区苦竹1-7-10",
    "access": "",
    "games": [
      "エルドラクラウン 悠久のラビリンス"
    ]
  },
  {
    "name": "GiGO利府",
    "operation_time": "10:00～24:00",
    "holiday": "無し",
    "latitude": "38.32801132",
    "longitude": "140.9756135",
    "tel": "080-7500-4898",
    "address": "宮城郡利府町加瀬字新前谷地55-1",
    "access": "三陸自動車道 利府中IC下車利府バイパス沿い車で5分",
    "games": [
      "エルドラクラウン 悠久のラビリンス"
    ]
  },
  {
    "name": "ラウンドワン福島店",
    "operation_time": "",
    "holiday": "",
    "latitude": "37.75259469",
    "longitude": "140.4562354",
    "tel": "024-525-4731",
    "address": "福島市太田町14-18",
    "access": "",
    "games": [
      "エルドラクラウン 悠久のラビリンス"
    ]
  },
  {
    "name": "ゲームコーナー東部",
    "operation_time": "9:00～24:00",
    "holiday": "無し",
    "latitude": "38.25101621",
    "longitude": "140.9438974",
    "tel": "022-287-5880",
    "address": "仙台市若林区六丁の目中町26-60",
    "access": "六丁目の交差点より多賀城方面へ向かい車で5分。産業通り沿い。",
    "games": [
      "エルドラクラウン 悠久のラビリンス"
    ]
  },
  {
    "name": "群馬レジャーランド太田店",
    "operation_time": "一部24時間営業",
    "holiday": "無し",
    "latitude": "36.26802219",
    "longitude": "139.3761382",
    "tel": "0276-47-8030",
    "address": "太田市西矢島町162-2",
    "access": "",
    "games": [
      "エルドラクラウン 悠久のラビリンス"
    ]
  },
  {
    "name": "ドラマ足利店",
    "operation_time": "10:00～24:00",
    "holiday": "無し",
    "latitude": "36.32220259",
    "longitude": "139.4503607",
    "tel": "0284-73-9559",
    "address": "足利市朝倉町244-1",
    "access": "東武伊勢崎線足利市駅より徒歩10分",
    "games": [
      "エルドラクラウン 悠久のラビリンス"
    ]
  },
  {
    "name": "ラウンドワン静岡･駿河店",
    "operation_time": "",
    "holiday": "",
    "latitude": "34.950991",
    "longitude": "138.360524",
    "tel": "054-201-1601",
    "address": "静岡市駿河区向手越1-10-1",
    "access": "",
    "games": [
      "エルドラクラウン 悠久のラビリンス"
    ]
  },
  {
    "name": "ラウンドワン郡山店",
    "operation_time": "",
    "holiday": "",
    "latitude": "37.40229903",
    "longitude": "140.3957065",
    "tel": "024-941-3191",
    "address": "郡山市向河原町4-55",
    "access": "",
    "games": [
      "エルドラクラウン 悠久のラビリンス"
    ]
  },
  {
    "name": "ゲームインプリンス",
    "operation_time": "10:00～24:00",
    "holiday": "無休",
    "latitude": "35.02415636",
    "longitude": "138.4798001",
    "tel": "0543-64-8012",
    "address": "静岡市清水区天神1-2-6",
    "access": "東名高速静岡ICから車で30分",
    "games": [
      "エルドラクラウン 悠久のラビリンス"
    ]
  },
  {
    "name": "namcoフェドラP&D佐野店",
    "operation_time": "10:00～23:00 土日祝9:00～23:00",
    "holiday": "無し",
    "latitude": "36.29729",
    "longitude": "139.605644",
    "tel": "0283-85-9518",
    "address": "佐野市高萩町1340",
    "access": "",
    "games": [
      "エルドラクラウン 悠久のラビリンス"
    ]
  },
  {
    "name": "ラウンドワン富士店",
    "operation_time": "",
    "holiday": "",
    "latitude": "35.15310644",
    "longitude": "138.6938016",
    "tel": "0545-51-3636",
    "address": "富士市八代町4-15",
    "access": "",
    "games": [
      "エルドラクラウン 悠久のラビリンス"
    ]
  },
  {
    "name": "ラウンドワンさいたま･鴻巣店",
    "operation_time": "",
    "holiday": "",
    "latitude": "36.08064011",
    "longitude": "139.4902201",
    "tel": "048-595-2001",
    "address": "鴻巣市箕田3163-7",
    "access": "",
    "games": [
      "エルドラクラウン 悠久のラビリンス"
    ]
  },
  {
    "name": "ラウンドワン宇都宮店",
    "operation_time": "",
    "holiday": "",
    "latitude": "36.54080987",
    "longitude": "139.8868656",
    "tel": "028-614-8171",
    "address": "宇都宮市江曽島町2072-1",
    "access": "",
    "games": [
      "エルドラクラウン 悠久のラビリンス"
    ]
  },
  {
    "name": "インターパークプラスワン 宇都宮店",
    "operation_time": "9:00～24:00",
    "holiday": "無し",
    "latitude": "36.48822111",
    "longitude": "139.9053211",
    "tel": "028-657-6789",
    "address": "宇都宮市インターパーク6-5-1",
    "access": "国道4号線、北関東自動車道、宇都宮上三川インターインター降りてすぐ",
    "games": [
      "エルドラクラウン 悠久のラビリンス"
    ]
  },
  {
    "name": "ラウンドワン入間店",
    "operation_time": "",
    "holiday": "",
    "latitude": "35.82812299",
    "longitude": "139.3755366",
    "tel": "042-960-1521",
    "address": "入間市小谷田3-7-25",
    "access": "",
    "games": [
      "エルドラクラウン 悠久のラビリンス"
    ]
  },
  {
    "name": "ドラマ瑞穂店",
    "operation_time": "10:00～24:00",
    "holiday": "無し",
    "latitude": "35.76337213",
    "longitude": "139.3568934",
    "tel": "042-556-6605",
    "address": "西多摩郡瑞穂町武蔵382-1",
    "access": "JR八高線「箱根ヶ崎駅」から武蔵村山市方面に徒歩25分",
    "games": [
      "エルドラクラウン 悠久のラビリンス"
    ]
  },
  {
    "name": "アピナ小山店",
    "operation_time": "10:00～24:00",
    "holiday": "無し",
    "latitude": "36.300419",
    "longitude": "139.809126",
    "tel": "0285-31-0050",
    "address": "小山市駅南町4-27-18",
    "access": "国道50号線沿い駅南町交差点",
    "games": [
      "エルドラクラウン 悠久のラビリンス"
    ]
  },
  {
    "name": "アピナ上尾店",
    "operation_time": "",
    "holiday": "",
    "latitude": "35.987191",
    "longitude": "139.579877",
    "tel": "048-783-4747",
    "address": "上尾市緑丘3-3-11-2プリンセス棟別棟",
    "access": "",
    "games": [
      "エルドラクラウン 悠久のラビリンス"
    ]
  },
  {
    "name": "ラウンドワン武蔵村山店",
    "operation_time": "",
    "holiday": "",
    "latitude": "35.73563714",
    "longitude": "139.3826993",
    "tel": "042-520-3211",
    "address": "武蔵村山市伊奈平3-1-1",
    "access": "",
    "games": [
      "エルドラクラウン 悠久のラビリンス"
    ]
  },
  {
    "name": "ラウンドワンさいたま･栗橋店",
    "operation_time": "",
    "holiday": "",
    "latitude": "36.12348469",
    "longitude": "139.7152159",
    "tel": "0480-55-0831",
    "address": "久喜市小右衛門192-1",
    "access": "",
    "games": [
      "エルドラクラウン 悠久のラビリンス"
    ]
  },
  {
    "name": "ラウンドワン上尾店",
    "operation_time": "",
    "holiday": "",
    "latitude": "35.98574121",
    "longitude": "139.6078308",
    "tel": "048-778-3411",
    "address": "上尾市大字平塚917-1",
    "access": "",
    "games": [
      "エルドラクラウン 悠久のラビリンス"
    ]
  },
  {
    "name": "ドラマ八王子高倉店",
    "operation_time": "10:00～24:00",
    "holiday": "無し",
    "latitude": "35.66506526",
    "longitude": "139.3664795",
    "tel": "0426-45-7050",
    "address": "八王子市高倉町55-4",
    "access": "国道20号、八王子市高倉町「高倉町西」交差点を日野バイパス豊田方面右手",
    "games": [
      "エルドラクラウン 悠久のラビリンス"
    ]
  },
  {
    "name": "ラウンドワン所沢店",
    "operation_time": "",
    "holiday": "",
    "latitude": "35.78935214",
    "longitude": "139.4700049",
    "tel": "04-2940-8631",
    "address": "所沢市東町5-22TOCOTOCO SQUARE6F",
    "access": "",
    "games": [
      "エルドラクラウン 悠久のラビリンス"
    ]
  },
  {
    "name": "ウェアハウス三橋店",
    "operation_time": "一部24時間営業",
    "holiday": "無し",
    "latitude": "35.91589833",
    "longitude": "139.5959286",
    "tel": "048-795-8380",
    "address": "さいたま市西区三橋6-955-1",
    "access": "国道17号バイパス三橋六丁目交差点",
    "games": [
      "エルドラクラウン 悠久のラビリンス"
    ]
  },
  {
    "name": "インターワールド幸手店",
    "operation_time": "",
    "holiday": "",
    "latitude": "36.05714632",
    "longitude": "139.7144119",
    "tel": "0480-47-0540",
    "address": "幸手市上高野2142-1",
    "access": "",
    "games": [
      "エルドラクラウン 悠久のラビリンス"
    ]
  },
  {
    "name": "ラウンドワン大宮店",
    "operation_time": "",
    "holiday": "",
    "latitude": "35.91078012",
    "longitude": "139.6254963",
    "tel": "048-658-5666",
    "address": "さいたま市大宮区宮町4-90-7",
    "access": "",
    "games": [
      "エルドラクラウン 悠久のラビリンス"
    ]
  },
  {
    "name": "GiGO相模原",
    "operation_time": "10:00～24:00",
    "holiday": "無し",
    "latitude": "35.57350902",
    "longitude": "139.3710322",
    "tel": "080-7465-6268",
    "address": "相模原市中央区中央2-1-5ムトス内",
    "access": "JR横浜線相模原駅徒歩15分国道16号線近く",
    "games": [
      "エルドラクラウン 悠久のラビリンス"
    ]
  },
  {
    "name": "ラウンドワン府中本町駅前店",
    "operation_time": "",
    "holiday": "",
    "latitude": "35.667312",
    "longitude": "139.477387",
    "tel": "042-340-4901",
    "address": "府中市本町1-13-3カネタビル",
    "access": "",
    "games": [
      "エルドラクラウン 悠久のラビリンス"
    ]
  },
  {
    "name": "ラウンドワン朝霞店",
    "operation_time": "",
    "holiday": "",
    "latitude": "35.79026242",
    "longitude": "139.5796756",
    "tel": "048-450-1822",
    "address": "朝霞市膝折町2-16-10",
    "access": "",
    "games": [
      "エルドラクラウン 悠久のラビリンス"
    ]
  },
  {
    "name": "埼玉レジャーランド春日部店",
    "operation_time": "一部24時間",
    "holiday": "無し",
    "latitude": "35.95940469",
    "longitude": "139.7289621",
    "tel": "048-763-4061",
    "address": "春日部市大字増富字谷際163-1",
    "access": "国道16号線沿い春日部市増富地内",
    "games": [
      "エルドラクラウン 悠久のラビリンス"
    ]
  },
  {
    "name": "ギガステーション戸田店",
    "operation_time": "10:00～24:00",
    "holiday": "無し",
    "latitude": "35.83477805",
    "longitude": "139.6530213",
    "tel": "048-421-1201",
    "address": "戸田市美女木943-7",
    "access": "",
    "games": [
      "エルドラクラウン 悠久のラビリンス"
    ]
  },
  {
    "name": "神奈川レジャーランド厚木店",
    "operation_time": "一部24時間営業",
    "holiday": "無し",
    "latitude": "35.44802433",
    "longitude": "139.3431365",
    "tel": "050-1722-4336",
    "address": "厚木市戸室5-31-1",
    "access": "小田急本厚木駅よりバスにてアンリツ前バス停下車徒歩1分",
    "games": [
      "エルドラクラウン 悠久のラビリンス"
    ]
  },
  {
    "name": "ラウンドワンわらび店",
    "operation_time": "",
    "holiday": "",
    "latitude": "35.83078787",
    "longitude": "139.6742521",
    "tel": "048-447-8080",
    "address": "蕨市北町5-1-6",
    "access": "",
    "games": [
      "エルドラクラウン 悠久のラビリンス"
    ]
  },
  {
    "name": "ラウンドワン町田店",
    "operation_time": "",
    "holiday": "",
    "latitude": "35.54409488",
    "longitude": "139.4432407",
    "tel": "042-710-0091",
    "address": "町田市森野1-13-14",
    "access": "",
    "games": [
      "エルドラクラウン 悠久のラビリンス"
    ]
  },
  {
    "name": "テクモピア座間店",
    "operation_time": "",
    "holiday": "",
    "latitude": "35.48001079",
    "longitude": "139.431891",
    "tel": "046-205-4719",
    "address": "座間市ひばりが丘4-11-48",
    "access": "",
    "games": [
      "エルドラクラウン 悠久のラビリンス"
    ]
  },
  {
    "name": "ラウンドワン板橋店",
    "operation_time": "",
    "holiday": "",
    "latitude": "35.77658",
    "longitude": "139.67879",
    "tel": "03-5922-3521",
    "address": "板橋区相生町16-13",
    "access": "",
    "games": [
      "エルドラクラウン 悠久のラビリンス"
    ]
  },
  {
    "name": "千葉レジャーランド野田店",
    "operation_time": "一部24時間営業",
    "holiday": "無し",
    "latitude": "35.97154747",
    "longitude": "139.8653487",
    "tel": "04-7120-3535",
    "address": "野田市吉春776-1",
    "access": "国道16号線沿い野田市吉春地内",
    "games": [
      "エルドラクラウン 悠久のラビリンス"
    ]
  },
  {
    "name": "ラウンドワン池袋店",
    "operation_time": "",
    "holiday": "",
    "latitude": "35.730175",
    "longitude": "139.714846",
    "tel": "03-5928-0221",
    "address": "豊島区東池袋1-14-1池袋スクエア",
    "access": "",
    "games": [
      "エルドラクラウン 悠久のラビリンス"
    ]
  },
  {
    "name": "タイトーステーションBIGBOX高田馬場",
    "operation_time": "10:00～24:00",
    "holiday": "無し",
    "latitude": "35.712933",
    "longitude": "139.70419",
    "tel": "03-5272-9855",
    "address": "新宿区高田馬場1-35-3BIGBOX6F",
    "access": "西武新宿線・高田馬場駅より徒歩1分",
    "games": [
      "エルドラクラウン 悠久のラビリンス"
    ]
  },
  {
    "name": "タイトーステーション溝の口店",
    "operation_time": "",
    "holiday": "",
    "latitude": "35.600042",
    "longitude": "139.61245",
    "tel": "044-328-9262",
    "address": "川崎市高津区溝口1-11-8",
    "access": "",
    "games": [
      "エルドラクラウン 悠久のラビリンス"
    ]
  },
  {
    "name": "ラウンドワン草加店",
    "operation_time": "",
    "holiday": "",
    "latitude": "35.81240056",
    "longitude": "139.7878993",
    "tel": "048-920-3701",
    "address": "草加市谷塚上町204-1",
    "access": "",
    "games": [
      "エルドラクラウン 悠久のラビリンス"
    ]
  },
  {
    "name": "ラウンドワンららぽーと新三郷店",
    "operation_time": "",
    "holiday": "",
    "latitude": "35.859813",
    "longitude": "139.865774",
    "tel": "048-950-7501",
    "address": "三郷市新三郷ららシティ3-1-1ららぽーと新三郷 2F",
    "access": "",
    "games": [
      "エルドラクラウン 悠久のラビリンス"
    ]
  },
  {
    "name": "ドラマ港北インター店",
    "operation_time": "10:00～24:00",
    "holiday": "無し",
    "latitude": "35.51925659",
    "longitude": "139.5847927",
    "tel": "045-474-6604",
    "address": "横浜市都筑区東方町321-6",
    "access": "第三京浜港北IC右側交差点左折約500M",
    "games": [
      "エルドラクラウン 悠久のラビリンス"
    ]
  },
  {
    "name": "ゲームパニック三郷",
    "operation_time": "",
    "holiday": "",
    "latitude": "35.84215546",
    "longitude": "139.8548102",
    "tel": "048-953-8295",
    "address": "三郷市ピアラシティ1-1-200",
    "access": "",
    "games": [
      "エルドラクラウン 悠久のラビリンス"
    ]
  },
  {
    "name": "ドラマ藤沢店",
    "operation_time": "10:00～24:00",
    "holiday": "無し",
    "latitude": "35.35751243",
    "longitude": "139.4682681",
    "tel": "0466-82-0328",
    "address": "藤沢市本藤沢5-6-8",
    "access": "小田急江ノ島線善行駅より徒歩15分",
    "games": [
      "エルドラクラウン 悠久のラビリンス"
    ]
  },
  {
    "name": "ラウンドワン横浜綱島店",
    "operation_time": "",
    "holiday": "",
    "latitude": "35.53198182",
    "longitude": "139.6371126",
    "tel": "045-533-6151",
    "address": "横浜市港北区樽町2-6-40T-PLATZ",
    "access": "",
    "games": [
      "エルドラクラウン 悠久のラビリンス"
    ]
  },
  {
    "name": "ラウンドワン横浜駅西口店",
    "operation_time": "",
    "holiday": "",
    "latitude": "35.46393717",
    "longitude": "139.6180549",
    "tel": "045-412-0880",
    "address": "横浜市西区南幸2-8-16",
    "access": "",
    "games": [
      "エルドラクラウン 悠久のラビリンス"
    ]
  },
  {
    "name": "シルクハット川崎ダイス",
    "operation_time": "9:00～24:45",
    "holiday": "無し",
    "latitude": "35.5314121",
    "longitude": "139.7002166",
    "tel": "",
    "address": "川崎市川崎区駅前本町8ダイスビルB2F",
    "access": "JR川崎駅アゼリア地下街と直結、京急川崎駅中央口徒歩1分",
    "games": [
      "エルドラクラウン 悠久のラビリンス"
    ]
  },
  {
    "name": "ラウンドワン南砂店",
    "operation_time": "",
    "holiday": "",
    "latitude": "35.67184786",
    "longitude": "139.8361845",
    "tel": "03-5617-6911",
    "address": "江東区南砂6-7-15トピレックプラザ4F",
    "access": "",
    "games": [
      "エルドラクラウン 悠久のラビリンス"
    ]
  },
  {
    "name": "ラウンドワン川崎大師店",
    "operation_time": "",
    "holiday": "",
    "latitude": "35.53846653",
    "longitude": "139.741634",
    "tel": "044-270-1541",
    "address": "川崎市川崎区殿町1-5-1",
    "access": "",
    "games": [
      "エルドラクラウン 悠久のラビリンス"
    ]
  },
  {
    "name": "ゲームパニックつくば",
    "operation_time": "",
    "holiday": "",
    "latitude": "36.04632758",
    "longitude": "140.1679958",
    "tel": "080-3350-1839",
    "address": "土浦市中村東1-1-1",
    "access": "",
    "games": [
      "エルドラクラウン 悠久のラビリンス"
    ]
  },
  {
    "name": "ラウンドワンアリオ柏店",
    "operation_time": "",
    "holiday": "",
    "latitude": "35.832403",
    "longitude": "140.012023",
    "tel": "04-7190-1201",
    "address": "柏市大島田1-6-1セブンパークアリオ柏 1070",
    "access": "",
    "games": [
      "エルドラクラウン 悠久のラビリンス"
    ]
  },
  {
    "name": "ラウンドワン市川鬼高店",
    "operation_time": "",
    "holiday": "",
    "latitude": "35.711239",
    "longitude": "139.927465",
    "tel": "047-320-3801",
    "address": "市川市鬼高4-1-3",
    "access": "",
    "games": [
      "エルドラクラウン 悠久のラビリンス"
    ]
  },
  {
    "name": "タイトーFステーション市川妙典店",
    "operation_time": "施設の営業時間に準じる",
    "holiday": "施設の営業日に準じる",
    "latitude": "35.69246485",
    "longitude": "139.9267286",
    "tel": "047-318-3933",
    "address": "市川市妙典4-1-1イオン市川妙典店2番街2F",
    "access": "",
    "games": [
      "エルドラクラウン 悠久のラビリンス"
    ]
  },
  {
    "name": "アミューズメントエース津田沼",
    "operation_time": "9:00～24:00",
    "holiday": "無し",
    "latitude": "35.69228053",
    "longitude": "140.0201572",
    "tel": "047-475-8918",
    "address": "船橋市前原西2-15-1ファミービル1-3F",
    "access": "JR「津田沼駅」下車北口より徒歩1分",
    "games": [
      "エルドラクラウン 悠久のラビリンス"
    ]
  },
  {
    "name": "ラッキーバッティングドーム",
    "operation_time": "9:00～23:50",
    "holiday": "無し",
    "latitude": "35.72444576",
    "longitude": "140.0674286",
    "tel": "047-458-8208",
    "address": "八千代市大和田新田1088",
    "access": "東葉高速鉄道八千代緑が丘駅徒歩10分",
    "games": [
      "エルドラクラウン 悠久のラビリンス"
    ]
  },
  {
    "name": "ラウンドワン習志野店",
    "operation_time": "",
    "holiday": "",
    "latitude": "35.660295",
    "longitude": "140.022576",
    "tel": "047-408-1901",
    "address": "習志野市芝園1-4-5",
    "access": "",
    "games": [
      "エルドラクラウン 悠久のラビリンス"
    ]
  },
  {
    "name": "ラッキー佐倉店",
    "operation_time": "10:00～23:45",
    "holiday": "無し",
    "latitude": "35.71839979",
    "longitude": "140.1362206",
    "tel": "043-460-5165",
    "address": "佐倉市井野1475",
    "access": "京成線勝田台駅下車徒歩10分 国道296号沿い",
    "games": [
      "エルドラクラウン 悠久のラビリンス"
    ]
  },
  {
    "name": "スポーツウェーブ鉄腕24稲毛長沼店",
    "operation_time": "一部24時間営業",
    "holiday": "無し",
    "latitude": "35.66179317",
    "longitude": "140.1264239",
    "tel": "043-215-5560",
    "address": "千葉市稲毛区長沼原町697",
    "access": "東関東自動車道 千葉北ICから約5分 千葉総合運動場そば",
    "games": [
      "エルドラクラウン 悠久のラビリンス"
    ]
  },
  {
    "name": "スポーツウェーブ鉄腕24浜野店",
    "operation_time": "一部24時間営業",
    "holiday": "無し",
    "latitude": "35.55423187",
    "longitude": "140.1264305",
    "tel": "043-300-8033",
    "address": "千葉市中央区浜野町1025-59",
    "access": "館山自動車道蘇我ICより車で8分",
    "games": [
      "エルドラクラウン 悠久のラビリンス"
    ]
  },
  {
    "name": "ラウンドワン市原店",
    "operation_time": "",
    "holiday": "",
    "latitude": "35.54749256",
    "longitude": "140.1233239",
    "tel": "0436-44-8801",
    "address": "市原市八幡北町3-5-1",
    "access": "",
    "games": [
      "エルドラクラウン 悠久のラビリンス"
    ]
  },
  {
    "name": "千葉レジャーランド成東店",
    "operation_time": "一部24時間営業",
    "holiday": "無し",
    "latitude": "35.58828462",
    "longitude": "140.3904243",
    "tel": "047-580-1777",
    "address": "山武市姫島111-1",
    "access": "国道126号線成東町姫島地内ローソン奥",
    "games": [
      "エルドラクラウン 悠久のラビリンス"
    ]
  }
]