[
  {
    "name": "滋賀レジャーランド大津店",
    "operation_time": "",
    "holiday": "",
    "latitude": "35.003875",
    "longitude": "135.883431",
    "tel": "077-548-7851",
    "address": "大津市におの浜3-1-43",
    "access": "",
    "games": [
      "フォーチュントリニティ2"
    ]
  },
  {
    "name": "アピナ富山豊田店",
    "operation_time": "10:00～24:00",
    "holiday": "無し",
    "latitude": "36.7211336",
    "longitude": "137.2352552",
    "tel": "076-433-3355",
    "address": "富山市豊田町2-12-66",
    "access": "国道8号線豊田東交差点近く",
    "games": [
      "フォーチュントリニティ2"
    ]
  },
  {
    "name": "アミューズメントCUE大和高田",
    "operation_time": "10:00～24:00",
    "holiday": "無し",
    "latitude": "34.49978101",
    "longitude": "135.7354379",
    "tel": "0745-25-3335",
    "address": "大和高田市東中2-11-16",
    "access": "国道166号線東宝交差点そば",
    "games": [
      "フォーチュントリニティ2"
    ]
  },
  {
    "name": "ゲームファンタジアン柳津店",
    "operation_time": "一部24時間営業",
    "holiday": "無し",
    "latitude": "35.37596826",
    "longitude": "136.7145391",
    "tel": "058-279-0085",
    "address": "岐阜市柳津町上佐波西3-68",
    "access": "岐阜県ふれあい会館から南に4分",
    "games": [
      "フォーチュントリニティ2"
    ]
  },
  {
    "name": "アピナ上越インター店",
    "operation_time": "10:00～24:00",
    "holiday": "無し",
    "latitude": "37.15427822",
    "longitude": "138.2556225",
    "tel": "025-520-7013",
    "address": "上越市富岡3439",
    "access": "リージョンプラザ近くかに池交差点",
    "games": [
      "フォーチュントリニティ2"
    ]
  },
  {
    "name": "アピナ鈴鹿店",
    "operation_time": "店舗に直接お問い合わせください",
    "holiday": "店舗に直接お問い合わせください",
    "latitude": "34.871989",
    "longitude": "136.527078",
    "tel": "059-375-3739",
    "address": "鈴鹿市庄野羽山4-20-1イオンタウン鈴鹿2F",
    "access": "イオンタウン鈴鹿2階",
    "games": [
      "フォーチュントリニティ2"
    ]
  },
  {
    "name": "ファンタジープラザ名古屋店",
    "operation_time": "10:00～翌5:00",
    "holiday": "無し",
    "latitude": "35.22569311",
    "longitude": "136.908786",
    "tel": "052-938-3461",
    "address": "名古屋市北区玄馬町234-1クロスタウン2F",
    "access": "比良駅徒歩6分/大我麻交差点付近",
    "games": [
      "フォーチュントリニティ2"
    ]
  },
  {
    "name": "アピナ上田店",
    "operation_time": "",
    "holiday": "",
    "latitude": "36.416102",
    "longitude": "138.223307",
    "tel": "0268-75-8055",
    "address": "上田市秋和359-1",
    "access": "",
    "games": [
      "フォーチュントリニティ2"
    ]
  },
  {
    "name": "ウェアハウス岩槻店",
    "operation_time": "7:00～23:45",
    "holiday": "無し",
    "latitude": "35.94092949",
    "longitude": "139.6859268",
    "tel": "048-758-8755",
    "address": "さいたま市岩槻区加倉3-3-63",
    "access": "岩槻IC降りて直ぐ",
    "games": [
      "フォーチュントリニティ2"
    ]
  },
  {
    "name": "GiGO調布",
    "operation_time": "",
    "holiday": "",
    "latitude": "35.65098715",
    "longitude": "139.5442321",
    "tel": "070-1517-3693",
    "address": "調布市布田4-2-4",
    "access": "",
    "games": [
      "フォーチュントリニティ2"
    ]
  }
]