[
  {
    "name": "ジョイジャングル石垣店",
    "operation_time": "",
    "holiday": "",
    "latitude": "24.33557408",
    "longitude": "124.179625",
    "tel": "0980-83-4171",
    "address": "石垣市字真栄里239-18",
    "access": "",
    "games": [
      "麻雀格闘倶楽部(ｽﾀﾝﾀﾞｰﾄﾞﾓﾃﾞﾙ)"
    ]
  },
  {
    "name": "アミュージアム周南店",
    "operation_time": "10:00～23:00",
    "holiday": "無し",
    "latitude": "34.01848693",
    "longitude": "131.8630744",
    "tel": "0833-44-3290",
    "address": "下松市中央町21-3ゆめタウン下松3F",
    "access": "JR下松駅から車で10分。THEMALL周南食遊館3階。",
    "games": [
      "麻雀格闘倶楽部(ｽﾀﾝﾀﾞｰﾄﾞﾓﾃﾞﾙ)"
    ]
  },
  {
    "name": "GiGO室蘭",
    "operation_time": "10:00～24:00",
    "holiday": "無し",
    "latitude": "42.34253462",
    "longitude": "141.026287",
    "tel": "080-7434-6759",
    "address": "室蘭市東町4-31-3",
    "access": "JR東室蘭駅下車徒歩15分",
    "games": [
      "麻雀格闘倶楽部(ｽﾀﾝﾀﾞｰﾄﾞﾓﾃﾞﾙ)"
    ]
  },
  {
    "name": "ファンタジープラザ西帯広店",
    "operation_time": "",
    "holiday": "",
    "latitude": "42.91189058",
    "longitude": "143.1437886",
    "tel": "0155-41-8940",
    "address": "帯広市西21条南4-1MEGAドンキホーテ西帯広店2F",
    "access": "",
    "games": [
      "麻雀格闘倶楽部(ｽﾀﾝﾀﾞｰﾄﾞﾓﾃﾞﾙ)"
    ]
  },
  {
    "name": "GiGOドリームタウン白樺",
    "operation_time": "9:00～翌3:00",
    "holiday": "無し",
    "latitude": "42.91947724",
    "longitude": "143.174195",
    "tel": "080-7422-4566",
    "address": "帯広市白樺16条西2ドリームタウン白樺内",
    "access": "ドリームタウン白樺内",
    "games": [
      "麻雀格闘倶楽部(ｽﾀﾝﾀﾞｰﾄﾞﾓﾃﾞﾙ)"
    ]
  },
  {
    "name": "サンガーデン津島",
    "operation_time": "",
    "holiday": "",
    "latitude": "35.175759",
    "longitude": "136.734891",
    "tel": "0567-25-1125",
    "address": "津島市柳原町1-4第2サンガーデン",
    "access": "",
    "games": [
      "麻雀格闘倶楽部(ｽﾀﾝﾀﾞｰﾄﾞﾓﾃﾞﾙ)"
    ]
  },
  {
    "name": "GiGOトナリエ四日市",
    "operation_time": "",
    "holiday": "",
    "latitude": "34.96844971",
    "longitude": "136.6166023",
    "tel": "059-356-3385",
    "address": "四日市市安島1-3-31トナリエ四日市5F",
    "access": "",
    "games": [
      "麻雀格闘倶楽部(ｽﾀﾝﾀﾞｰﾄﾞﾓﾃﾞﾙ)"
    ]
  },
  {
    "name": "カプコサーカス新潟東店",
    "operation_time": "",
    "holiday": "",
    "latitude": "37.92475865",
    "longitude": "139.1146465",
    "tel": "025-275-3777",
    "address": "新潟市東区大形本町3-1-2イオン新潟東店",
    "access": "",
    "games": [
      "麻雀格闘倶楽部(ｽﾀﾝﾀﾞｰﾄﾞﾓﾃﾞﾙ)"
    ]
  },
  {
    "name": "スイーツ･ハートイオン春日井店",
    "operation_time": "",
    "holiday": "",
    "latitude": "35.237945",
    "longitude": "136.962431",
    "tel": "0568-41-9409",
    "address": "春日井市柏井町4-17イオン春日井店内4F",
    "access": "",
    "games": [
      "麻雀格闘倶楽部(ｽﾀﾝﾀﾞｰﾄﾞﾓﾃﾞﾙ)"
    ]
  },
  {
    "name": "あそビレッジ山形店",
    "operation_time": "10:00～24:00",
    "holiday": "無し",
    "latitude": "38.20856169",
    "longitude": "140.3177262",
    "tel": "023-689-0366",
    "address": "山形市成沢西5-3-27",
    "access": "ヤマザワ成沢店側",
    "games": [
      "麻雀格闘倶楽部(ｽﾀﾝﾀﾞｰﾄﾞﾓﾃﾞﾙ)"
    ]
  },
  {
    "name": "プラサカプコン甲府店",
    "operation_time": "",
    "holiday": "",
    "latitude": "35.642855",
    "longitude": "138.5462901",
    "tel": "055-236-6555",
    "address": "中巨摩郡昭和町西条3717",
    "access": "",
    "games": [
      "麻雀格闘倶楽部(ｽﾀﾝﾀﾞｰﾄﾞﾓﾃﾞﾙ)"
    ]
  },
  {
    "name": "アミュージアムOSC店",
    "operation_time": "10:00～24:00",
    "holiday": "無し",
    "latitude": "35.75310339",
    "longitude": "139.595028",
    "tel": "03-5933-0880",
    "address": "練馬区東大泉2-34-1オズスタジオシティ2F",
    "access": "西武池袋線大泉学園駅徒歩15分。車で10分。OZスタジオシティ2F(LIVINOZ大泉向い)",
    "games": [
      "麻雀格闘倶楽部(ｽﾀﾝﾀﾞｰﾄﾞﾓﾃﾞﾙ)"
    ]
  },
  {
    "name": "常盤平ボウリングセンター",
    "operation_time": "",
    "holiday": "",
    "latitude": "35.80294446",
    "longitude": "139.9501294",
    "tel": "047-388-0010",
    "address": "松戸市常盤平2-8-2",
    "access": "",
    "games": [
      "麻雀格闘倶楽部(ｽﾀﾝﾀﾞｰﾄﾞﾓﾃﾞﾙ)"
    ]
  }
]