[
  {
    "name": "三冠王",
    "operation_time": "10:00～24:00",
    "holiday": "無し",
    "latitude": "33.19079873",
    "longitude": "129.6528712",
    "tel": "0956-47-2141",
    "address": "佐世保市相浦町2689-1",
    "access": "松浦電鉄「相浦」下車車10分ほど。",
    "games": [
      "麻雀格闘倶楽部(ﾆｭｰｷｬﾋﾞﾈｯﾄ機能搭載ﾓﾃﾞﾙ)"
    ]
  },
  {
    "name": "サープラ佐世保あそびタウン",
    "operation_time": "",
    "holiday": "",
    "latitude": "33.208634",
    "longitude": "129.71688",
    "tel": "0956-76-7789",
    "address": "佐世保市田原町38-1",
    "access": "",
    "games": [
      "麻雀格闘倶楽部(ﾆｭｰｷｬﾋﾞﾈｯﾄ機能搭載ﾓﾃﾞﾙ)"
    ]
  },
  {
    "name": "アミパラ佐世保店",
    "operation_time": "10:00～24:00",
    "holiday": "無し",
    "latitude": "33.15005741",
    "longitude": "129.7804145",
    "tel": "0956-34-8880",
    "address": "佐世保市大塔町18-15",
    "access": "JR大塔駅徒歩3分",
    "games": [
      "麻雀格闘倶楽部(ﾆｭｰｷｬﾋﾞﾈｯﾄ機能搭載ﾓﾃﾞﾙ)"
    ]
  },
  {
    "name": "ソニックワールド伊万里店",
    "operation_time": "10:00～24:00",
    "holiday": "無し",
    "latitude": "33.27857609",
    "longitude": "129.8722306",
    "tel": "0955-22-1104",
    "address": "伊万里市二里町八谷搦189-3",
    "access": "",
    "games": [
      "麻雀格闘倶楽部(ﾆｭｰｷｬﾋﾞﾈｯﾄ機能搭載ﾓﾃﾞﾙ)"
    ]
  },
  {
    "name": "G-pala時津店",
    "operation_time": "10:00～24:00",
    "holiday": "無し",
    "latitude": "32.8243884",
    "longitude": "129.8477553",
    "tel": "095-813-2442",
    "address": "西彼杵郡時津町野田郷59",
    "access": "国道206号沿い",
    "games": [
      "麻雀格闘倶楽部(ﾆｭｰｷｬﾋﾞﾈｯﾄ機能搭載ﾓﾃﾞﾙ)"
    ]
  },
  {
    "name": "遊道楽時津店",
    "operation_time": "10:00～24:00",
    "holiday": "無し",
    "latitude": "32.82008054",
    "longitude": "129.8473546",
    "tel": "095-813-2525",
    "address": "西彼杵郡時津町元村郷863-10",
    "access": "川平有料道路入り口井出園交差点付近",
    "games": [
      "麻雀格闘倶楽部(ﾆｭｰｷｬﾋﾞﾈｯﾄ機能搭載ﾓﾃﾞﾙ)"
    ]
  },
  {
    "name": "楽市楽座福重店",
    "operation_time": "10:00～24:00",
    "holiday": "無し",
    "latitude": "33.56889775",
    "longitude": "130.3136834",
    "tel": "092-885-7380",
    "address": "福岡市西区石丸4-263-1",
    "access": "202号線沿い拾六町IC、石丸ICそば",
    "games": [
      "麻雀格闘倶楽部(ﾆｭｰｷｬﾋﾞﾈｯﾄ機能搭載ﾓﾃﾞﾙ)"
    ]
  },
  {
    "name": "ソニックワールド大村店",
    "operation_time": "10:00～24:00",
    "holiday": "無し",
    "latitude": "32.92727946",
    "longitude": "129.9394753",
    "tel": "0957-50-2555",
    "address": "大村市古賀島町383-1",
    "access": "長崎自動車道「大村IC」下車車10分",
    "games": [
      "麻雀格闘倶楽部(ﾆｭｰｷｬﾋﾞﾈｯﾄ機能搭載ﾓﾃﾞﾙ)"
    ]
  },
  {
    "name": "サープラ新宮あそびタウン",
    "operation_time": "",
    "holiday": "",
    "latitude": "33.706165",
    "longitude": "130.440645",
    "tel": "092-410-4528",
    "address": "糟屋郡新宮町美咲3-1-40",
    "access": "",
    "games": [
      "麻雀格闘倶楽部(ﾆｭｰｷｬﾋﾞﾈｯﾄ機能搭載ﾓﾃﾞﾙ)"
    ]
  },
  {
    "name": "G-STAGE七隈店",
    "operation_time": "10:00～24:00",
    "holiday": "無し",
    "latitude": "33.55178855",
    "longitude": "130.3649354",
    "tel": "092-861-4856",
    "address": "福岡市城南区七隈8-4-8",
    "access": "七隈ファミリープラザ内",
    "games": [
      "麻雀格闘倶楽部(ﾆｭｰｷｬﾋﾞﾈｯﾄ機能搭載ﾓﾃﾞﾙ)"
    ]
  },
  {
    "name": "タイトーステーション福岡天神店",
    "operation_time": "10:00～翌1:00",
    "holiday": "無し",
    "latitude": "33.5896519",
    "longitude": "130.3962521",
    "tel": "092-737-5500",
    "address": "福岡市中央区天神2-6-35サザンクロスビル",
    "access": "西鉄福岡駅北口より徒歩2分",
    "games": [
      "麻雀格闘倶楽部(ﾆｭｰｷｬﾋﾞﾈｯﾄ機能搭載ﾓﾃﾞﾙ)"
    ]
  },
  {
    "name": "ラウンドワン福岡天神店",
    "operation_time": "",
    "holiday": "",
    "latitude": "33.58960223",
    "longitude": "130.3968402",
    "tel": "092-720-8101",
    "address": "福岡市中央区天神2-6-12",
    "access": "",
    "games": [
      "麻雀格闘倶楽部(ﾆｭｰｷｬﾋﾞﾈｯﾄ機能搭載ﾓﾃﾞﾙ)"
    ]
  },
  {
    "name": "楽市街道箱崎店2F",
    "operation_time": "10:00～27:00",
    "holiday": "無し",
    "latitude": "33.62410817",
    "longitude": "130.4195897",
    "tel": "092-642-0760",
    "address": "福岡市東区箱崎5-1-8楽市街道箱崎店内2F",
    "access": "",
    "games": [
      "麻雀格闘倶楽部(ﾆｭｰｷｬﾋﾞﾈｯﾄ機能搭載ﾓﾃﾞﾙ)"
    ]
  },
  {
    "name": "namco博多バスターミナル店",
    "operation_time": "",
    "holiday": "",
    "latitude": "33.591529",
    "longitude": "130.419887",
    "tel": "092-434-3721",
    "address": "福岡市博多区博多駅中央街2-1博多バスターミナル7F",
    "access": "",
    "games": [
      "麻雀格闘倶楽部(ﾆｭｰｷｬﾋﾞﾈｯﾄ機能搭載ﾓﾃﾞﾙ)"
    ]
  },
  {
    "name": "CABIN2号館",
    "operation_time": "",
    "holiday": "",
    "latitude": "33.58165",
    "longitude": "130.416213",
    "tel": "092-413-9979",
    "address": "福岡市博多区住吉5-7-13",
    "access": "",
    "games": [
      "麻雀格闘倶楽部(ﾆｭｰｷｬﾋﾞﾈｯﾄ機能搭載ﾓﾃﾞﾙ)"
    ]
  },
  {
    "name": "楽市楽座くりえいと宗像店",
    "operation_time": "10:00～24:00",
    "holiday": "無し",
    "latitude": "33.81047701",
    "longitude": "130.563611",
    "tel": "0940-35-6644",
    "address": "宗像市くりえいと1-4-4",
    "access": "県道97号沿いショッピングセンターくりえいと宗像敷地内",
    "games": [
      "麻雀格闘倶楽部(ﾆｭｰｷｬﾋﾞﾈｯﾄ機能搭載ﾓﾃﾞﾙ)"
    ]
  },
  {
    "name": "最後の5$",
    "operation_time": "一部24時間営業",
    "holiday": "無し",
    "latitude": "33.60926671",
    "longitude": "130.4453319",
    "tel": "092-612-8080",
    "address": "糟屋郡粕屋町大字仲原2706",
    "access": "国道3号線博多バイパスを空港口交差点から北へ5分ほど。",
    "games": [
      "麻雀格闘倶楽部(ﾆｭｰｷｬﾋﾞﾈｯﾄ機能搭載ﾓﾃﾞﾙ)"
    ]
  },
  {
    "name": "ラウンドワン博多半道橋店",
    "operation_time": "",
    "holiday": "",
    "latitude": "33.58394157",
    "longitude": "130.4382666",
    "tel": "092-475-6611",
    "address": "福岡市博多区半道橋2-2-8",
    "access": "",
    "games": [
      "麻雀格闘倶楽部(ﾆｭｰｷｬﾋﾞﾈｯﾄ機能搭載ﾓﾃﾞﾙ)"
    ]
  },
  {
    "name": "楽市楽座303佐賀大和店",
    "operation_time": "10:00～24:00",
    "holiday": "無し",
    "latitude": "33.30153597",
    "longitude": "130.2808759",
    "tel": "0952-62-8606",
    "address": "佐賀市大和町尼寺2965",
    "access": "佐賀大和ICより車で5分",
    "games": [
      "麻雀格闘倶楽部(ﾆｭｰｷｬﾋﾞﾈｯﾄ機能搭載ﾓﾃﾞﾙ)"
    ]
  },
  {
    "name": "楽市楽座210トリアス店",
    "operation_time": "10:00～24:00",
    "holiday": "無し",
    "latitude": "33.65282452",
    "longitude": "130.4920223",
    "tel": "092-976-3421",
    "address": "糟屋郡久山町大字山田990",
    "access": "久山町ショッピングモールトリアス敷地内",
    "games": [
      "麻雀格闘倶楽部(ﾆｭｰｷｬﾋﾞﾈｯﾄ機能搭載ﾓﾃﾞﾙ)"
    ]
  },
  {
    "name": "遊道楽 嘉瀬店",
    "operation_time": "11:00～24:00",
    "holiday": "無し",
    "latitude": "33.24215325",
    "longitude": "130.2565663",
    "tel": "0952-40-0952",
    "address": "佐賀市嘉瀬町大字中原2488-1",
    "access": "207号線沿い",
    "games": [
      "麻雀格闘倶楽部(ﾆｭｰｷｬﾋﾞﾈｯﾄ機能搭載ﾓﾃﾞﾙ)"
    ]
  },
  {
    "name": "ラウンドワン佐賀店",
    "operation_time": "",
    "holiday": "",
    "latitude": "33.27533631",
    "longitude": "130.3015536",
    "tel": "0952-36-7070",
    "address": "佐賀市兵庫北4-2-1",
    "access": "",
    "games": [
      "麻雀格闘倶楽部(ﾆｭｰｷｬﾋﾞﾈｯﾄ機能搭載ﾓﾃﾞﾙ)"
    ]
  },
  {
    "name": "アップルナイン大野城店",
    "operation_time": "12:00～翌6:00",
    "holiday": "無し",
    "latitude": "33.53927043",
    "longitude": "130.4759201",
    "tel": "092-582-5291",
    "address": "大野城市錦町3-2-26",
    "access": "福岡都市高速「水城出入口」下車車5分",
    "games": [
      "麻雀格闘倶楽部(ﾆｭｰｷｬﾋﾞﾈｯﾄ機能搭載ﾓﾃﾞﾙ)"
    ]
  },
  {
    "name": "ラウンドワン大野城店",
    "operation_time": "",
    "holiday": "",
    "latitude": "33.54646948",
    "longitude": "130.4822214",
    "tel": "092-504-7411",
    "address": "大野城市御笠川1-18-16",
    "access": "",
    "games": [
      "麻雀格闘倶楽部(ﾆｭｰｷｬﾋﾞﾈｯﾄ機能搭載ﾓﾃﾞﾙ)"
    ]
  },
  {
    "name": "namcoモラージュ佐賀店",
    "operation_time": "",
    "holiday": "",
    "latitude": "33.25112099",
    "longitude": "130.3195412",
    "tel": "0952-37-8013",
    "address": "佐賀市巨勢町大字牛島730モラージュ佐賀1F",
    "access": "",
    "games": [
      "麻雀格闘倶楽部(ﾆｭｰｷｬﾋﾞﾈｯﾄ機能搭載ﾓﾃﾞﾙ)"
    ]
  },
  {
    "name": "楽市楽座諫早店",
    "operation_time": "10:00～24:00",
    "holiday": "無し",
    "latitude": "32.8336036",
    "longitude": "130.0758921",
    "tel": "0957-21-0031",
    "address": "諫早市長野町1086-17",
    "access": "57号線沿い諫早ICより車で10分",
    "games": [
      "麻雀格闘倶楽部(ﾆｭｰｷｬﾋﾞﾈｯﾄ機能搭載ﾓﾃﾞﾙ)"
    ]
  },
  {
    "name": "インターネットカフェ北斗七星",
    "operation_time": "一部24時間",
    "holiday": "無し",
    "latitude": "33.50536071",
    "longitude": "130.4808321",
    "tel": "092-986-2315",
    "address": "大野城市紫台16-6パセオ楠ヶ丘1F",
    "access": "",
    "games": [
      "麻雀格闘倶楽部(ﾆｭｰｷｬﾋﾞﾈｯﾄ機能搭載ﾓﾃﾞﾙ)"
    ]
  },
  {
    "name": "太宰府Jボウル",
    "operation_time": "10:00～24:00",
    "holiday": "無し",
    "latitude": "33.50129203",
    "longitude": "130.5136994",
    "tel": "092-921-1918",
    "address": "太宰府市都府楼南5-6-12ゲームコーナー",
    "access": "",
    "games": [
      "麻雀格闘倶楽部(ﾆｭｰｷｬﾋﾞﾈｯﾄ機能搭載ﾓﾃﾞﾙ)"
    ]
  },
  {
    "name": "ビリヤードやんちゃ宮若店",
    "operation_time": "一部24時間営業",
    "holiday": "無し",
    "latitude": "33.7320351",
    "longitude": "130.6766693",
    "tel": "0949-32-5355",
    "address": "宮若市本城町1122-1",
    "access": "",
    "games": [
      "麻雀格闘倶楽部(ﾆｭｰｷｬﾋﾞﾈｯﾄ機能搭載ﾓﾃﾞﾙ)"
    ]
  },
  {
    "name": "ビデオプラザKAWASHO",
    "operation_time": "一部24時間",
    "holiday": "無し",
    "latitude": "33.83475976",
    "longitude": "130.757832",
    "tel": "093-612-5433",
    "address": "北九州市八幡西区上の原1-8-18",
    "access": "北九州都市高速黒崎インターから直方方面へ車で2分",
    "games": [
      "麻雀格闘倶楽部(ﾆｭｰｷｬﾋﾞﾈｯﾄ機能搭載ﾓﾃﾞﾙ)"
    ]
  },
  {
    "name": "コインレストラン秋峰",
    "operation_time": "5:00～翌2:00",
    "holiday": "無し",
    "latitude": "33.47954697",
    "longitude": "130.5531328",
    "tel": "092-926-1062",
    "address": "筑紫野市天山428-1",
    "access": "天山バス停より徒歩5分",
    "games": [
      "麻雀格闘倶楽部(ﾆｭｰｷｬﾋﾞﾈｯﾄ機能搭載ﾓﾃﾞﾙ)"
    ]
  },
  {
    "name": "ビリヤードやんちゃ飯塚本店",
    "operation_time": "10:00～24:00",
    "holiday": "無し",
    "latitude": "33.6571283",
    "longitude": "130.683937",
    "tel": "0948-21-7770",
    "address": "飯塚市幸袋464-1",
    "access": "",
    "games": [
      "麻雀格闘倶楽部(ﾆｭｰｷｬﾋﾞﾈｯﾄ機能搭載ﾓﾃﾞﾙ)"
    ]
  },
  {
    "name": "G-STAGE飯塚",
    "operation_time": "10:00～24:00",
    "holiday": "無し",
    "latitude": "33.636493",
    "longitude": "130.676011",
    "tel": "050-3539-3593",
    "address": "飯塚市枝国680-2",
    "access": "",
    "games": [
      "麻雀格闘倶楽部(ﾆｭｰｷｬﾋﾞﾈｯﾄ機能搭載ﾓﾃﾞﾙ)"
    ]
  },
  {
    "name": "ゲームセンタースペース1",
    "operation_time": "10:00～24:00",
    "holiday": "無し",
    "latitude": "33.39260744",
    "longitude": "130.5424058",
    "tel": "0942-73-4777",
    "address": "小郡市小郡1466-3",
    "access": "",
    "games": [
      "麻雀格闘倶楽部(ﾆｭｰｷｬﾋﾞﾈｯﾄ機能搭載ﾓﾃﾞﾙ)"
    ]
  },
  {
    "name": "ラウンドワン小倉店",
    "operation_time": "",
    "holiday": "",
    "latitude": "33.89742877",
    "longitude": "130.8598475",
    "tel": "093-562-8805",
    "address": "北九州市小倉北区西港町15-65",
    "access": "",
    "games": [
      "麻雀格闘倶楽部(ﾆｭｰｷｬﾋﾞﾈｯﾄ機能搭載ﾓﾃﾞﾙ)"
    ]
  },
  {
    "name": "小倉メトロポリス店",
    "operation_time": "平日:10:00～23:50 土日祝前日9:00～23:50",
    "holiday": "無し",
    "latitude": "33.89633237",
    "longitude": "130.8596114",
    "tel": "093-581-5684",
    "address": "北九州市小倉北区西港町27-5",
    "access": "JR小倉駅 車で10分",
    "games": [
      "麻雀格闘倶楽部(ﾆｭｰｷｬﾋﾞﾈｯﾄ機能搭載ﾓﾃﾞﾙ)"
    ]
  },
  {
    "name": "遊道楽新合川",
    "operation_time": "10:00～24:00",
    "holiday": "無し",
    "latitude": "33.32176241",
    "longitude": "130.541007",
    "tel": "0942-45-3335",
    "address": "久留米市新合川1-6-7",
    "access": "国道210号線バイパス沿い",
    "games": [
      "麻雀格闘倶楽部(ﾆｭｰｷｬﾋﾞﾈｯﾄ機能搭載ﾓﾃﾞﾙ)"
    ]
  },
  {
    "name": "PEP魚町",
    "operation_time": "10:00～翌1:00",
    "holiday": "無し",
    "latitude": "33.88396547",
    "longitude": "130.880026",
    "tel": "093-513-1511",
    "address": "北九州市小倉北区魚町2-4-20",
    "access": "モノレール平和通り駅徒歩1分",
    "games": [
      "麻雀格闘倶楽部(ﾆｭｰｷｬﾋﾞﾈｯﾄ機能搭載ﾓﾃﾞﾙ)"
    ]
  },
  {
    "name": "国分バッティングセンター",
    "operation_time": "10:00～24:00",
    "holiday": "無し",
    "latitude": "33.29941014",
    "longitude": "130.5328341",
    "tel": "0942-21-0441",
    "address": "久留米市国分町1408",
    "access": "国道3号線「刈原」交差点より競輪場方面へ",
    "games": [
      "麻雀格闘倶楽部(ﾆｭｰｷｬﾋﾞﾈｯﾄ機能搭載ﾓﾃﾞﾙ)"
    ]
  },
  {
    "name": "PEP中津口",
    "operation_time": "",
    "holiday": "",
    "latitude": "33.877463",
    "longitude": "130.887208",
    "tel": "093-967-6696",
    "address": "北九州市小倉北区中津口2-2-16",
    "access": "",
    "games": [
      "麻雀格闘倶楽部(ﾆｭｰｷｬﾋﾞﾈｯﾄ機能搭載ﾓﾃﾞﾙ)"
    ]
  },
  {
    "name": "ハイパーメッセ",
    "operation_time": "",
    "holiday": "",
    "latitude": "33.839195",
    "longitude": "130.874155",
    "tel": "093-963-7850",
    "address": "北九州市小倉南区北方4-6-7",
    "access": "",
    "games": [
      "麻雀格闘倶楽部(ﾆｭｰｷｬﾋﾞﾈｯﾄ機能搭載ﾓﾃﾞﾙ)"
    ]
  },
  {
    "name": "アミパラ下関長府店",
    "operation_time": "10:00～24:00",
    "holiday": "無し",
    "latitude": "34.02547781",
    "longitude": "131.0073811",
    "tel": "083-248-5008",
    "address": "下関市長府才川1-42-48",
    "access": "JR長府駅徒歩12分",
    "games": [
      "麻雀格闘倶楽部(ﾆｭｰｷｬﾋﾞﾈｯﾄ機能搭載ﾓﾃﾞﾙ)"
    ]
  },
  {
    "name": "G-pala小倉店",
    "operation_time": "",
    "holiday": "",
    "latitude": "33.83945824",
    "longitude": "130.9109857",
    "tel": "093-953-7405",
    "address": "北九州市小倉南区上葛原1-14-1",
    "access": "",
    "games": [
      "麻雀格闘倶楽部(ﾆｭｰｷｬﾋﾞﾈｯﾄ機能搭載ﾓﾃﾞﾙ)"
    ]
  },
  {
    "name": "サープラ荒尾あそびタウン",
    "operation_time": "",
    "holiday": "",
    "latitude": "33.001771",
    "longitude": "130.437759",
    "tel": "096-882-8986",
    "address": "荒尾市原万田700-1",
    "access": "",
    "games": [
      "麻雀格闘倶楽部(ﾆｭｰｷｬﾋﾞﾈｯﾄ機能搭載ﾓﾃﾞﾙ)"
    ]
  },
  {
    "name": "ゲームセンターみやま",
    "operation_time": "10:00～24:00",
    "holiday": "無し",
    "latitude": "33.663281",
    "longitude": "130.8336246",
    "tel": "0947-32-2304",
    "address": "田川郡香春町大字香春1003",
    "access": "田川バイパス201号線沿い",
    "games": [
      "麻雀格闘倶楽部(ﾆｭｰｷｬﾋﾞﾈｯﾄ機能搭載ﾓﾃﾞﾙ)"
    ]
  },
  {
    "name": "パスカワールドグリーンランド",
    "operation_time": "10:00～翌3:00",
    "holiday": "無し",
    "latitude": "32.98790587",
    "longitude": "130.4711246",
    "tel": "0968-69-3001",
    "address": "荒尾市本井手1574-54",
    "access": "三井グリーンランドウルトラマンランド横",
    "games": [
      "麻雀格闘倶楽部(ﾆｭｰｷｬﾋﾞﾈｯﾄ機能搭載ﾓﾃﾞﾙ)"
    ]
  },
  {
    "name": "NO.1西工大前店",
    "operation_time": "10:00～24:00",
    "holiday": "無し",
    "latitude": "33.7546896",
    "longitude": "130.981077",
    "tel": "0930-25-2623",
    "address": "京都郡苅田町与原2-3-2",
    "access": "",
    "games": [
      "麻雀格闘倶楽部(ﾆｭｰｷｬﾋﾞﾈｯﾄ機能搭載ﾓﾃﾞﾙ)"
    ]
  },
  {
    "name": "GAME･パフェ 萩店",
    "operation_time": "",
    "holiday": "",
    "latitude": "34.41659192",
    "longitude": "131.4100388",
    "tel": "083-223-3848",
    "address": "萩市大字椿東3000-5萩ロイヤルインテリジェントH 2F",
    "access": "",
    "games": [
      "麻雀格闘倶楽部(ﾆｭｰｷｬﾋﾞﾈｯﾄ機能搭載ﾓﾃﾞﾙ)"
    ]
  },
  {
    "name": "アレックス",
    "operation_time": "9:00～24:00",
    "holiday": "",
    "latitude": "33.999394",
    "longitude": "131.220089",
    "tel": "0836-39-3587",
    "address": "宇部市西宇部南3-5-53",
    "access": "",
    "games": [
      "麻雀格闘倶楽部(ﾆｭｰｷｬﾋﾞﾈｯﾄ機能搭載ﾓﾃﾞﾙ)"
    ]
  },
  {
    "name": "カッタの湯宇部店",
    "operation_time": "10:00～24:00",
    "holiday": "無し",
    "latitude": "33.95841927",
    "longitude": "131.2615641",
    "tel": "0836-37-2626",
    "address": "宇部市海南町1675カッタの湯",
    "access": "",
    "games": [
      "麻雀格闘倶楽部(ﾆｭｰｷｬﾋﾞﾈｯﾄ機能搭載ﾓﾃﾞﾙ)"
    ]
  },
  {
    "name": "G-pala日田店",
    "operation_time": "10:00～24:00",
    "holiday": "無し",
    "latitude": "33.32522467",
    "longitude": "130.9114515",
    "tel": "0973-25-5262",
    "address": "日田市友田997-1",
    "access": "",
    "games": [
      "麻雀格闘倶楽部(ﾆｭｰｷｬﾋﾞﾈｯﾄ機能搭載ﾓﾃﾞﾙ)"
    ]
  },
  {
    "name": "フェスタ山鹿店",
    "operation_time": "店舗にてご確認ください",
    "holiday": "無し",
    "latitude": "33.00470816",
    "longitude": "130.72302",
    "tel": "096-844-5654",
    "address": "山鹿市方保田字鳥越3468-1",
    "access": "九州自動車道「植木IC」下車車10分",
    "games": [
      "麻雀格闘倶楽部(ﾆｭｰｷｬﾋﾞﾈｯﾄ機能搭載ﾓﾃﾞﾙ)"
    ]
  },
  {
    "name": "サープラ山口あそびタウン",
    "operation_time": "9:00～24:00",
    "holiday": "無し",
    "latitude": "34.1647908",
    "longitude": "131.4517343",
    "tel": "083-933-0307",
    "address": "山口市湯田温泉6-8-3",
    "access": "JR山口線 湯田温泉駅下車 湯田自動車学校方面徒歩10分",
    "games": [
      "麻雀格闘倶楽部(ﾆｭｰｷｬﾋﾞﾈｯﾄ機能搭載ﾓﾃﾞﾙ)"
    ]
  },
  {
    "name": "タイトーFステーション山口メルクス店",
    "operation_time": "",
    "holiday": "",
    "latitude": "34.135903",
    "longitude": "131.434538",
    "tel": "083-923-1165",
    "address": "山口市大字黒川82-1ハイパーモールメルクス内",
    "access": "",
    "games": [
      "麻雀格闘倶楽部(ﾆｭｰｷｬﾋﾞﾈｯﾄ機能搭載ﾓﾃﾞﾙ)"
    ]
  },
  {
    "name": "ラウンドワン熊本店",
    "operation_time": "",
    "holiday": "",
    "latitude": "32.78499883",
    "longitude": "130.6775647",
    "tel": "096-325-7200",
    "address": "熊本市西区春日7-25-15",
    "access": "",
    "games": [
      "麻雀格闘倶楽部(ﾆｭｰｷｬﾋﾞﾈｯﾄ機能搭載ﾓﾃﾞﾙ)"
    ]
  },
  {
    "name": "サープラ下通りあそびタウン",
    "operation_time": "",
    "holiday": "",
    "latitude": "32.8026522",
    "longitude": "130.7092883",
    "tel": "096-355-2888",
    "address": "熊本市中央区手取本町4-12",
    "access": "",
    "games": [
      "麻雀格闘倶楽部(ﾆｭｰｷｬﾋﾞﾈｯﾄ機能搭載ﾓﾃﾞﾙ)"
    ]
  },
  {
    "name": "大江ゲームセンター",
    "operation_time": "10:00～24:00",
    "holiday": "無し",
    "latitude": "32.80928658",
    "longitude": "130.7241853",
    "tel": "096-245-7158",
    "address": "熊本市中央区大江1-6-6",
    "access": "熊本電鉄藤崎宮前駅から徒歩15分",
    "games": [
      "麻雀格闘倶楽部(ﾆｭｰｷｬﾋﾞﾈｯﾄ機能搭載ﾓﾃﾞﾙ)"
    ]
  },
  {
    "name": "スポラ九品寺",
    "operation_time": "10:00～翌3:00",
    "holiday": "無し",
    "latitude": "32.79041868",
    "longitude": "130.7149285",
    "tel": "096-372-5700",
    "address": "熊本市中央区九品寺5-10-15",
    "access": "JR豊肥本線南熊本駅徒歩10分",
    "games": [
      "麻雀格闘倶楽部(ﾆｭｰｷｬﾋﾞﾈｯﾄ機能搭載ﾓﾃﾞﾙ)"
    ]
  },
  {
    "name": "トライセン中津店",
    "operation_time": "10:00～24:00",
    "holiday": "無し",
    "latitude": "33.58950451",
    "longitude": "131.2110968",
    "tel": "0979-85-0688",
    "address": "中津市下池永67-3",
    "access": "",
    "games": [
      "麻雀格闘倶楽部(ﾆｭｰｷｬﾋﾞﾈｯﾄ機能搭載ﾓﾃﾞﾙ)"
    ]
  },
  {
    "name": "パスカワールド宇土店",
    "operation_time": "日曜～木曜 10:00～23:00  金曜・土曜 10:00～24:00",
    "holiday": "無し",
    "latitude": "32.68271108",
    "longitude": "130.6679513",
    "tel": "0964-22-5311",
    "address": "宇土市善道寺町綾織95",
    "access": "松橋ICより車で10分、宇土シティーショッピングセンター内",
    "games": [
      "麻雀格闘倶楽部(ﾆｭｰｷｬﾋﾞﾈｯﾄ機能搭載ﾓﾃﾞﾙ)"
    ]
  },
  {
    "name": "サープラ熊本あそびタウン",
    "operation_time": "",
    "holiday": "",
    "latitude": "32.831007",
    "longitude": "130.771462",
    "tel": "096-288-7562",
    "address": "熊本市東区御領8-4-82",
    "access": "",
    "games": [
      "麻雀格闘倶楽部(ﾆｭｰｷｬﾋﾞﾈｯﾄ機能搭載ﾓﾃﾞﾙ)"
    ]
  },
  {
    "name": "スポラ菊陽店",
    "operation_time": "10:00～24:00",
    "holiday": "無し",
    "latitude": "32.86472855",
    "longitude": "130.8092457",
    "tel": "096-213-5720",
    "address": "菊池郡菊陽町津久礼駄飼代2617-2",
    "access": "",
    "games": [
      "麻雀格闘倶楽部(ﾆｭｰｷｬﾋﾞﾈｯﾄ機能搭載ﾓﾃﾞﾙ)"
    ]
  },
  {
    "name": "ネオブラボー",
    "operation_time": "8:00～24:00",
    "holiday": "無し",
    "latitude": "34.05495583",
    "longitude": "131.5592054",
    "tel": "0835-23-9570",
    "address": "防府市高倉1-3-30",
    "access": "防府西IC、防府東ICより車で10分",
    "games": [
      "麻雀格闘倶楽部(ﾆｭｰｷｬﾋﾞﾈｯﾄ機能搭載ﾓﾃﾞﾙ)"
    ]
  },
  {
    "name": "楽市楽座小川店",
    "operation_time": "10:00～24:00",
    "holiday": "無し",
    "latitude": "32.59734721",
    "longitude": "130.7066968",
    "tel": "0964-43-4500",
    "address": "宇城市小川町河江1-1",
    "access": "3号線沿いダイヤモンドシティ熊本南店敷地内",
    "games": [
      "麻雀格闘倶楽部(ﾆｭｰｷｬﾋﾞﾈｯﾄ機能搭載ﾓﾃﾞﾙ)"
    ]
  },
  {
    "name": "ソユーファミリーゲームフィールド防府店",
    "operation_time": "10:00～23:00",
    "holiday": "母店に準ずる",
    "latitude": "34.04830546",
    "longitude": "131.5904222",
    "tel": "0835-26-0218",
    "address": "防府市鐘紡町7-1イオンタウン防府1F",
    "access": "防府駅から車で約10分 防府駅から徒歩約30分 ロックシティ防府ショッピングセンター内",
    "games": [
      "麻雀格闘倶楽部(ﾆｭｰｷｬﾋﾞﾈｯﾄ機能搭載ﾓﾃﾞﾙ)"
    ]
  },
  {
    "name": "アミューズメントシティーG-STA",
    "operation_time": "",
    "holiday": "",
    "latitude": "31.8157681",
    "longitude": "130.3073786",
    "tel": "0996-20-4533",
    "address": "薩摩川内市向田本町49",
    "access": "",
    "games": [
      "麻雀格闘倶楽部(ﾆｭｰｷｬﾋﾞﾈｯﾄ機能搭載ﾓﾃﾞﾙ)"
    ]
  },
  {
    "name": "ゲームスポットSPEED",
    "operation_time": "9:00～24:00",
    "holiday": "無し",
    "latitude": "34.03418509",
    "longitude": "131.8347616",
    "tel": "0834-36-2828",
    "address": "周南市久米3219",
    "access": "",
    "games": [
      "麻雀格闘倶楽部(ﾆｭｰｷｬﾋﾞﾈｯﾄ機能搭載ﾓﾃﾞﾙ)"
    ]
  },
  {
    "name": "アミパラ周南久米店",
    "operation_time": "",
    "holiday": "",
    "latitude": "34.03737576",
    "longitude": "131.8441913",
    "tel": "083-436-1234",
    "address": "周南市久米中央5-6-1イオンタウン周南久米内",
    "access": "",
    "games": [
      "麻雀格闘倶楽部(ﾆｭｰｷｬﾋﾞﾈｯﾄ機能搭載ﾓﾃﾞﾙ)"
    ]
  },
  {
    "name": "フェスタ人吉店",
    "operation_time": "10:00～24:00",
    "holiday": "無し",
    "latitude": "32.2120774",
    "longitude": "130.7482481",
    "tel": "0966-24-6210",
    "address": "人吉市宝来町1307-1人吉レックス内",
    "access": "人吉駅より車で5分",
    "games": [
      "麻雀格闘倶楽部(ﾆｭｰｷｬﾋﾞﾈｯﾄ機能搭載ﾓﾃﾞﾙ)"
    ]
  },
  {
    "name": "ラウンドワン沖縄･宜野湾店",
    "operation_time": "",
    "holiday": "",
    "latitude": "26.27580261",
    "longitude": "127.7310389",
    "tel": "098-870-2110",
    "address": "宜野湾市真志喜3-28-8",
    "access": "",
    "games": [
      "麻雀格闘倶楽部(ﾆｭｰｷｬﾋﾞﾈｯﾄ機能搭載ﾓﾃﾞﾙ)"
    ]
  },
  {
    "name": "GiGO別府",
    "operation_time": "",
    "holiday": "",
    "latitude": "33.29561901",
    "longitude": "131.5030598",
    "tel": "0977-25-3206",
    "address": "別府市餅ケ浜町161-2",
    "access": "",
    "games": [
      "麻雀格闘倶楽部(ﾆｭｰｷｬﾋﾞﾈｯﾄ機能搭載ﾓﾃﾞﾙ)"
    ]
  },
  {
    "name": "ラウンドワン沖縄･南風原店",
    "operation_time": "",
    "holiday": "",
    "latitude": "26.19509176",
    "longitude": "127.7210653",
    "tel": "098-940-6670",
    "address": "島尻郡南風原町字兼城下茂原552",
    "access": "",
    "games": [
      "麻雀格闘倶楽部(ﾆｭｰｷｬﾋﾞﾈｯﾄ機能搭載ﾓﾃﾞﾙ)"
    ]
  },
  {
    "name": "サープラ天文館あそびタウン",
    "operation_time": "",
    "holiday": "",
    "latitude": "31.589476",
    "longitude": "130.555714",
    "tel": "099-295-0509",
    "address": "鹿児島市千日町5-6",
    "access": "",
    "games": [
      "麻雀格闘倶楽部(ﾆｭｰｷｬﾋﾞﾈｯﾄ機能搭載ﾓﾃﾞﾙ)"
    ]
  },
  {
    "name": "ラウンドワン鹿児島宇宿店",
    "operation_time": "",
    "holiday": "",
    "latitude": "31.54388304",
    "longitude": "130.5427759",
    "tel": "099-284-0655",
    "address": "鹿児島市宇宿2-2-2",
    "access": "",
    "games": [
      "麻雀格闘倶楽部(ﾆｭｰｷｬﾋﾞﾈｯﾄ機能搭載ﾓﾃﾞﾙ)"
    ]
  },
  {
    "name": "サープラ鹿児島あそびタウン",
    "operation_time": "9:00～24:00",
    "holiday": "無し",
    "latitude": "31.57003616",
    "longitude": "130.565823",
    "tel": "099-213-0223",
    "address": "鹿児島市与次郎1-11-1 2F",
    "access": "フレスポジャングルパーク鹿児島店2F",
    "games": [
      "麻雀格闘倶楽部(ﾆｭｰｷｬﾋﾞﾈｯﾄ機能搭載ﾓﾃﾞﾙ)"
    ]
  },
  {
    "name": "FESTAフリーモールわさだ店",
    "operation_time": "店舗にてご確認ください",
    "holiday": "無し",
    "latitude": "33.18472246",
    "longitude": "131.5680754",
    "tel": "097-542-1883",
    "address": "大分市木上字鉾手2102",
    "access": "大分自動車道「大分光吉IC」下車車10分",
    "games": [
      "麻雀格闘倶楽部(ﾆｭｰｷｬﾋﾞﾈｯﾄ機能搭載ﾓﾃﾞﾙ)"
    ]
  },
  {
    "name": "アミューズメントスペース遊ランド稚内店",
    "operation_time": "",
    "holiday": "",
    "latitude": "45.40077226",
    "longitude": "141.6807113",
    "tel": "0162-22-2233",
    "address": "稚内市港5-8-15",
    "access": "",
    "games": [
      "麻雀格闘倶楽部(ﾆｭｰｷｬﾋﾞﾈｯﾄ機能搭載ﾓﾃﾞﾙ)"
    ]
  },
  {
    "name": "タイトーFステーションセントポルタ大分店",
    "operation_time": "",
    "holiday": "",
    "latitude": "33.235334",
    "longitude": "131.606448",
    "tel": "097-533-2716",
    "address": "大分市中央町2-1-1",
    "access": "",
    "games": [
      "麻雀格闘倶楽部(ﾆｭｰｷｬﾋﾞﾈｯﾄ機能搭載ﾓﾃﾞﾙ)"
    ]
  },
  {
    "name": "スプロール稙田",
    "operation_time": "一部24時間営業",
    "holiday": "無し",
    "latitude": "33.18658113",
    "longitude": "131.5783216",
    "tel": "097-588-8580",
    "address": "大分市玉沢688-1",
    "access": "",
    "games": [
      "麻雀格闘倶楽部(ﾆｭｰｷｬﾋﾞﾈｯﾄ機能搭載ﾓﾃﾞﾙ)"
    ]
  },
  {
    "name": "アミューズメントIXORA",
    "operation_time": "",
    "holiday": "",
    "latitude": "35.452219",
    "longitude": "133.050236",
    "tel": "0852-25-7900",
    "address": "松江市嫁島町2-35エンバンクメントビル1F",
    "access": "",
    "games": [
      "麻雀格闘倶楽部(ﾆｭｰｷｬﾋﾞﾈｯﾄ機能搭載ﾓﾃﾞﾙ)"
    ]
  },
  {
    "name": "ラウンドワン大分店",
    "operation_time": "",
    "holiday": "",
    "latitude": "33.24885259",
    "longitude": "131.6402543",
    "tel": "097-573-2800",
    "address": "大分市萩原2-13-17",
    "access": "",
    "games": [
      "麻雀格闘倶楽部(ﾆｭｰｷｬﾋﾞﾈｯﾄ機能搭載ﾓﾃﾞﾙ)"
    ]
  },
  {
    "name": "スペースV1廿日市店",
    "operation_time": "10:00～24:00",
    "holiday": "無し",
    "latitude": "34.35185323",
    "longitude": "132.3340207",
    "tel": "0829-34-3311",
    "address": "廿日市市本町4-23",
    "access": "山陽本線廿日市駅下車2号線沿い東へ徒歩15分",
    "games": [
      "麻雀格闘倶楽部(ﾆｭｰｷｬﾋﾞﾈｯﾄ機能搭載ﾓﾃﾞﾙ)"
    ]
  },
  {
    "name": "トライセン萩原店",
    "operation_time": "ボウリングコーナー:10:00～24:00 ゲームコーナー:7:00～翌3:00",
    "holiday": "無し",
    "latitude": "33.249338",
    "longitude": "131.643415",
    "tel": "097-556-2188",
    "address": "大分市萩原4-227-1ACS内3F",
    "access": "臨界産業道路沿い 大洲総合運動公園近く",
    "games": [
      "麻雀格闘倶楽部(ﾆｭｰｷｬﾋﾞﾈｯﾄ機能搭載ﾓﾃﾞﾙ)"
    ]
  },
  {
    "name": "アミパラ松江店",
    "operation_time": "",
    "holiday": "",
    "latitude": "35.463684",
    "longitude": "133.074132",
    "tel": "0852-67-1700",
    "address": "松江市東朝日町203-1",
    "access": "",
    "games": [
      "麻雀格闘倶楽部(ﾆｭｰｷｬﾋﾞﾈｯﾄ機能搭載ﾓﾃﾞﾙ)"
    ]
  },
  {
    "name": "サープラ国分あそびタウン",
    "operation_time": "9:00～24:00",
    "holiday": "無し",
    "latitude": "31.72203434",
    "longitude": "130.756017",
    "tel": "0995-48-6789",
    "address": "霧島市国分広瀬2-4-1",
    "access": "",
    "games": [
      "麻雀格闘倶楽部(ﾆｭｰｷｬﾋﾞﾈｯﾄ機能搭載ﾓﾃﾞﾙ)"
    ]
  },
  {
    "name": "GiGOアルパーク北棟",
    "operation_time": "",
    "holiday": "",
    "latitude": "34.37630292",
    "longitude": "132.3950257",
    "tel": "090-9155-1362",
    "address": "広島市西区草津南4-7-1アルパーク北棟2F",
    "access": "",
    "games": [
      "麻雀格闘倶楽部(ﾆｭｰｷｬﾋﾞﾈｯﾄ機能搭載ﾓﾃﾞﾙ)"
    ]
  },
  {
    "name": "ブラックジャックアクア",
    "operation_time": "10:00～24:00",
    "holiday": "無し",
    "latitude": "34.46868445",
    "longitude": "132.4628776",
    "tel": "082-831-3344",
    "address": "広島市安佐南区大町東4-12-11",
    "access": "アストラムライン 毘沙門台駅 徒歩4分",
    "games": [
      "麻雀格闘倶楽部(ﾆｭｰｷｬﾋﾞﾈｯﾄ機能搭載ﾓﾃﾞﾙ)"
    ]
  },
  {
    "name": "ふぇすたらんど可部店",
    "operation_time": "10:00～20:00",
    "holiday": "無し",
    "latitude": "34.523539",
    "longitude": "132.51202",
    "tel": "082-815-7313",
    "address": "広島市安佐北区可部7-4-13山陽マルナカ可部店2F",
    "access": "可部駅広電バス「上根・吉田線」可部駅前より乗車、可部上市停留所より徒歩3分",
    "games": [
      "麻雀格闘倶楽部(ﾆｭｰｷｬﾋﾞﾈｯﾄ機能搭載ﾓﾃﾞﾙ)"
    ]
  },
  {
    "name": "アミパラ広島店",
    "operation_time": "10:00～24:00",
    "holiday": "無し",
    "latitude": "34.39350431",
    "longitude": "132.4360428",
    "tel": "082-297-7135",
    "address": "広島市西区西観音町3-17",
    "access": "平和大通り沿い、西区区役所から東へすぐ",
    "games": [
      "麻雀格闘倶楽部(ﾆｭｰｷｬﾋﾞﾈｯﾄ機能搭載ﾓﾃﾞﾙ)"
    ]
  },
  {
    "name": "タイトーステーション広島紙屋町店",
    "operation_time": "平日10:00～24:00 土日祝9:00～24:00",
    "holiday": "無し",
    "latitude": "34.394034",
    "longitude": "132.456154",
    "tel": "082-544-3961",
    "address": "広島市中区紙屋町2-2-21",
    "access": "広島電鉄 紙屋町西電停より徒歩2分",
    "games": [
      "麻雀格闘倶楽部(ﾆｭｰｷｬﾋﾞﾈｯﾄ機能搭載ﾓﾃﾞﾙ)"
    ]
  },
  {
    "name": "ラウンドワン広島店",
    "operation_time": "",
    "holiday": "",
    "latitude": "34.39365895",
    "longitude": "132.4600423",
    "tel": "082-545-8910",
    "address": "広島市中区立町3-11",
    "access": "",
    "games": [
      "麻雀格闘倶楽部(ﾆｭｰｷｬﾋﾞﾈｯﾄ機能搭載ﾓﾃﾞﾙ)"
    ]
  },
  {
    "name": "タイトーステーション広島本通店",
    "operation_time": "10:00～24:00",
    "holiday": "無し",
    "latitude": "34.3929912",
    "longitude": "132.4599026",
    "tel": "082-541-6345",
    "address": "広島市中区本通3-5せらかぐ本通ビル",
    "access": "広島電鉄・立町駅より徒歩5分",
    "games": [
      "麻雀格闘倶楽部(ﾆｭｰｷｬﾋﾞﾈｯﾄ機能搭載ﾓﾃﾞﾙ)"
    ]
  },
  {
    "name": "ビバーチャ",
    "operation_time": "",
    "holiday": "",
    "latitude": "34.37953351",
    "longitude": "132.4613726",
    "tel": "082-504-8665",
    "address": "広島市中区南竹屋町10-17",
    "access": "",
    "games": [
      "麻雀格闘倶楽部(ﾆｭｰｷｬﾋﾞﾈｯﾄ機能搭載ﾓﾃﾞﾙ)"
    ]
  },
  {
    "name": "アミパラフォレオ広島東店",
    "operation_time": "",
    "holiday": "",
    "latitude": "34.407515",
    "longitude": "132.504176",
    "tel": "082-562-2211",
    "address": "広島市東区温品1-3-2フォレオ広島東1F",
    "access": "",
    "games": [
      "麻雀格闘倶楽部(ﾆｭｰｷｬﾋﾞﾈｯﾄ機能搭載ﾓﾃﾞﾙ)"
    ]
  },
  {
    "name": "PALO境港",
    "operation_time": "",
    "holiday": "",
    "latitude": "35.52243536",
    "longitude": "133.2524414",
    "tel": "070-3100-5063",
    "address": "境港市竹内団地81-3",
    "access": "",
    "games": [
      "麻雀格闘倶楽部(ﾆｭｰｷｬﾋﾞﾈｯﾄ機能搭載ﾓﾃﾞﾙ)"
    ]
  },
  {
    "name": "アミパラがいな店",
    "operation_time": "10:00 ～ 24:00",
    "holiday": "無し",
    "latitude": "35.43797411",
    "longitude": "133.3392651",
    "tel": "0859-39-1800",
    "address": "米子市日ノ出町1-8-13",
    "access": "米子しんまち天満屋から南西へ300m",
    "games": [
      "麻雀格闘倶楽部(ﾆｭｰｷｬﾋﾞﾈｯﾄ機能搭載ﾓﾃﾞﾙ)"
    ]
  },
  {
    "name": "ビリヤードG'z",
    "operation_time": "",
    "holiday": "",
    "latitude": "31.725703",
    "longitude": "131.05961",
    "tel": "0986-24-2344",
    "address": "都城市牟田町4-2",
    "access": "",
    "games": [
      "麻雀格闘倶楽部(ﾆｭｰｷｬﾋﾞﾈｯﾄ機能搭載ﾓﾃﾞﾙ)"
    ]
  },
  {
    "name": "アミパラここじゃ店",
    "operation_time": "10:00～24:00",
    "holiday": "無し",
    "latitude": "34.40752689",
    "longitude": "132.7155261",
    "tel": "082-424-4747",
    "address": "東広島市西条町下見6-10-19山手電気内",
    "access": "広島大学前の交差点より西へすぐ。山手電気内",
    "games": [
      "麻雀格闘倶楽部(ﾆｭｰｷｬﾋﾞﾈｯﾄ機能搭載ﾓﾃﾞﾙ)"
    ]
  },
  {
    "name": "GiGO広",
    "operation_time": "10:00～24:00",
    "holiday": "無し",
    "latitude": "34.22860722",
    "longitude": "132.6293589",
    "tel": "070-1459-4743",
    "address": "呉市広中町1-9フタバ図書TSUTAYA広店2F",
    "access": "呉線広駅前下車すぐ185号線沿いフタバ図書内",
    "games": [
      "麻雀格闘倶楽部(ﾆｭｰｷｬﾋﾞﾈｯﾄ機能搭載ﾓﾃﾞﾙ)"
    ]
  },
  {
    "name": "ブラックジャック東広島店",
    "operation_time": "10:00～24:00",
    "holiday": "無し",
    "latitude": "34.4141843",
    "longitude": "132.7533405",
    "tel": "0824-24-2872",
    "address": "東広島市西条町御薗宇6120賀茂ボウル内",
    "access": "山陽自動車道西条ICより車で15分375号線経由円城寺入口交差点よりすぐ加茂ボウル内",
    "games": [
      "麻雀格闘倶楽部(ﾆｭｰｷｬﾋﾞﾈｯﾄ機能搭載ﾓﾃﾞﾙ)"
    ]
  },
  {
    "name": "フェスタコスモタウン佐伯店",
    "operation_time": "",
    "holiday": "",
    "latitude": "32.9610561",
    "longitude": "131.8662353",
    "tel": "0972-22-3660",
    "address": "佐伯市鶴岡西町2-163コスモタウン佐伯内",
    "access": "",
    "games": [
      "麻雀格闘倶楽部(ﾆｭｰｷｬﾋﾞﾈｯﾄ機能搭載ﾓﾃﾞﾙ)"
    ]
  },
  {
    "name": "ラウンドワン宮崎店",
    "operation_time": "",
    "holiday": "",
    "latitude": "31.89458335",
    "longitude": "131.4170876",
    "tel": "0985-63-1210",
    "address": "宮崎市中村東3-4-60",
    "access": "",
    "games": [
      "麻雀格闘倶楽部(ﾆｭｰｷｬﾋﾞﾈｯﾄ機能搭載ﾓﾃﾞﾙ)"
    ]
  },
  {
    "name": "ラウンドワン松山店",
    "operation_time": "",
    "holiday": "",
    "latitude": "33.8664873",
    "longitude": "132.751593",
    "tel": "089-911-5511",
    "address": "松山市東長戸1-3-10",
    "access": "",
    "games": [
      "麻雀格闘倶楽部(ﾆｭｰｷｬﾋﾞﾈｯﾄ機能搭載ﾓﾃﾞﾙ)"
    ]
  },
  {
    "name": "タイトーステーション衣山店",
    "operation_time": "10:00～24:00",
    "holiday": "無し",
    "latitude": "33.8540137",
    "longitude": "132.7469102",
    "tel": "089-925-2039",
    "address": "松山市衣山1-188パルティ･フジ衣山内",
    "access": "衣山駅より徒歩6分",
    "games": [
      "麻雀格闘倶楽部(ﾆｭｰｷｬﾋﾞﾈｯﾄ機能搭載ﾓﾃﾞﾙ)"
    ]
  },
  {
    "name": "バンバン衣山店",
    "operation_time": "10:00～24:00",
    "holiday": "無し",
    "latitude": "33.85248",
    "longitude": "132.7461968",
    "tel": "089-923-4555",
    "address": "松山市衣山1-248-1",
    "access": "",
    "games": [
      "麻雀格闘倶楽部(ﾆｭｰｷｬﾋﾞﾈｯﾄ機能搭載ﾓﾃﾞﾙ)"
    ]
  },
  {
    "name": "宮西スタジアム",
    "operation_time": "",
    "holiday": "無し",
    "latitude": "33.848559",
    "longitude": "132.7518258",
    "tel": "089-924-5070",
    "address": "松山市宮西2-4-41",
    "access": "JR松山駅より徒歩15分",
    "games": [
      "麻雀格闘倶楽部(ﾆｭｰｷｬﾋﾞﾈｯﾄ機能搭載ﾓﾃﾞﾙ)"
    ]
  },
  {
    "name": "プレイドーム松山",
    "operation_time": "",
    "holiday": "無し",
    "latitude": "33.80938654",
    "longitude": "132.7280805",
    "tel": "089-972-3000",
    "address": "松山市余戸南4-9-40",
    "access": "伊予鉄鎌田駅より徒歩2分",
    "games": [
      "麻雀格闘倶楽部(ﾆｭｰｷｬﾋﾞﾈｯﾄ機能搭載ﾓﾃﾞﾙ)"
    ]
  },
  {
    "name": "アミパラ松山店",
    "operation_time": "10:00～24:00",
    "holiday": "無し",
    "latitude": "33.833875",
    "longitude": "132.744981",
    "tel": "089-913-5533",
    "address": "松山市生石町655-1",
    "access": "JR松山駅から南西1km 国道196号線沿い",
    "games": [
      "麻雀格闘倶楽部(ﾆｭｰｷｬﾋﾞﾈｯﾄ機能搭載ﾓﾃﾞﾙ)"
    ]
  },
  {
    "name": "アミューズメントパークMGキスケ店",
    "operation_time": "",
    "holiday": "無し",
    "latitude": "33.84135404",
    "longitude": "132.753158",
    "tel": "089-933-2737",
    "address": "松山市宮田町4キスケボール1F内ゲームコーナー",
    "access": "JR松山駅より徒歩3分",
    "games": [
      "麻雀格闘倶楽部(ﾆｭｰｷｬﾋﾞﾈｯﾄ機能搭載ﾓﾃﾞﾙ)"
    ]
  },
  {
    "name": "ビッグバンアミぷり",
    "operation_time": "10:00～翌3:00",
    "holiday": "無し",
    "latitude": "33.83736711",
    "longitude": "132.7699279",
    "tel": "089-915-0554",
    "address": "松山市大街道1-4-10",
    "access": "伊予鉄大街道駅より徒歩10分",
    "games": [
      "麻雀格闘倶楽部(ﾆｭｰｷｬﾋﾞﾈｯﾄ機能搭載ﾓﾃﾞﾙ)"
    ]
  },
  {
    "name": "スーパーヒーロー倉吉",
    "operation_time": "10:00～翌3:00/土・休前日/10:00～翌5:00",
    "holiday": "無し",
    "latitude": "35.43833291",
    "longitude": "133.8393183",
    "tel": "0858-23-5255",
    "address": "倉吉市見日町633",
    "access": "バス・西倉吉方面行き/厚生病院前下車徒歩3分",
    "games": [
      "麻雀格闘倶楽部(ﾆｭｰｷｬﾋﾞﾈｯﾄ機能搭載ﾓﾃﾞﾙ)"
    ]
  },
  {
    "name": "アミューズメントパークMGジアス店",
    "operation_time": "",
    "holiday": "無し",
    "latitude": "34.44068975",
    "longitude": "133.2607402",
    "tel": "084-939-7733",
    "address": "福山市柳津町1-7-60",
    "access": "",
    "games": [
      "麻雀格闘倶楽部(ﾆｭｰｷｬﾋﾞﾈｯﾄ機能搭載ﾓﾃﾞﾙ)"
    ]
  },
  {
    "name": "アミパラ神辺店",
    "operation_time": "10:00～24:00",
    "holiday": "無し",
    "latitude": "34.54578493",
    "longitude": "133.3586159",
    "tel": "084-963-3555",
    "address": "福山市神辺町大字新道上字1-2-1",
    "access": "フジグラン神辺店向かい",
    "games": [
      "麻雀格闘倶楽部(ﾆｭｰｷｬﾋﾞﾈｯﾄ機能搭載ﾓﾃﾞﾙ)"
    ]
  },
  {
    "name": "タイトーFステーション今治ワールドプラザ店",
    "operation_time": "",
    "holiday": "",
    "latitude": "34.04267054",
    "longitude": "133.0278686",
    "tel": "0898-48-8818",
    "address": "今治市東村1-14-2今治ワールドプラザ内",
    "access": "",
    "games": [
      "麻雀格闘倶楽部(ﾆｭｰｷｬﾋﾞﾈｯﾄ機能搭載ﾓﾃﾞﾙ)"
    ]
  },
  {
    "name": "あみぱらんど福山店",
    "operation_time": "10:00～24:00",
    "holiday": "無し",
    "latitude": "34.48795195",
    "longitude": "133.3784594",
    "tel": "0849-25-6188",
    "address": "福山市三吉町南2-8-24",
    "access": "国道2号線沿い、福山警察署から東へすぐ",
    "games": [
      "麻雀格闘倶楽部(ﾆｭｰｷｬﾋﾞﾈｯﾄ機能搭載ﾓﾃﾞﾙ)"
    ]
  },
  {
    "name": "ラウンドワン福山店",
    "operation_time": "",
    "holiday": "",
    "latitude": "34.489155",
    "longitude": "133.3925782",
    "tel": "084-973-9891",
    "address": "福山市明神町1-9-28",
    "access": "",
    "games": [
      "麻雀格闘倶楽部(ﾆｭｰｷｬﾋﾞﾈｯﾄ機能搭載ﾓﾃﾞﾙ)"
    ]
  },
  {
    "name": "福山メトロポリス",
    "operation_time": "10:00～23:50",
    "holiday": "無し",
    "latitude": "34.46583759",
    "longitude": "133.407424",
    "tel": "084-981-5095",
    "address": "福山市一文字町24-1",
    "access": "JR東福山駅より車で10分",
    "games": [
      "麻雀格闘倶楽部(ﾆｭｰｷｬﾋﾞﾈｯﾄ機能搭載ﾓﾃﾞﾙ)"
    ]
  },
  {
    "name": "アミューズメントパークMG東予店",
    "operation_time": "",
    "holiday": "",
    "latitude": "33.9205621",
    "longitude": "133.0775644",
    "tel": "0898-35-3222",
    "address": "西条市周布715-1フジ東予店 別棟",
    "access": "",
    "games": [
      "麻雀格闘倶楽部(ﾆｭｰｷｬﾋﾞﾈｯﾄ機能搭載ﾓﾃﾞﾙ)"
    ]
  },
  {
    "name": "メカランド サルビア",
    "operation_time": "10:00～翌3:00",
    "holiday": "無し",
    "latitude": "35.51980336",
    "longitude": "134.2034528",
    "tel": "0857-31-0000",
    "address": "鳥取市南隈860",
    "access": "ジャスコ鳥取北店より徒歩15分",
    "games": [
      "麻雀格闘倶楽部(ﾆｭｰｷｬﾋﾞﾈｯﾄ機能搭載ﾓﾃﾞﾙ)"
    ]
  },
  {
    "name": "アミューズメントパークMG西条店",
    "operation_time": "",
    "holiday": "",
    "latitude": "33.92670287",
    "longitude": "133.1828145",
    "tel": "0897-47-4470",
    "address": "西条市新田字北新田235フジグラン西条別棟",
    "access": "フジグラン西条別棟",
    "games": [
      "麻雀格闘倶楽部(ﾆｭｰｷｬﾋﾞﾈｯﾄ機能搭載ﾓﾃﾞﾙ)"
    ]
  },
  {
    "name": "ファンタジスタ",
    "operation_time": "12:00～24:00",
    "holiday": "店舗にお問合わせください",
    "latitude": "34.5583269",
    "longitude": "133.6767549",
    "tel": "086-526-0438",
    "address": "倉敷市新倉敷駅前5-194",
    "access": "JR西日本山陽本線「新倉敷」駅から南西に徒歩10分",
    "games": [
      "麻雀格闘倶楽部(ﾆｭｰｷｬﾋﾞﾈｯﾄ機能搭載ﾓﾃﾞﾙ)"
    ]
  },
  {
    "name": "タイトーFステーションマルナカ新倉敷店",
    "operation_time": "",
    "holiday": "",
    "latitude": "34.5614539",
    "longitude": "133.6847049",
    "tel": "086-523-4301",
    "address": "倉敷市玉島爪崎981-1",
    "access": "",
    "games": [
      "麻雀格闘倶楽部(ﾆｭｰｷｬﾋﾞﾈｯﾄ機能搭載ﾓﾃﾞﾙ)"
    ]
  },
  {
    "name": "アミパラ津山店",
    "operation_time": "9:00～22:00",
    "holiday": "無し",
    "latitude": "35.06470307",
    "longitude": "134.0455074",
    "tel": "0868-21-8071",
    "address": "津山市河辺1000-1イオン津山SC内2F",
    "access": "中国自動車道津山IC下車正面 イオン津山ショッピングセンター内2F",
    "games": [
      "麻雀格闘倶楽部(ﾆｭｰｷｬﾋﾞﾈｯﾄ機能搭載ﾓﾃﾞﾙ)"
    ]
  },
  {
    "name": "ユーズランド倉敷店",
    "operation_time": "10:00～21:00",
    "holiday": "無し",
    "latitude": "34.60290341",
    "longitude": "133.7454258",
    "tel": "086-430-5234",
    "address": "倉敷市水江1イオン倉敷ショッピングセンター2F",
    "access": "イオン倉敷SC2F倉敷駅北口1番乗場よりバスで10分山陽自動車道倉敷ICより約7分",
    "games": [
      "麻雀格闘倶楽部(ﾆｭｰｷｬﾋﾞﾈｯﾄ機能搭載ﾓﾃﾞﾙ)"
    ]
  },
  {
    "name": "アミパラ倉敷店",
    "operation_time": "10:00～24:00",
    "holiday": "無し",
    "latitude": "34.58364137",
    "longitude": "133.7712207",
    "tel": "086-430-2111",
    "address": "倉敷市西中新田624-1アミパラボウル1F",
    "access": "倉敷市役所前、アミパラボウル1F",
    "games": [
      "麻雀格闘倶楽部(ﾆｭｰｷｬﾋﾞﾈｯﾄ機能搭載ﾓﾃﾞﾙ)"
    ]
  },
  {
    "name": "ドライブイン古城",
    "operation_time": "7:00～24:00",
    "holiday": "無し",
    "latitude": "34.55139486",
    "longitude": "133.7675318",
    "tel": "086-455-5190",
    "address": "倉敷市福田町福田2111-1",
    "access": "早島ICより車で20分",
    "games": [
      "麻雀格闘倶楽部(ﾆｭｰｷｬﾋﾞﾈｯﾄ機能搭載ﾓﾃﾞﾙ)"
    ]
  },
  {
    "name": "岡山ヤングボウル",
    "operation_time": "一部24時間",
    "holiday": "無し",
    "latitude": "34.649061",
    "longitude": "133.884534",
    "tel": "086-246-6566",
    "address": "岡山市北区北長瀬表町3-3-20",
    "access": "北長瀬駅より徒歩5分 旧2号線倉敷方面",
    "games": [
      "麻雀格闘倶楽部(ﾆｭｰｷｬﾋﾞﾈｯﾄ機能搭載ﾓﾃﾞﾙ)"
    ]
  },
  {
    "name": "ラウンドワン岡山妹尾店",
    "operation_time": "",
    "holiday": "",
    "latitude": "34.62318926",
    "longitude": "133.8694608",
    "tel": "086-282-8851",
    "address": "岡山市南区妹尾3413-1",
    "access": "",
    "games": [
      "麻雀格闘倶楽部(ﾆｭｰｷｬﾋﾞﾈｯﾄ機能搭載ﾓﾃﾞﾙ)"
    ]
  },
  {
    "name": "アミパラテクノランド店",
    "operation_time": "10:00～24:00",
    "holiday": "",
    "latitude": "34.679221",
    "longitude": "133.927419",
    "tel": "086-225-3377",
    "address": "岡山市北区大和町1-7-12",
    "access": "法界院駅から徒歩10分",
    "games": [
      "麻雀格闘倶楽部(ﾆｭｰｷｬﾋﾞﾈｯﾄ機能搭載ﾓﾃﾞﾙ)"
    ]
  },
  {
    "name": "アミパラ岡山店",
    "operation_time": "10:00～24:00",
    "holiday": "無し",
    "latitude": "34.63615978",
    "longitude": "133.919988",
    "tel": "086-235-3332",
    "address": "岡山市北区青江1-13-8",
    "access": "2号線バイパス・青江交差点から北へすぐ",
    "games": [
      "麻雀格闘倶楽部(ﾆｭｰｷｬﾋﾞﾈｯﾄ機能搭載ﾓﾃﾞﾙ)"
    ]
  },
  {
    "name": "アミパラ東岡山店",
    "operation_time": "",
    "holiday": "",
    "latitude": "34.67243766",
    "longitude": "133.9671516",
    "tel": "086-206-3780",
    "address": "岡山市中区高屋308-1フレスポ高屋2F",
    "access": "",
    "games": [
      "麻雀格闘倶楽部(ﾆｭｰｷｬﾋﾞﾈｯﾄ機能搭載ﾓﾃﾞﾙ)"
    ]
  },
  {
    "name": "アミューズメントパークMG伊予三島店",
    "operation_time": "",
    "holiday": "",
    "latitude": "33.97450223",
    "longitude": "133.5286622",
    "tel": "0896-72-7177",
    "address": "四国中央市中之庄町汐汲道75-1",
    "access": "",
    "games": [
      "麻雀格闘倶楽部(ﾆｭｰｷｬﾋﾞﾈｯﾄ機能搭載ﾓﾃﾞﾙ)"
    ]
  },
  {
    "name": "ウェアハウス四万十店",
    "operation_time": "9:00～22:00",
    "holiday": "無し",
    "latitude": "32.98710457",
    "longitude": "132.9393438",
    "tel": "0880-31-0152",
    "address": "四万十市右山五月町8-13アピアさつき2F",
    "access": "",
    "games": [
      "麻雀格闘倶楽部(ﾆｭｰｷｬﾋﾞﾈｯﾄ機能搭載ﾓﾃﾞﾙ)"
    ]
  },
  {
    "name": "マックスプラザ善通寺",
    "operation_time": "",
    "holiday": "",
    "latitude": "34.24362494",
    "longitude": "133.7639965",
    "tel": "0877-63-4333",
    "address": "善通寺市中村町1798-2",
    "access": "",
    "games": [
      "麻雀格闘倶楽部(ﾆｭｰｷｬﾋﾞﾈｯﾄ機能搭載ﾓﾃﾞﾙ)"
    ]
  },
  {
    "name": "アミパラ丸亀店",
    "operation_time": "10:00～24:00",
    "holiday": "無し",
    "latitude": "34.28466398",
    "longitude": "133.8209638",
    "tel": "0877-24-6666",
    "address": "丸亀市飯野町西分字川縁甲584-1ハローズ棟",
    "access": "坂出ICから5分国道11号線沿い ニトリ隣",
    "games": [
      "麻雀格闘倶楽部(ﾆｭｰｷｬﾋﾞﾈｯﾄ機能搭載ﾓﾃﾞﾙ)"
    ]
  },
  {
    "name": "GiGOイオン札幌手稲駅前SC",
    "operation_time": "ゲームコーナー9:00～26:00 / メダルコーナー9:00～24:00",
    "holiday": "無し",
    "latitude": "43.12045749",
    "longitude": "141.2452406",
    "tel": "080-7127-7065",
    "address": "札幌市手稲区前田1条11-3F",
    "access": "西友手稲店3F",
    "games": [
      "麻雀格闘倶楽部(ﾆｭｰｷｬﾋﾞﾈｯﾄ機能搭載ﾓﾃﾞﾙ)"
    ]
  },
  {
    "name": "キャッツアイ宮の沢店",
    "operation_time": "10:00～24:00",
    "holiday": "無し",
    "latitude": "43.09655936",
    "longitude": "141.2574555",
    "tel": "011-688-8682",
    "address": "札幌市手稲区西宮の沢5条2-11-15",
    "access": "札樽自動車道札幌西ICから車で3分",
    "games": [
      "麻雀格闘倶楽部(ﾆｭｰｷｬﾋﾞﾈｯﾄ機能搭載ﾓﾃﾞﾙ)"
    ]
  },
  {
    "name": "ソユーゲームフィールド発寒店",
    "operation_time": "9:00～22:00",
    "holiday": "",
    "latitude": "43.09520428",
    "longitude": "141.2779132",
    "tel": "011-668-6050",
    "address": "札幌市西区発寒8条12-1-1イオンモール札幌発寒3F",
    "access": "イオン札幌発寒ショッピングセンター内3F",
    "games": [
      "麻雀格闘倶楽部(ﾆｭｰｷｬﾋﾞﾈｯﾄ機能搭載ﾓﾃﾞﾙ)"
    ]
  },
  {
    "name": "キャッツアイ新川店",
    "operation_time": "10:00～24:00",
    "holiday": "無し",
    "latitude": "43.10077961",
    "longitude": "141.3102954",
    "tel": "011-766-2828",
    "address": "札幌市北区新川2条7-1-7",
    "access": "札樽自動車道新川IC前",
    "games": [
      "麻雀格闘倶楽部(ﾆｭｰｷｬﾋﾞﾈｯﾄ機能搭載ﾓﾃﾞﾙ)"
    ]
  },
  {
    "name": "キャッツアイ篠路店",
    "operation_time": "10:00～24:00",
    "holiday": "無し",
    "latitude": "43.14070168",
    "longitude": "141.3571701",
    "tel": "011-776-1500",
    "address": "札幌市北区篠路1条4-6-30",
    "access": "JR篠路駅下車徒歩20分",
    "games": [
      "麻雀格闘倶楽部(ﾆｭｰｷｬﾋﾞﾈｯﾄ機能搭載ﾓﾃﾞﾙ)"
    ]
  },
  {
    "name": "namco豊岡店",
    "operation_time": "",
    "holiday": "",
    "latitude": "35.554983",
    "longitude": "134.811837",
    "tel": "0796-24-2908",
    "address": "豊岡市中陰町字大工617-3F",
    "access": "",
    "games": [
      "麻雀格闘倶楽部(ﾆｭｰｷｬﾋﾞﾈｯﾄ機能搭載ﾓﾃﾞﾙ)"
    ]
  },
  {
    "name": "ジョイプラザ豊岡店",
    "operation_time": "10:00～22:00 金・土・祝前日10:00～24:00",
    "holiday": "年2回休日有り",
    "latitude": "35.5508426",
    "longitude": "134.8163813",
    "tel": "0796-29-0102",
    "address": "豊岡市加広町7-32コープデイズ豊岡内",
    "access": "",
    "games": [
      "麻雀格闘倶楽部(ﾆｭｰｷｬﾋﾞﾈｯﾄ機能搭載ﾓﾃﾞﾙ)"
    ]
  },
  {
    "name": "アドアーズ札幌北42条店",
    "operation_time": "10:00～23:00",
    "holiday": "無し",
    "latitude": "43.11197882",
    "longitude": "141.3551118",
    "tel": "011-748-7530",
    "address": "札幌市東区北42条東7-1-1嶋ビル2F",
    "access": "丘珠空港通 ドン・キホーテ2F",
    "games": [
      "麻雀格闘倶楽部(ﾆｭｰｷｬﾋﾞﾈｯﾄ機能搭載ﾓﾃﾞﾙ)"
    ]
  },
  {
    "name": "ラウンドワン札幌北21条店",
    "operation_time": "",
    "holiday": "",
    "latitude": "43.08681907",
    "longitude": "141.3495671",
    "tel": "011-733-8801",
    "address": "札幌市東区北21条東1-1-21",
    "access": "",
    "games": [
      "麻雀格闘倶楽部(ﾆｭｰｷｬﾋﾞﾈｯﾄ機能搭載ﾓﾃﾞﾙ)"
    ]
  },
  {
    "name": "ゲームえの木",
    "operation_time": "10:00～24:00",
    "holiday": "無し",
    "latitude": "33.55611724",
    "longitude": "133.5064153",
    "tel": "088-825-3293",
    "address": "高知市旭町3-104",
    "access": "土佐電旭日町3丁目電停徒歩1分",
    "games": [
      "麻雀格闘倶楽部(ﾆｭｰｷｬﾋﾞﾈｯﾄ機能搭載ﾓﾃﾞﾙ)"
    ]
  },
  {
    "name": "タイトーステーション札幌狸小路2丁目店",
    "operation_time": "",
    "holiday": "",
    "latitude": "43.05729",
    "longitude": "141.355525",
    "tel": "011-213-1115",
    "address": "札幌市中央区南三条西2-14ニコービル",
    "access": "",
    "games": [
      "麻雀格闘倶楽部(ﾆｭｰｷｬﾋﾞﾈｯﾄ機能搭載ﾓﾃﾞﾙ)"
    ]
  },
  {
    "name": "ラウンドワン札幌すすきの店",
    "operation_time": "",
    "holiday": "",
    "latitude": "43.05431311",
    "longitude": "141.3540587",
    "tel": "011-520-1022",
    "address": "札幌市中央区南五条西3-6-1札幌東宝公楽ビル",
    "access": "",
    "games": [
      "麻雀格闘倶楽部(ﾆｭｰｷｬﾋﾞﾈｯﾄ機能搭載ﾓﾃﾞﾙ)"
    ]
  },
  {
    "name": "キャッツアイ東苗穂店",
    "operation_time": "10:00～24:00",
    "holiday": "無し",
    "latitude": "43.09235265",
    "longitude": "141.4070002",
    "tel": "011-789-1500",
    "address": "札幌市東区東苗穂6条2-1-25",
    "access": "札樽自動車道雁来ICから車3分",
    "games": [
      "麻雀格闘倶楽部(ﾆｭｰｷｬﾋﾞﾈｯﾄ機能搭載ﾓﾃﾞﾙ)"
    ]
  },
  {
    "name": "まるゲ",
    "operation_time": "10:00～24:00",
    "holiday": "無し",
    "latitude": "34.33915283",
    "longitude": "134.0491868",
    "tel": "087-861-7008",
    "address": "高松市南新町8-12",
    "access": "",
    "games": [
      "麻雀格闘倶楽部(ﾆｭｰｷｬﾋﾞﾈｯﾄ機能搭載ﾓﾃﾞﾙ)"
    ]
  },
  {
    "name": "プレイプラン",
    "operation_time": "10:00～24:00",
    "holiday": "無し",
    "latitude": "33.57220702",
    "longitude": "133.5496642",
    "tel": "088-823-0909",
    "address": "高知市比島町3-16-17",
    "access": "高知駅(県交通)より中比島バス停徒歩2分",
    "games": [
      "麻雀格闘倶楽部(ﾆｭｰｷｬﾋﾞﾈｯﾄ機能搭載ﾓﾃﾞﾙ)"
    ]
  },
  {
    "name": "ラウンドワン高松店",
    "operation_time": "",
    "holiday": "",
    "latitude": "34.33898638",
    "longitude": "134.0669994",
    "tel": "087-812-6115",
    "address": "高松市松島町2-7-43",
    "access": "",
    "games": [
      "麻雀格闘倶楽部(ﾆｭｰｷｬﾋﾞﾈｯﾄ機能搭載ﾓﾃﾞﾙ)"
    ]
  },
  {
    "name": "ラウンドワン高知店",
    "operation_time": "",
    "holiday": "",
    "latitude": "33.55793713",
    "longitude": "133.554676",
    "tel": "088-804-3070",
    "address": "高知市南宝永町4-12",
    "access": "",
    "games": [
      "麻雀格闘倶楽部(ﾆｭｰｷｬﾋﾞﾈｯﾄ機能搭載ﾓﾃﾞﾙ)"
    ]
  },
  {
    "name": "ファンキータイムレインボー店",
    "operation_time": "一部24時間営業",
    "holiday": "",
    "latitude": "34.307019",
    "longitude": "134.058895",
    "tel": "087-868-0717",
    "address": "高松市伏石町2168-2",
    "access": "",
    "games": [
      "麻雀格闘倶楽部(ﾆｭｰｷｬﾋﾞﾈｯﾄ機能搭載ﾓﾃﾞﾙ)"
    ]
  },
  {
    "name": "アミパラ高松店",
    "operation_time": "",
    "holiday": "",
    "latitude": "34.30701859",
    "longitude": "134.0591822",
    "tel": "087-899-8868",
    "address": "高松市伏石町2168-2",
    "access": "",
    "games": [
      "麻雀格闘倶楽部(ﾆｭｰｷｬﾋﾞﾈｯﾄ機能搭載ﾓﾃﾞﾙ)"
    ]
  },
  {
    "name": "アミュージアム高松店",
    "operation_time": "10:00～24:00",
    "holiday": "無し",
    "latitude": "34.30772106",
    "longitude": "134.0602944",
    "tel": "087-869-2128",
    "address": "高松市伏石町2144-9",
    "access": "JR高松駅から車で20分。高松中央ICから車で5分。レインボーロードとバイパスの交差点",
    "games": [
      "麻雀格闘倶楽部(ﾆｭｰｷｬﾋﾞﾈｯﾄ機能搭載ﾓﾃﾞﾙ)"
    ]
  },
  {
    "name": "MG-BOWL屋島店",
    "operation_time": "",
    "holiday": "無し",
    "latitude": "34.33873294",
    "longitude": "134.1017017",
    "tel": "0878-43-4203",
    "address": "高松市屋島西町百石1912-1パワーシティ屋島3F",
    "access": "",
    "games": [
      "麻雀格闘倶楽部(ﾆｭｰｷｬﾋﾞﾈｯﾄ機能搭載ﾓﾃﾞﾙ)"
    ]
  },
  {
    "name": "ラウンドワン札幌白石本通店",
    "operation_time": "",
    "holiday": "",
    "latitude": "43.03673108",
    "longitude": "141.4328227",
    "tel": "011-865-8051",
    "address": "札幌市白石区本通-16-北1-50",
    "access": "",
    "games": [
      "麻雀格闘倶楽部(ﾆｭｰｷｬﾋﾞﾈｯﾄ機能搭載ﾓﾃﾞﾙ)"
    ]
  },
  {
    "name": "キャッツアイ栄通店",
    "operation_time": "10:00～24:00",
    "holiday": "無し",
    "latitude": "43.02523848",
    "longitude": "141.4364941",
    "tel": "011-855-4412",
    "address": "札幌市白石区栄通19-11-43",
    "access": "札幌市営地下鉄南郷18丁目駅下車徒歩15分",
    "games": [
      "麻雀格闘倶楽部(ﾆｭｰｷｬﾋﾞﾈｯﾄ機能搭載ﾓﾃﾞﾙ)"
    ]
  },
  {
    "name": "アミュージアム高知店",
    "operation_time": "10:00～24:00",
    "holiday": "無し",
    "latitude": "33.56515533",
    "longitude": "133.6096787",
    "tel": "088-860-7778",
    "address": "高知市介良字長丁乙317-1",
    "access": "高知道南国インター降りて車で10分。南国バイパス沿い、高知パワーセンター内",
    "games": [
      "麻雀格闘倶楽部(ﾆｭｰｷｬﾋﾞﾈｯﾄ機能搭載ﾓﾃﾞﾙ)"
    ]
  },
  {
    "name": "キャッツアイ新札幌店",
    "operation_time": "10:00～24:00",
    "holiday": "無し",
    "latitude": "43.04493545",
    "longitude": "141.4754191",
    "tel": "011-899-1500",
    "address": "札幌市厚別区厚別東5条1-2-10",
    "access": "JR、札幌市営地下鉄新札幌駅下車徒歩20分",
    "games": [
      "麻雀格闘倶楽部(ﾆｭｰｷｬﾋﾞﾈｯﾄ機能搭載ﾓﾃﾞﾙ)"
    ]
  },
  {
    "name": "キャッツアイ清田店",
    "operation_time": "10:00～24:00",
    "holiday": "無し",
    "latitude": "43.00286736",
    "longitude": "141.4364379",
    "tel": "011-884-2828",
    "address": "札幌市清田区清田1条1-20-1",
    "access": "国道36号線、札幌ドームより車5分",
    "games": [
      "麻雀格闘倶楽部(ﾆｭｰｷｬﾋﾞﾈｯﾄ機能搭載ﾓﾃﾞﾙ)"
    ]
  },
  {
    "name": "アミパラ高知店",
    "operation_time": "10:00～24:00",
    "holiday": "無し",
    "latitude": "33.56792315",
    "longitude": "133.6344447",
    "tel": "088-863-4343",
    "address": "南国市篠原194-1",
    "access": "南国ICを降りて南に突き当たり、東へ1km",
    "games": [
      "麻雀格闘倶楽部(ﾆｭｰｷｬﾋﾞﾈｯﾄ機能搭載ﾓﾃﾞﾙ)"
    ]
  },
  {
    "name": "プラザアピア峰山",
    "operation_time": "10:00～24:00",
    "holiday": "無し",
    "latitude": "35.61170845",
    "longitude": "135.0636228",
    "tel": "0772-62-1033",
    "address": "京丹後市峰山町菅376",
    "access": "国道482号線沿い 京都北都信金そば",
    "games": [
      "麻雀格闘倶楽部(ﾆｭｰｷｬﾋﾞﾈｯﾄ機能搭載ﾓﾃﾞﾙ)"
    ]
  },
  {
    "name": "遊ランド春光店",
    "operation_time": "11:00～翌4:00",
    "holiday": "無し",
    "latitude": "43.798192",
    "longitude": "142.373983",
    "tel": "0166-55-3355",
    "address": "旭川市春光1条7-2-25",
    "access": "JR旭川駅車20分",
    "games": [
      "麻雀格闘倶楽部(ﾆｭｰｷｬﾋﾞﾈｯﾄ機能搭載ﾓﾃﾞﾙ)"
    ]
  },
  {
    "name": "ラウンドワン旭川店",
    "operation_time": "",
    "holiday": "",
    "latitude": "43.78651521",
    "longitude": "142.397308",
    "tel": "0166-49-5071",
    "address": "旭川市永山3条1-4-7",
    "access": "",
    "games": [
      "麻雀格闘倶楽部(ﾆｭｰｷｬﾋﾞﾈｯﾄ機能搭載ﾓﾃﾞﾙ)"
    ]
  },
  {
    "name": "ゲームアイビス太子店",
    "operation_time": "10:00～24:00",
    "holiday": "無し",
    "latitude": "34.83203126",
    "longitude": "134.6001053",
    "tel": "0792-77-2320",
    "address": "揖保郡太子町太田2148-1",
    "access": "姫路バイパス太子ランプより相生方面へ車で5分",
    "games": [
      "麻雀格闘倶楽部(ﾆｭｰｷｬﾋﾞﾈｯﾄ機能搭載ﾓﾃﾞﾙ)"
    ]
  },
  {
    "name": "遊ランド西御料店",
    "operation_time": "平日12:00～翌3:00 金・土・祝前日11:00～翌5:00",
    "holiday": "無し",
    "latitude": "43.723884",
    "longitude": "142.368924",
    "tel": "0166-60-5050",
    "address": "旭川市西御料5条2-64-19",
    "access": "旭川環状線1号から美瑛・富良野方面へお進み下さいませ",
    "games": [
      "麻雀格闘倶楽部(ﾆｭｰｷｬﾋﾞﾈｯﾄ機能搭載ﾓﾃﾞﾙ)"
    ]
  },
  {
    "name": "G-pala花北店",
    "operation_time": "10:00-24:00",
    "holiday": "無し",
    "latitude": "34.85601067",
    "longitude": "134.7093408",
    "tel": "079-280-4844",
    "address": "姫路市増位新町1-6ヴィーナスタウン花北2F",
    "access": "ビーナスギャラリー花北内",
    "games": [
      "麻雀格闘倶楽部(ﾆｭｰｷｬﾋﾞﾈｯﾄ機能搭載ﾓﾃﾞﾙ)"
    ]
  },
  {
    "name": "キャッツアイ恵庭店",
    "operation_time": "10:00～24:00",
    "holiday": "無し",
    "latitude": "42.87586684",
    "longitude": "141.5834741",
    "tel": "0123-32-1500",
    "address": "恵庭市住吉町2-9-1",
    "access": "JR恵庭駅下車徒歩20分",
    "games": [
      "麻雀格闘倶楽部(ﾆｭｰｷｬﾋﾞﾈｯﾄ機能搭載ﾓﾃﾞﾙ)"
    ]
  },
  {
    "name": "ラウンドワン姫路飾磨店",
    "operation_time": "",
    "holiday": "",
    "latitude": "34.79228629",
    "longitude": "134.6871127",
    "tel": "079-243-1830",
    "address": "姫路市飾磨区中島1-254",
    "access": "",
    "games": [
      "麻雀格闘倶楽部(ﾆｭｰｷｬﾋﾞﾈｯﾄ機能搭載ﾓﾃﾞﾙ)"
    ]
  },
  {
    "name": "アピナ姫路店",
    "operation_time": "",
    "holiday": "",
    "latitude": "34.82687",
    "longitude": "134.7151",
    "tel": "079-222-8811",
    "address": "姫路市東郷町1454-3姫路リオス2F",
    "access": "",
    "games": [
      "麻雀格闘倶楽部(ﾆｭｰｷｬﾋﾞﾈｯﾄ機能搭載ﾓﾃﾞﾙ)"
    ]
  },
  {
    "name": "タイトーステーション千歳店",
    "operation_time": "10:00-24:00",
    "holiday": "無し",
    "latitude": "42.833396",
    "longitude": "141.6439587",
    "tel": "0123-42-4195",
    "address": "千歳市北栄2-12-5",
    "access": "千歳駅から札幌方面に徒歩10分",
    "games": [
      "麻雀格闘倶楽部(ﾆｭｰｷｬﾋﾞﾈｯﾄ機能搭載ﾓﾃﾞﾙ)"
    ]
  },
  {
    "name": "あそVIVA本店",
    "operation_time": "9:00～24:00",
    "holiday": "無し",
    "latitude": "35.28971907",
    "longitude": "135.1348229",
    "tel": "0773-25-5055",
    "address": "福知山市字堀小字上高田2146-1あそVIVA1F",
    "access": "",
    "games": [
      "麻雀格闘倶楽部(ﾆｭｰｷｬﾋﾞﾈｯﾄ機能搭載ﾓﾃﾞﾙ)"
    ]
  },
  {
    "name": "GiGOスーパーセンタートライアル上磯",
    "operation_time": "月曜～木曜10:00～20:00 / 金曜10:00～22:00 / 土日祝9:00～22:00",
    "holiday": "無し",
    "latitude": "41.820743",
    "longitude": "140.696058",
    "tel": "080-7442-0075",
    "address": "北斗市七重浜7-14-1スーパーセンタートライアル上磯1F",
    "access": "",
    "games": [
      "麻雀格闘倶楽部(ﾆｭｰｷｬﾋﾞﾈｯﾄ機能搭載ﾓﾃﾞﾙ)"
    ]
  },
  {
    "name": "ラウンドワン函館店",
    "operation_time": "",
    "holiday": "",
    "latitude": "41.82459206",
    "longitude": "140.7173548",
    "tel": "0138-49-8401",
    "address": "函館市西桔梗町848-11",
    "access": "",
    "games": [
      "麻雀格闘倶楽部(ﾆｭｰｷｬﾋﾞﾈｯﾄ機能搭載ﾓﾃﾞﾙ)"
    ]
  },
  {
    "name": "ホムスタ加古川店",
    "operation_time": "10:00～24:00",
    "holiday": "無し",
    "latitude": "34.74552902",
    "longitude": "134.8355115",
    "tel": "0794-56-2121",
    "address": "加古川市尾上町安田351-1メガコート",
    "access": "",
    "games": [
      "麻雀格闘倶楽部(ﾆｭｰｷｬﾋﾞﾈｯﾄ機能搭載ﾓﾃﾞﾙ)"
    ]
  },
  {
    "name": "ラウンドワン加古川店",
    "operation_time": "",
    "holiday": "",
    "latitude": "34.74708002",
    "longitude": "134.836935",
    "tel": "0794-29-2513",
    "address": "加古川市尾上町安田字小河原325番6号",
    "access": "",
    "games": [
      "麻雀格闘倶楽部(ﾆｭｰｷｬﾋﾞﾈｯﾄ機能搭載ﾓﾃﾞﾙ)"
    ]
  },
  {
    "name": "社スポーツレーン",
    "operation_time": "店舗にてご確認ください",
    "holiday": "店舗にてご確認ください",
    "latitude": "34.916112",
    "longitude": "134.961435",
    "tel": "0795-42-4545",
    "address": "加東市社町1189-1",
    "access": "",
    "games": [
      "麻雀格闘倶楽部(ﾆｭｰｷｬﾋﾞﾈｯﾄ機能搭載ﾓﾃﾞﾙ)"
    ]
  },
  {
    "name": "キャッツアイ苫小牧駅前店",
    "operation_time": "",
    "holiday": "",
    "latitude": "42.64136742",
    "longitude": "141.5979673",
    "tel": "0144-82-8538",
    "address": "苫小牧市木場町1-3",
    "access": "",
    "games": [
      "麻雀格闘倶楽部(ﾆｭｰｷｬﾋﾞﾈｯﾄ機能搭載ﾓﾃﾞﾙ)"
    ]
  },
  {
    "name": "BIG BANG函館",
    "operation_time": "10:00～24:00",
    "holiday": "",
    "latitude": "41.78900071",
    "longitude": "140.7444508",
    "tel": "0138-54-7100",
    "address": "函館市梁川町9-3",
    "access": "五稜郭公園前駅から徒歩5分",
    "games": [
      "麻雀格闘倶楽部(ﾆｭｰｷｬﾋﾞﾈｯﾄ機能搭載ﾓﾃﾞﾙ)"
    ]
  },
  {
    "name": "遊ランド富良野店",
    "operation_time": "13:00～翌1:00",
    "holiday": "無し",
    "latitude": "43.34423305",
    "longitude": "142.3786409",
    "tel": "0167-39-0123",
    "address": "富良野市弥生町5-50",
    "access": "富良野駅徒歩10分",
    "games": [
      "麻雀格闘倶楽部(ﾆｭｰｷｬﾋﾞﾈｯﾄ機能搭載ﾓﾃﾞﾙ)"
    ]
  },
  {
    "name": "GiGO明石",
    "operation_time": "10:00～24:00",
    "holiday": "",
    "latitude": "34.72071543",
    "longitude": "134.8974952",
    "tel": "078-941-7676",
    "address": "明石市魚住町清水2464-1ドライブインながさわ内",
    "access": "JR山陽本線 土山駅 より徒歩10分",
    "games": [
      "麻雀格闘倶楽部(ﾆｭｰｷｬﾋﾞﾈｯﾄ機能搭載ﾓﾃﾞﾙ)"
    ]
  },
  {
    "name": "トップラン",
    "operation_time": "10:00～24:00",
    "holiday": "無し",
    "latitude": "34.717655",
    "longitude": "134.928895",
    "tel": "078-969-2700",
    "address": "神戸市西区岩岡町古郷1474-1",
    "access": "第二神明道路大久保ICから車で5分",
    "games": [
      "麻雀格闘倶楽部(ﾆｭｰｷｬﾋﾞﾈｯﾄ機能搭載ﾓﾃﾞﾙ)"
    ]
  },
  {
    "name": "アミューズメントパフェ パレパレ",
    "operation_time": "10:00～24:00",
    "holiday": "無し",
    "latitude": "34.08586633",
    "longitude": "134.5426759",
    "tel": "088-677-8991",
    "address": "徳島市南田宮2-2-46",
    "access": "国道11号線から田宮街道を西に車で5分",
    "games": [
      "麻雀格闘倶楽部(ﾆｭｰｷｬﾋﾞﾈｯﾄ機能搭載ﾓﾃﾞﾙ)"
    ]
  },
  {
    "name": "ホムスタ玉津店",
    "operation_time": "10:00～24:00",
    "holiday": "無し",
    "latitude": "34.67922481",
    "longitude": "134.9831791",
    "tel": "078-920-3337",
    "address": "神戸市西区丸塚2-9-18メガパレス2F",
    "access": "第二神名玉津IC下車車5分",
    "games": [
      "麻雀格闘倶楽部(ﾆｭｰｷｬﾋﾞﾈｯﾄ機能搭載ﾓﾃﾞﾙ)"
    ]
  },
  {
    "name": "ラウンドワン徳島･万代店",
    "operation_time": "",
    "holiday": "",
    "latitude": "34.064828",
    "longitude": "134.564699",
    "tel": "088-612-0025",
    "address": "徳島市万代町4-19-1",
    "access": "",
    "games": [
      "麻雀格闘倶楽部(ﾆｭｰｷｬﾋﾞﾈｯﾄ機能搭載ﾓﾃﾞﾙ)"
    ]
  },
  {
    "name": "アポロゲームセンター沖洲店",
    "operation_time": "10:00～24:00",
    "holiday": "無し",
    "latitude": "34.06713618",
    "longitude": "134.5828321",
    "tel": "088-664-0311",
    "address": "徳島市南沖洲1-93",
    "access": "徳島駅より東へ車で約15分",
    "games": [
      "麻雀格闘倶楽部(ﾆｭｰｷｬﾋﾞﾈｯﾄ機能搭載ﾓﾃﾞﾙ)"
    ]
  },
  {
    "name": "PALO小松島",
    "operation_time": "",
    "holiday": "",
    "latitude": "34.00568188",
    "longitude": "134.5726547",
    "tel": "070-3100-5034",
    "address": "小松島市小松島町字領田20小松島ショッピングプラザルピア1F",
    "access": "",
    "games": [
      "麻雀格闘倶楽部(ﾆｭｰｷｬﾋﾞﾈｯﾄ機能搭載ﾓﾃﾞﾙ)"
    ]
  },
  {
    "name": "アミパラ垂水店",
    "operation_time": "10:00～24:00",
    "holiday": "無し",
    "latitude": "34.66458",
    "longitude": "135.066782",
    "tel": "078-707-9111",
    "address": "神戸市垂水区名谷町字室山1400-18",
    "access": "",
    "games": [
      "麻雀格闘倶楽部(ﾆｭｰｷｬﾋﾞﾈｯﾄ機能搭載ﾓﾃﾞﾙ)"
    ]
  },
  {
    "name": "アミューズメント ミール",
    "operation_time": "10:00～24:00",
    "holiday": "無し",
    "latitude": "34.88047252",
    "longitude": "135.2295927",
    "tel": "0795-64-5678",
    "address": "三田市対中町5-21",
    "access": "神戸電鉄三田本町駅下車国道176号線側へ徒歩5分。車の場合はガリバー三田店より176号を三田方面へ、ブックプラザ三田店の向かい。",
    "games": [
      "麻雀格闘倶楽部(ﾆｭｰｷｬﾋﾞﾈｯﾄ機能搭載ﾓﾃﾞﾙ)"
    ]
  },
  {
    "name": "アルゴ",
    "operation_time": "11:15～23:30",
    "holiday": "無し",
    "latitude": "34.69392181",
    "longitude": "135.1914556",
    "tel": "078-334-3031",
    "address": "神戸市中央区下山手通1-1-8",
    "access": "JR三ノ宮駅下車徒歩5分生田神社前",
    "games": [
      "麻雀格闘倶楽部(ﾆｭｰｷｬﾋﾞﾈｯﾄ機能搭載ﾓﾃﾞﾙ)"
    ]
  },
  {
    "name": "遊･スペース マジカル",
    "operation_time": "9:00～24:00",
    "holiday": "無し",
    "latitude": "34.69551577",
    "longitude": "135.1950261",
    "tel": "078-414-8844",
    "address": "神戸市中央区琴ノ緒町5-2-3協律三宮センタービル3F",
    "access": "JR三ノ宮駅下車徒歩5分",
    "games": [
      "麻雀格闘倶楽部(ﾆｭｰｷｬﾋﾞﾈｯﾄ機能搭載ﾓﾃﾞﾙ)"
    ]
  },
  {
    "name": "ミリオンゲーム",
    "operation_time": "9:00～23:00",
    "holiday": "無し",
    "latitude": "34.69266668",
    "longitude": "135.1938288",
    "tel": "078-321-1262",
    "address": "神戸市中央区三宮町1-7-16",
    "access": "JR三ノ宮駅下車徒歩5分",
    "games": [
      "麻雀格闘倶楽部(ﾆｭｰｷｬﾋﾞﾈｯﾄ機能搭載ﾓﾃﾞﾙ)"
    ]
  },
  {
    "name": "ラウンドワン三宮駅前店",
    "operation_time": "",
    "holiday": "",
    "latitude": "34.69403073",
    "longitude": "135.1973402",
    "tel": "078-252-7200",
    "address": "神戸市中央区小野柄通り6-1-17",
    "access": "",
    "games": [
      "麻雀格闘倶楽部(ﾆｭｰｷｬﾋﾞﾈｯﾄ機能搭載ﾓﾃﾞﾙ)"
    ]
  },
  {
    "name": "アプレシオ小松店",
    "operation_time": "一部24時間",
    "holiday": "無し",
    "latitude": "36.409381",
    "longitude": "136.463907",
    "tel": "0761-21-2123",
    "address": "小松市上小松町乙134-1",
    "access": "",
    "games": [
      "麻雀格闘倶楽部(ﾆｭｰｷｬﾋﾞﾈｯﾄ機能搭載ﾓﾃﾞﾙ)"
    ]
  },
  {
    "name": "アプレシオやしろ店",
    "operation_time": "一部24時間",
    "holiday": "無し",
    "latitude": "36.041613",
    "longitude": "136.187376",
    "tel": "0776-33-3386",
    "address": "福井市渕3-512",
    "access": "",
    "games": [
      "麻雀格闘倶楽部(ﾆｭｰｷｬﾋﾞﾈｯﾄ機能搭載ﾓﾃﾞﾙ)"
    ]
  },
  {
    "name": "金沢メトロポリス",
    "operation_time": "",
    "holiday": "",
    "latitude": "36.6011252",
    "longitude": "136.6140038",
    "tel": "076-266-5780",
    "address": "金沢市無量寺4-121-1金沢コロナワールド",
    "access": "",
    "games": [
      "麻雀格闘倶楽部(ﾆｭｰｷｬﾋﾞﾈｯﾄ機能搭載ﾓﾃﾞﾙ)"
    ]
  },
  {
    "name": "タイトーFステーションHAT神戸店",
    "operation_time": "10:00～21:30",
    "holiday": "無し",
    "latitude": "34.69960026",
    "longitude": "135.2142557",
    "tel": "078-251-3277",
    "address": "神戸市中央区脇浜海岸通2-2-2ブルメールHAT神戸2F",
    "access": "阪神春日野道駅下車徒歩10分",
    "games": [
      "麻雀格闘倶楽部(ﾆｭｰｷｬﾋﾞﾈｯﾄ機能搭載ﾓﾃﾞﾙ)"
    ]
  },
  {
    "name": "アプレシオイオンかほく店",
    "operation_time": "一部24時間",
    "holiday": "無し",
    "latitude": "36.71131",
    "longitude": "136.703254",
    "tel": "076-283-6175",
    "address": "かほく市宇ノ気ロ10",
    "access": "",
    "games": [
      "麻雀格闘倶楽部(ﾆｭｰｷｬﾋﾞﾈｯﾄ機能搭載ﾓﾃﾞﾙ)"
    ]
  },
  {
    "name": "バイパスレジャーランド加賀店",
    "operation_time": "一部24時間営業",
    "holiday": "無し",
    "latitude": "36.32515503",
    "longitude": "136.4113746",
    "tel": "0761-74-8007",
    "address": "加賀市箱宮町ヲ1-1",
    "access": "国道8号線加賀産業道路終点近く",
    "games": [
      "麻雀格闘倶楽部(ﾆｭｰｷｬﾋﾞﾈｯﾄ機能搭載ﾓﾃﾞﾙ)"
    ]
  },
  {
    "name": "バイパスレジャーランド藤江新館",
    "operation_time": "",
    "holiday": "",
    "latitude": "36.58375651",
    "longitude": "136.6206642",
    "tel": "076-268-7518",
    "address": "金沢市藤江南2-105",
    "access": "",
    "games": [
      "麻雀格闘倶楽部(ﾆｭｰｷｬﾋﾞﾈｯﾄ機能搭載ﾓﾃﾞﾙ)"
    ]
  },
  {
    "name": "バイパスレジャーランド藤江本館",
    "operation_time": "一部24時間営業",
    "holiday": "無し",
    "latitude": "36.58397239",
    "longitude": "136.621523",
    "tel": "076-268-3798",
    "address": "金沢市藤江南2-41",
    "access": "国道8号線沿い藤江交差点近く",
    "games": [
      "麻雀格闘倶楽部(ﾆｭｰｷｬﾋﾞﾈｯﾄ機能搭載ﾓﾃﾞﾙ)"
    ]
  },
  {
    "name": "フクイレジャーランドワイプラザ店",
    "operation_time": "一部24時間営業",
    "holiday": "無し",
    "latitude": "36.08750805",
    "longitude": "136.2494211",
    "tel": "0776-57-0433",
    "address": "福井市新保北1-303ヤスサキワイプラザB棟2F",
    "access": "国道8号線沿い福井市内新保交差点近くワイプラザ内",
    "games": [
      "麻雀格闘倶楽部(ﾆｭｰｷｬﾋﾞﾈｯﾄ機能搭載ﾓﾃﾞﾙ)"
    ]
  },
  {
    "name": "アプレシオ金沢駅西店",
    "operation_time": "一部24時間",
    "holiday": "無し",
    "latitude": "36.59289401",
    "longitude": "136.6355365",
    "tel": "076-232-8970",
    "address": "金沢市駅西新町3-14-21",
    "access": "国道8号線小松方面沿い西念交差点手前",
    "games": [
      "麻雀格闘倶楽部(ﾆｭｰｷｬﾋﾞﾈｯﾄ機能搭載ﾓﾃﾞﾙ)"
    ]
  },
  {
    "name": "バイパスレジャーランド御経塚店",
    "operation_time": "",
    "holiday": "",
    "latitude": "36.5479306",
    "longitude": "136.6012358",
    "tel": "076-214-6615",
    "address": "野々市市御経塚4-46",
    "access": "",
    "games": [
      "麻雀格闘倶楽部(ﾆｭｰｷｬﾋﾞﾈｯﾄ機能搭載ﾓﾃﾞﾙ)"
    ]
  },
  {
    "name": "アプレシオ米松店",
    "operation_time": "一部24時間",
    "holiday": "無し",
    "latitude": "36.07263602",
    "longitude": "136.2430342",
    "tel": "0776-52-2112",
    "address": "福井市長本町610",
    "access": "国道8号線沿い丸山交差点角",
    "games": [
      "麻雀格闘倶楽部(ﾆｭｰｷｬﾋﾞﾈｯﾄ機能搭載ﾓﾃﾞﾙ)"
    ]
  },
  {
    "name": "アプレシオ松任店",
    "operation_time": "店舗にお問い合わせください",
    "holiday": "無し",
    "latitude": "36.52728929",
    "longitude": "136.5895817",
    "tel": "076-274-5557",
    "address": "白山市田中町284-1",
    "access": "",
    "games": [
      "麻雀格闘倶楽部(ﾆｭｰｷｬﾋﾞﾈｯﾄ機能搭載ﾓﾃﾞﾙ)"
    ]
  },
  {
    "name": "福井レジャーランド板垣店",
    "operation_time": "",
    "holiday": "",
    "latitude": "36.042283",
    "longitude": "136.233748",
    "tel": "0776-33-5510",
    "address": "福井市下馬3-112",
    "access": "",
    "games": [
      "麻雀格闘倶楽部(ﾆｭｰｷｬﾋﾞﾈｯﾄ機能搭載ﾓﾃﾞﾙ)"
    ]
  },
  {
    "name": "JOYJOY福井下馬店",
    "operation_time": "",
    "holiday": "",
    "latitude": "36.04296856",
    "longitude": "136.2345599",
    "tel": "0776-32-7899",
    "address": "福井市下馬2-203",
    "access": "",
    "games": [
      "麻雀格闘倶楽部(ﾆｭｰｷｬﾋﾞﾈｯﾄ機能搭載ﾓﾃﾞﾙ)"
    ]
  },
  {
    "name": "アピナ野々市バッティングセンター",
    "operation_time": "10:00～24:00",
    "holiday": "無し",
    "latitude": "36.5367673",
    "longitude": "136.6111101",
    "tel": "076-248-8889",
    "address": "野々市市若松町5-5",
    "access": "ホームセンターヤマギシ近く",
    "games": [
      "麻雀格闘倶楽部(ﾆｭｰｷｬﾋﾞﾈｯﾄ機能搭載ﾓﾃﾞﾙ)"
    ]
  },
  {
    "name": "アルプラザボウル鯖江",
    "operation_time": "10:00～24:00",
    "holiday": "無し",
    "latitude": "35.968299",
    "longitude": "136.188691",
    "tel": "0778-54-0089",
    "address": "鯖江市下河端町16-6-1",
    "access": "",
    "games": [
      "麻雀格闘倶楽部(ﾆｭｰｷｬﾋﾞﾈｯﾄ機能搭載ﾓﾃﾞﾙ)"
    ]
  },
  {
    "name": "リオ西山",
    "operation_time": "13:00～24:00",
    "holiday": "無し",
    "latitude": "35.944112",
    "longitude": "136.171294",
    "tel": "0778-62-2480",
    "address": "鯖江市鳥井町5-1-2",
    "access": "西鯖江駅 徒歩16分",
    "games": [
      "麻雀格闘倶楽部(ﾆｭｰｷｬﾋﾞﾈｯﾄ機能搭載ﾓﾃﾞﾙ)"
    ]
  },
  {
    "name": "タイトーFステーション鯖江店",
    "operation_time": "",
    "holiday": "",
    "latitude": "35.96799",
    "longitude": "136.18919",
    "tel": "077-851-8850",
    "address": "鯖江市下河端町16字下町16-1アルプラザ鯖江店",
    "access": "",
    "games": [
      "麻雀格闘倶楽部(ﾆｭｰｷｬﾋﾞﾈｯﾄ機能搭載ﾓﾃﾞﾙ)"
    ]
  },
  {
    "name": "ラウンドワン金沢店",
    "operation_time": "",
    "holiday": "",
    "latitude": "36.54211559",
    "longitude": "136.626054",
    "tel": "076-245-1850",
    "address": "金沢市横川6-120-1",
    "access": "",
    "games": [
      "麻雀格闘倶楽部(ﾆｭｰｷｬﾋﾞﾈｯﾄ機能搭載ﾓﾃﾞﾙ)"
    ]
  },
  {
    "name": "キッズサーカスシピィ店",
    "operation_time": "",
    "holiday": "",
    "latitude": "35.90367935",
    "longitude": "136.1521765",
    "tel": "0778-42-6880",
    "address": "越前市新町7-8",
    "access": "",
    "games": [
      "麻雀格闘倶楽部(ﾆｭｰｷｬﾋﾞﾈｯﾄ機能搭載ﾓﾃﾞﾙ)"
    ]
  },
  {
    "name": "GiGO武生",
    "operation_time": "",
    "holiday": "",
    "latitude": "35.905197",
    "longitude": "136.153466",
    "tel": "0778-21-1675",
    "address": "越前市新町3ー13-4",
    "access": "",
    "games": [
      "麻雀格闘倶楽部(ﾆｭｰｷｬﾋﾞﾈｯﾄ機能搭載ﾓﾃﾞﾙ)"
    ]
  },
  {
    "name": "タイトーステーション金沢店",
    "operation_time": "10:00～24:00 金・土・祝前日10:00～翌1:00",
    "holiday": "無し",
    "latitude": "36.561336",
    "longitude": "136.652994",
    "tel": "0762-65-5316",
    "address": "金沢市片町2-1-7宇都宮片町ビル1F",
    "access": "香林坊バス停より徒歩1分",
    "games": [
      "麻雀格闘倶楽部(ﾆｭｰｷｬﾋﾞﾈｯﾄ機能搭載ﾓﾃﾞﾙ)"
    ]
  },
  {
    "name": "タロフォフォ",
    "operation_time": "10:30～23:00",
    "holiday": "無し",
    "latitude": "34.73671946",
    "longitude": "135.3365567",
    "tel": "0798-32-0099",
    "address": "西宮市田中町5-21TSビル",
    "access": "阪神西宮駅下車徒歩2分",
    "games": [
      "麻雀格闘倶楽部(ﾆｭｰｷｬﾋﾞﾈｯﾄ機能搭載ﾓﾃﾞﾙ)"
    ]
  },
  {
    "name": "ラウンドワン伊丹店",
    "operation_time": "",
    "holiday": "",
    "latitude": "34.77891327",
    "longitude": "135.3932572",
    "tel": "0727-75-4150",
    "address": "伊丹市昆陽7-29",
    "access": "",
    "games": [
      "麻雀格闘倶楽部(ﾆｭｰｷｬﾋﾞﾈｯﾄ機能搭載ﾓﾃﾞﾙ)"
    ]
  },
  {
    "name": "ジョイランド敦賀店",
    "operation_time": "10:00～24:00",
    "holiday": "無し",
    "latitude": "35.64473762",
    "longitude": "136.0430148",
    "tel": "0770-37-1616",
    "address": "敦賀市木崎40-土三田12USAアリーナ内",
    "access": "",
    "games": [
      "麻雀格闘倶楽部(ﾆｭｰｷｬﾋﾞﾈｯﾄ機能搭載ﾓﾃﾞﾙ)"
    ]
  },
  {
    "name": "ゲームランドつがる柏店",
    "operation_time": "",
    "holiday": "",
    "latitude": "40.80222701",
    "longitude": "140.4169201",
    "tel": "0173-25-3486",
    "address": "つがる市柏稲盛幾世41イオンモールつがる柏 本館2F",
    "access": "",
    "games": [
      "麻雀格闘倶楽部(ﾆｭｰｷｬﾋﾞﾈｯﾄ機能搭載ﾓﾃﾞﾙ)"
    ]
  },
  {
    "name": "タカラ島 亀岡店",
    "operation_time": "10:00～22:00",
    "holiday": "無し",
    "latitude": "35.00139704",
    "longitude": "135.6029062",
    "tel": "0771-25-9886",
    "address": "亀岡市篠町野条上又11-1アルプラザ亀岡店3F",
    "access": "嵯峨野線馬堀駅徒歩15分",
    "games": [
      "麻雀格闘倶楽部(ﾆｭｰｷｬﾋﾞﾈｯﾄ機能搭載ﾓﾃﾞﾙ)"
    ]
  },
  {
    "name": "ラウンドワンJR尼崎駅前店",
    "operation_time": "",
    "holiday": "",
    "latitude": "34.73331738",
    "longitude": "135.4329448",
    "tel": "06-6495-4177",
    "address": "尼崎市潮江1-4-5プラストいきいきビル4F",
    "access": "",
    "games": [
      "麻雀格闘倶楽部(ﾆｭｰｷｬﾋﾞﾈｯﾄ機能搭載ﾓﾃﾞﾙ)"
    ]
  },
  {
    "name": "PALO五所川原",
    "operation_time": "",
    "holiday": "",
    "latitude": "40.80095013",
    "longitude": "140.4614581",
    "tel": "070-3100-5496",
    "address": "五所川原市大字唐笠柳字藤巻641-1",
    "access": "",
    "games": [
      "麻雀格闘倶楽部(ﾆｭｰｷｬﾋﾞﾈｯﾄ機能搭載ﾓﾃﾞﾙ)"
    ]
  },
  {
    "name": "ラウンドワン豊中店",
    "operation_time": "",
    "holiday": "",
    "latitude": "34.75733488",
    "longitude": "135.465555",
    "tel": "06-6865-2200",
    "address": "豊中市名神口1-1-1",
    "access": "",
    "games": [
      "麻雀格闘倶楽部(ﾆｭｰｷｬﾋﾞﾈｯﾄ機能搭載ﾓﾃﾞﾙ)"
    ]
  },
  {
    "name": "ユーズランド和歌山店",
    "operation_time": "10:00～21:00",
    "holiday": "",
    "latitude": "34.275743",
    "longitude": "135.149066",
    "tel": "073-452-1668",
    "address": "和歌山市ふじと台23イオンモール和歌山2F",
    "access": "",
    "games": [
      "麻雀格闘倶楽部(ﾆｭｰｷｬﾋﾞﾈｯﾄ機能搭載ﾓﾃﾞﾙ)"
    ]
  },
  {
    "name": "ピタゴラス和歌山店",
    "operation_time": "",
    "holiday": "",
    "latitude": "34.25253983",
    "longitude": "135.1463143",
    "tel": "070-1479-6710",
    "address": "和歌山市土入73-1",
    "access": "",
    "games": [
      "麻雀格闘倶楽部(ﾆｭｰｷｬﾋﾞﾈｯﾄ機能搭載ﾓﾃﾞﾙ)"
    ]
  },
  {
    "name": "パルケ上賀茂店",
    "operation_time": "平日12:00～24:00 土11:00～24:00 日12:00～24:00",
    "holiday": "",
    "latitude": "35.06680723",
    "longitude": "135.7462635",
    "tel": "075-711-4622",
    "address": "京都市北区上賀茂西河原町1-1",
    "access": "",
    "games": [
      "麻雀格闘倶楽部(ﾆｭｰｷｬﾋﾞﾈｯﾄ機能搭載ﾓﾃﾞﾙ)"
    ]
  },
  {
    "name": "ゲームSPOT207",
    "operation_time": "7:00～24:00",
    "holiday": "無し",
    "latitude": "36.73235328",
    "longitude": "137.0023356",
    "tel": "0766-26-2070",
    "address": "高岡市鐘紡町1655-3",
    "access": "JR高岡駅から車で15分",
    "games": [
      "麻雀格闘倶楽部(ﾆｭｰｷｬﾋﾞﾈｯﾄ機能搭載ﾓﾃﾞﾙ)"
    ]
  },
  {
    "name": "あそVIVA阪急茨木店",
    "operation_time": "",
    "holiday": "",
    "latitude": "34.817929",
    "longitude": "135.576325",
    "tel": "072-631-6606",
    "address": "茨木市永代町6-2スポーツプラザ茨木2F",
    "access": "",
    "games": [
      "麻雀格闘倶楽部(ﾆｭｰｷｬﾋﾞﾈｯﾄ機能搭載ﾓﾃﾞﾙ)"
    ]
  },
  {
    "name": "ぞうさん",
    "operation_time": "",
    "holiday": "",
    "latitude": "36.69943034",
    "longitude": "136.985008",
    "tel": "0766-63-6154",
    "address": "高岡市戸出町野瀬689",
    "access": "",
    "games": [
      "麻雀格闘倶楽部(ﾆｭｰｷｬﾋﾞﾈｯﾄ機能搭載ﾓﾃﾞﾙ)"
    ]
  },
  {
    "name": "ラウンドワン東淀川店",
    "operation_time": "",
    "holiday": "",
    "latitude": "34.74289355",
    "longitude": "135.5255278",
    "tel": "06-6160-2221",
    "address": "大阪市東淀川区菅原7-14-29",
    "access": "",
    "games": [
      "麻雀格闘倶楽部(ﾆｭｰｷｬﾋﾞﾈｯﾄ機能搭載ﾓﾃﾞﾙ)"
    ]
  },
  {
    "name": "ラウンドワン梅田店",
    "operation_time": "",
    "holiday": "",
    "latitude": "34.70337769",
    "longitude": "135.5009178",
    "tel": "06-6312-6800",
    "address": "大阪市北区小松原町4-16",
    "access": "",
    "games": [
      "麻雀格闘倶楽部(ﾆｭｰｷｬﾋﾞﾈｯﾄ機能搭載ﾓﾃﾞﾙ)"
    ]
  },
  {
    "name": "モーリーファンタジーとなみ",
    "operation_time": "",
    "holiday": "",
    "latitude": "36.6412349",
    "longitude": "136.9464871",
    "tel": "070-3100-5171",
    "address": "砺波市中神1-174イオンモールとなみ店2F",
    "access": "",
    "games": [
      "麻雀格闘倶楽部(ﾆｭｰｷｬﾋﾞﾈｯﾄ機能搭載ﾓﾃﾞﾙ)"
    ]
  },
  {
    "name": "アミューズメントCUE京都円町店",
    "operation_time": "",
    "holiday": "",
    "latitude": "35.01880055",
    "longitude": "135.7309726",
    "tel": "075-462-9316",
    "address": "京都市中京区西ノ京西円町40",
    "access": "",
    "games": [
      "麻雀格闘倶楽部(ﾆｭｰｷｬﾋﾞﾈｯﾄ機能搭載ﾓﾃﾞﾙ)"
    ]
  },
  {
    "name": "ユーズランド高岡店",
    "operation_time": "10:00～21:00",
    "holiday": "無し",
    "latitude": "36.72378877",
    "longitude": "137.016935",
    "tel": "0766-27-2411",
    "address": "高岡市下伏間江383イオンモール高岡2F",
    "access": "イオン高岡SC2FJR高岡駅よりバスで10分能越自動車道高岡ICより東へ約3km",
    "games": [
      "麻雀格闘倶楽部(ﾆｭｰｷｬﾋﾞﾈｯﾄ機能搭載ﾓﾃﾞﾙ)"
    ]
  },
  {
    "name": "サービスエリアイン高岡店",
    "operation_time": "5:00～24:00",
    "holiday": "無し",
    "latitude": "36.76070699",
    "longitude": "137.0468366",
    "tel": "0766-28-1028",
    "address": "高岡市石瀬下石瀬857-1",
    "access": "国道8号線高新大橋超えてすぐ。",
    "games": [
      "麻雀格闘倶楽部(ﾆｭｰｷｬﾋﾞﾈｯﾄ機能搭載ﾓﾃﾞﾙ)"
    ]
  },
  {
    "name": "メディアカフェポパイ高槻店",
    "operation_time": "一部24時間",
    "holiday": "無し",
    "latitude": "34.84938467",
    "longitude": "135.6196876",
    "tel": "072-686-5210",
    "address": "高槻市高槻町18-1セントラルマーケット2F",
    "access": "東海道・山陽本線高槻駅 徒歩約3分",
    "games": [
      "麻雀格闘倶楽部(ﾆｭｰｷｬﾋﾞﾈｯﾄ機能搭載ﾓﾃﾞﾙ)"
    ]
  },
  {
    "name": "ザ･インドアゲーム",
    "operation_time": "平日12:00～24:00 土日祝11:00～24:00",
    "holiday": "無し",
    "latitude": "34.72953957",
    "longitude": "135.5440365",
    "tel": "06-6955-4494",
    "address": "大阪市旭区中宮5-6-19",
    "access": "大阪工業大学正門前通り",
    "games": [
      "麻雀格闘倶楽部(ﾆｭｰｷｬﾋﾞﾈｯﾄ機能搭載ﾓﾃﾞﾙ)"
    ]
  },
  {
    "name": "AXE",
    "operation_time": "10:15～23:00",
    "holiday": "無し",
    "latitude": "34.66806273",
    "longitude": "135.5029865",
    "tel": "090-8726-4577",
    "address": "大阪市中央区難波1-1-3",
    "access": "地下鉄御堂筋線難波駅下車徒歩5分",
    "games": [
      "麻雀格闘倶楽部(ﾆｭｰｷｬﾋﾞﾈｯﾄ機能搭載ﾓﾃﾞﾙ)"
    ]
  },
  {
    "name": "ラウンドワン千日前店",
    "operation_time": "",
    "holiday": "",
    "latitude": "34.667424",
    "longitude": "135.5026714",
    "tel": "06-4708-2600",
    "address": "大阪市中央区難波1-3-1",
    "access": "",
    "games": [
      "麻雀格闘倶楽部(ﾆｭｰｷｬﾋﾞﾈｯﾄ機能搭載ﾓﾃﾞﾙ)"
    ]
  },
  {
    "name": "難波ヒルズ",
    "operation_time": "10:15～23:00",
    "holiday": "無し",
    "latitude": "34.66626102",
    "longitude": "135.5018617",
    "tel": "090-3133-7638",
    "address": "大阪市中央区難波3-2-34",
    "access": "地下鉄御堂筋線難波駅下車徒歩5分",
    "games": [
      "麻雀格闘倶楽部(ﾆｭｰｷｬﾋﾞﾈｯﾄ機能搭載ﾓﾃﾞﾙ)"
    ]
  },
  {
    "name": "メディアカフェポパイなんば本店",
    "operation_time": "",
    "holiday": "",
    "latitude": "34.663076",
    "longitude": "135.503502",
    "tel": "06-6635-0700",
    "address": "大阪市浪速区難波中2-2-18",
    "access": "",
    "games": [
      "麻雀格闘倶楽部(ﾆｭｰｷｬﾋﾞﾈｯﾄ機能搭載ﾓﾃﾞﾙ)"
    ]
  },
  {
    "name": "アミューズメントMOJA",
    "operation_time": "",
    "holiday": "",
    "latitude": "34.66296983",
    "longitude": "135.5044993",
    "tel": "06-6599-8036",
    "address": "大阪市浪速区難波中2-1-13",
    "access": "",
    "games": [
      "麻雀格闘倶楽部(ﾆｭｰｷｬﾋﾞﾈｯﾄ機能搭載ﾓﾃﾞﾙ)"
    ]
  },
  {
    "name": "namcoマグスミノエ店",
    "operation_time": "",
    "holiday": "",
    "latitude": "34.6100368",
    "longitude": "135.4682536",
    "tel": "06-6682-6856",
    "address": "大阪市住之江区泉1-1-82マグスミノエ1F",
    "access": "",
    "games": [
      "麻雀格闘倶楽部(ﾆｭｰｷｬﾋﾞﾈｯﾄ機能搭載ﾓﾃﾞﾙ)"
    ]
  },
  {
    "name": "キョーイチアミューズメントパーク吉祥院",
    "operation_time": "",
    "holiday": "",
    "latitude": "34.9658897",
    "longitude": "135.7248239",
    "tel": "075-672-4321",
    "address": "京都市南区吉祥院石原長田町1-2",
    "access": "",
    "games": [
      "麻雀格闘倶楽部(ﾆｭｰｷｬﾋﾞﾈｯﾄ機能搭載ﾓﾃﾞﾙ)"
    ]
  },
  {
    "name": "タイトーステーション大阪日本橋店",
    "operation_time": "10:00～24:00",
    "holiday": "無し",
    "latitude": "34.660362",
    "longitude": "135.506113",
    "tel": "06-6630-7270",
    "address": "大阪市浪速区日本橋4-9-14",
    "access": "地下鉄なんば駅・日本橋駅・恵美須町駅から約7分ほど。",
    "games": [
      "麻雀格闘倶楽部(ﾆｭｰｷｬﾋﾞﾈｯﾄ機能搭載ﾓﾃﾞﾙ)"
    ]
  },
  {
    "name": "シャトーEX",
    "operation_time": "7:00～24:00",
    "holiday": "無し",
    "latitude": "34.69804475",
    "longitude": "135.5337005",
    "tel": "06-6882-4801",
    "address": "大阪市都島区東野田町3-9-3",
    "access": "JR/京阪京橋駅徒歩1分",
    "games": [
      "麻雀格闘倶楽部(ﾆｭｰｷｬﾋﾞﾈｯﾄ機能搭載ﾓﾃﾞﾙ)"
    ]
  },
  {
    "name": "ラウンドワン高槻店",
    "operation_time": "",
    "holiday": "",
    "latitude": "34.83266921",
    "longitude": "135.6301782",
    "tel": "072-672-9933",
    "address": "高槻市辻子3-6-4",
    "access": "",
    "games": [
      "麻雀格闘倶楽部(ﾆｭｰｷｬﾋﾞﾈｯﾄ機能搭載ﾓﾃﾞﾙ)"
    ]
  },
  {
    "name": "能代スポーツセンター",
    "operation_time": "平日:12:00～22:30 土日祝:10:00～22:30",
    "holiday": "毎週水曜日",
    "latitude": "40.208901",
    "longitude": "140.033519",
    "tel": "0185-52-0154",
    "address": "能代市元町14-6",
    "access": "五能線 能代駅 徒歩10分",
    "games": [
      "麻雀格闘倶楽部(ﾆｭｰｷｬﾋﾞﾈｯﾄ機能搭載ﾓﾃﾞﾙ)"
    ]
  },
  {
    "name": "ラウンドワン和歌山店",
    "operation_time": "",
    "holiday": "",
    "latitude": "34.19849168",
    "longitude": "135.1859428",
    "tel": "073-421-8210",
    "address": "和歌山市小雑賀739-3",
    "access": "",
    "games": [
      "麻雀格闘倶楽部(ﾆｭｰｷｬﾋﾞﾈｯﾄ機能搭載ﾓﾃﾞﾙ)"
    ]
  },
  {
    "name": "ゲームプラザエム",
    "operation_time": "",
    "holiday": "",
    "latitude": "34.735265",
    "longitude": "135.564645",
    "tel": "06-6991-0363",
    "address": "守口市本町1-3-3",
    "access": "",
    "games": [
      "麻雀格闘倶楽部(ﾆｭｰｷｬﾋﾞﾈｯﾄ機能搭載ﾓﾃﾞﾙ)"
    ]
  },
  {
    "name": "ラウンドワン京都河原町店",
    "operation_time": "",
    "holiday": "",
    "latitude": "35.00699573",
    "longitude": "135.7685149",
    "tel": "075-213-8400",
    "address": "京都市中京区河原町通り三条下ル山崎町250",
    "access": "",
    "games": [
      "麻雀格闘倶楽部(ﾆｭｰｷｬﾋﾞﾈｯﾄ機能搭載ﾓﾃﾞﾙ)"
    ]
  },
  {
    "name": "ラウンドワン守口店",
    "operation_time": "",
    "holiday": "",
    "latitude": "34.7562488",
    "longitude": "135.5886793",
    "tel": "06-6907-9270",
    "address": "守口市佐太東町2-6-14ジャガーグリーン2F",
    "access": "",
    "games": [
      "麻雀格闘倶楽部(ﾆｭｰｷｬﾋﾞﾈｯﾄ機能搭載ﾓﾃﾞﾙ)"
    ]
  },
  {
    "name": "GiGOあべのアポロ",
    "operation_time": "10:00～24:00",
    "holiday": "",
    "latitude": "34.646623",
    "longitude": "135.511677",
    "tel": "06-6647-0716",
    "address": "大阪市阿倍野区阿倍野筋1-5-31アポロビル3F･4F",
    "access": "JR 天王寺駅・近鉄あべの橋駅より徒歩3分 アポロビル 3F",
    "games": [
      "麻雀格闘倶楽部(ﾆｭｰｷｬﾋﾞﾈｯﾄ機能搭載ﾓﾃﾞﾙ)"
    ]
  },
  {
    "name": "泉大津フタバボウル",
    "operation_time": "10:00～翌3:00",
    "holiday": "無し",
    "latitude": "34.5109011",
    "longitude": "135.4157314",
    "tel": "0725-22-8128",
    "address": "泉大津市松之浜町1-2-53",
    "access": "南海本線松ノ浜駅下車徒歩5分",
    "games": [
      "麻雀格闘倶楽部(ﾆｭｰｷｬﾋﾞﾈｯﾄ機能搭載ﾓﾃﾞﾙ)"
    ]
  },
  {
    "name": "ラウンドワン堺駅前店",
    "operation_time": "",
    "holiday": "",
    "latitude": "34.58340412",
    "longitude": "135.468425",
    "tel": "072-222-0120",
    "address": "堺市堺区戎島町4-44-3",
    "access": "",
    "games": [
      "麻雀格闘倶楽部(ﾆｭｰｷｬﾋﾞﾈｯﾄ機能搭載ﾓﾃﾞﾙ)"
    ]
  },
  {
    "name": "星狩物語岸和田店",
    "operation_time": "10:00～24:00",
    "holiday": "無し",
    "latitude": "34.45453199",
    "longitude": "135.3850619",
    "tel": "072-432-3841",
    "address": "岸和田市作才町1047",
    "access": "南海岸和田駅より徒歩10分",
    "games": [
      "麻雀格闘倶楽部(ﾆｭｰｷｬﾋﾞﾈｯﾄ機能搭載ﾓﾃﾞﾙ)"
    ]
  },
  {
    "name": "ラウンドワン岸和田店",
    "operation_time": "",
    "holiday": "",
    "latitude": "34.45649962",
    "longitude": "135.3885278",
    "tel": "072-429-1100",
    "address": "岸和田市八阪町2-11-1",
    "access": "",
    "games": [
      "麻雀格闘倶楽部(ﾆｭｰｷｬﾋﾞﾈｯﾄ機能搭載ﾓﾃﾞﾙ)"
    ]
  },
  {
    "name": "YAZ寝屋川店",
    "operation_time": "",
    "holiday": "",
    "latitude": "34.78044073",
    "longitude": "135.6193889",
    "tel": "072-830-7755",
    "address": "寝屋川市石津中町25-26",
    "access": "",
    "games": [
      "麻雀格闘倶楽部(ﾆｭｰｷｬﾋﾞﾈｯﾄ機能搭載ﾓﾃﾞﾙ)"
    ]
  },
  {
    "name": "ラウンドワン城東放出店",
    "operation_time": "",
    "holiday": "",
    "latitude": "34.69651235",
    "longitude": "135.559648",
    "tel": "06-6936-0100",
    "address": "大阪市城東区今福南3-4-38",
    "access": "",
    "games": [
      "麻雀格闘倶楽部(ﾆｭｰｷｬﾋﾞﾈｯﾄ機能搭載ﾓﾃﾞﾙ)"
    ]
  },
  {
    "name": "モンキートリック",
    "operation_time": "10:00～24:00",
    "holiday": "無し",
    "latitude": "34.78316526",
    "longitude": "135.628799",
    "tel": "072-835-6361",
    "address": "寝屋川市香里南之町32-5",
    "access": "京阪本線香里園駅下車徒歩2分",
    "games": [
      "麻雀格闘倶楽部(ﾆｭｰｷｬﾋﾞﾈｯﾄ機能搭載ﾓﾃﾞﾙ)"
    ]
  },
  {
    "name": "ラウンドワン京都伏見店",
    "operation_time": "",
    "holiday": "",
    "latitude": "34.93599659",
    "longitude": "135.746198",
    "tel": "075-622-9911",
    "address": "京都市伏見区下鳥羽平塚町131",
    "access": "",
    "games": [
      "麻雀格闘倶楽部(ﾆｭｰｷｬﾋﾞﾈｯﾄ機能搭載ﾓﾃﾞﾙ)"
    ]
  },
  {
    "name": "クァトロブーム小杉",
    "operation_time": "",
    "holiday": "",
    "latitude": "36.7205",
    "longitude": "137.092912",
    "tel": "0766-57-8219",
    "address": "射水市三ケ2602",
    "access": "",
    "games": [
      "麻雀格闘倶楽部(ﾆｭｰｷｬﾋﾞﾈｯﾄ機能搭載ﾓﾃﾞﾙ)"
    ]
  },
  {
    "name": "GiGO布施",
    "operation_time": "",
    "holiday": "",
    "latitude": "34.66416946",
    "longitude": "135.5628455",
    "tel": "06-6783-6999",
    "address": "東大阪市長堂1-1-1ロンモール布施内",
    "access": "",
    "games": [
      "麻雀格闘倶楽部(ﾆｭｰｷｬﾋﾞﾈｯﾄ機能搭載ﾓﾃﾞﾙ)"
    ]
  },
  {
    "name": "ほっとBBステーション堺北花田",
    "operation_time": "一部24時間",
    "holiday": "無し",
    "latitude": "34.57645",
    "longitude": "135.515741",
    "tel": "072-254-8250",
    "address": "堺市北区蔵前町2-17-33",
    "access": "御堂筋線 北花田駅徒歩12分",
    "games": [
      "麻雀格闘倶楽部(ﾆｭｰｷｬﾋﾞﾈｯﾄ機能搭載ﾓﾃﾞﾙ)"
    ]
  },
  {
    "name": "弘前ファミリーボウル",
    "operation_time": "",
    "holiday": "",
    "latitude": "40.6083",
    "longitude": "140.495177",
    "tel": "0172-27-4145",
    "address": "弘前市高崎2-15-1ラフォルテ館2F",
    "access": "",
    "games": [
      "麻雀格闘倶楽部(ﾆｭｰｷｬﾋﾞﾈｯﾄ機能搭載ﾓﾃﾞﾙ)"
    ]
  },
  {
    "name": "エースレーン堅田",
    "operation_time": "10:00～23:45",
    "holiday": "無し",
    "latitude": "35.12458935",
    "longitude": "135.9194764",
    "tel": "077-571-1226",
    "address": "大津市今堅田2-40-10ACT堅田ビル2F",
    "access": "JR湖西線堅田駅下車徒歩10分",
    "games": [
      "麻雀格闘倶楽部(ﾆｭｰｷｬﾋﾞﾈｯﾄ機能搭載ﾓﾃﾞﾙ)"
    ]
  },
  {
    "name": "スペースファンタジーインフィニ",
    "operation_time": "10:00～23:00",
    "holiday": "無し",
    "latitude": "40.60673278",
    "longitude": "140.495868",
    "tel": "0172-26-2661",
    "address": "弘前市城東北3-10-1さくら野弘前店4F",
    "access": "",
    "games": [
      "麻雀格闘倶楽部(ﾆｭｰｷｬﾋﾞﾈｯﾄ機能搭載ﾓﾃﾞﾙ)"
    ]
  },
  {
    "name": "BIG BANG北見",
    "operation_time": "",
    "holiday": "無し",
    "latitude": "43.796167",
    "longitude": "143.850753",
    "tel": "0157-36-9190",
    "address": "北見市中央三輪7-446-1",
    "access": "",
    "games": [
      "麻雀格闘倶楽部(ﾆｭｰｷｬﾋﾞﾈｯﾄ機能搭載ﾓﾃﾞﾙ)"
    ]
  },
  {
    "name": "アミューズメントスロット市場",
    "operation_time": "",
    "holiday": "",
    "latitude": "36.72585306",
    "longitude": "137.1324104",
    "tel": "0766-50-9990",
    "address": "射水市小杉白石937-1",
    "access": "",
    "games": [
      "麻雀格闘倶楽部(ﾆｭｰｷｬﾋﾞﾈｯﾄ機能搭載ﾓﾃﾞﾙ)"
    ]
  },
  {
    "name": "トップラン東大阪",
    "operation_time": "",
    "holiday": "",
    "latitude": "34.69383",
    "longitude": "135.61757",
    "tel": "072-970-6923",
    "address": "東大阪市東鴻池町1-6-30イオンタウン東大阪2F",
    "access": "",
    "games": [
      "麻雀格闘倶楽部(ﾆｭｰｷｬﾋﾞﾈｯﾄ機能搭載ﾓﾃﾞﾙ)"
    ]
  },
  {
    "name": "光明池スポーツガーデン",
    "operation_time": "10:00～24:00",
    "holiday": "無し",
    "latitude": "34.47145846",
    "longitude": "135.4679136",
    "tel": "0725-56-2832",
    "address": "和泉市伏屋町4-10-51",
    "access": "泉北高速鉄道光明池駅下車バス10分",
    "games": [
      "麻雀格闘倶楽部(ﾆｭｰｷｬﾋﾞﾈｯﾄ機能搭載ﾓﾃﾞﾙ)"
    ]
  },
  {
    "name": "PALOむつ",
    "operation_time": "",
    "holiday": "",
    "latitude": "41.2869745",
    "longitude": "141.1838083",
    "tel": "070-3100-4671",
    "address": "むつ市中央2-7-8",
    "access": "",
    "games": [
      "麻雀格闘倶楽部(ﾆｭｰｷｬﾋﾞﾈｯﾄ機能搭載ﾓﾃﾞﾙ)"
    ]
  },
  {
    "name": "アミパラ大東店",
    "operation_time": "",
    "holiday": "",
    "latitude": "34.7010172",
    "longitude": "135.6386857",
    "tel": "072-813-7600",
    "address": "大東市南新田2-3-5",
    "access": "",
    "games": [
      "麻雀格闘倶楽部(ﾆｭｰｷｬﾋﾞﾈｯﾄ機能搭載ﾓﾃﾞﾙ)"
    ]
  },
  {
    "name": "ラウンドワン堺中央環状店",
    "operation_time": "",
    "holiday": "",
    "latitude": "34.55707895",
    "longitude": "135.5362412",
    "tel": "072-253-9559",
    "address": "堺市東区石原町2-241",
    "access": "",
    "games": [
      "麻雀格闘倶楽部(ﾆｭｰｷｬﾋﾞﾈｯﾄ機能搭載ﾓﾃﾞﾙ)"
    ]
  },
  {
    "name": "ラウンドワン東大阪店",
    "operation_time": "",
    "holiday": "",
    "latitude": "34.6531932",
    "longitude": "135.60637",
    "tel": "06-6224-1700",
    "address": "東大阪市若江南町1-2-12",
    "access": "",
    "games": [
      "麻雀格闘倶楽部(ﾆｭｰｷｬﾋﾞﾈｯﾄ機能搭載ﾓﾃﾞﾙ)"
    ]
  },
  {
    "name": "ラウンドワン浜大津アーカス店",
    "operation_time": "",
    "holiday": "",
    "latitude": "35.010557",
    "longitude": "135.866804",
    "tel": "077-526-8722",
    "address": "大津市浜町2-1浜大津アーカス4F",
    "access": "",
    "games": [
      "麻雀格闘倶楽部(ﾆｭｰｷｬﾋﾞﾈｯﾄ機能搭載ﾓﾃﾞﾙ)"
    ]
  },
  {
    "name": "トヤマレジャーランド呉羽店",
    "operation_time": "一部24時間営業",
    "holiday": "無し",
    "latitude": "36.71545083",
    "longitude": "137.1579046",
    "tel": "076-434-5336",
    "address": "富山市高木字貝塚2054",
    "access": "県道44号線沿い呉羽本町交差点を富山方面方向に車で3分",
    "games": [
      "麻雀格闘倶楽部(ﾆｭｰｷｬﾋﾞﾈｯﾄ機能搭載ﾓﾃﾞﾙ)"
    ]
  },
  {
    "name": "ボウルアロー松原",
    "operation_time": "9:00～24:00",
    "holiday": "無し",
    "latitude": "34.58476397",
    "longitude": "135.571827",
    "tel": "072-330-5581",
    "address": "松原市大堀1-1-9",
    "access": "阪神高速松原線大堀出口出てすぐ",
    "games": [
      "麻雀格闘倶楽部(ﾆｭｰｷｬﾋﾞﾈｯﾄ機能搭載ﾓﾃﾞﾙ)"
    ]
  },
  {
    "name": "PALO黒石",
    "operation_time": "",
    "holiday": "",
    "latitude": "40.66656005",
    "longitude": "140.6016637",
    "tel": "070-3100-4675",
    "address": "黒石市富士見103-3",
    "access": "",
    "games": [
      "麻雀格闘倶楽部(ﾆｭｰｷｬﾋﾞﾈｯﾄ機能搭載ﾓﾃﾞﾙ)"
    ]
  },
  {
    "name": "D-ポケット青森中央店",
    "operation_time": "7:00～24:00",
    "holiday": "無し",
    "latitude": "40.8063772",
    "longitude": "140.7405498",
    "tel": "017-729-3622",
    "address": "青森市大野若宮182-1",
    "access": "",
    "games": [
      "麻雀格闘倶楽部(ﾆｭｰｷｬﾋﾞﾈｯﾄ機能搭載ﾓﾃﾞﾙ)"
    ]
  },
  {
    "name": "滋賀レジャーランド大津店",
    "operation_time": "",
    "holiday": "",
    "latitude": "35.003875",
    "longitude": "135.883431",
    "tel": "077-548-7851",
    "address": "大津市におの浜3-1-43",
    "access": "",
    "games": [
      "麻雀格闘倶楽部(ﾆｭｰｷｬﾋﾞﾈｯﾄ機能搭載ﾓﾃﾞﾙ)"
    ]
  },
  {
    "name": "タイトーステーション青森アムゼ店",
    "operation_time": "10:00～22:00",
    "holiday": "無し",
    "latitude": "40.80791373",
    "longitude": "140.7533047",
    "tel": "017-721-1713",
    "address": "青森市緑3-9-2アムゼ内",
    "access": "JR青森駅より南東へ車で15分",
    "games": [
      "麻雀格闘倶楽部(ﾆｭｰｷｬﾋﾞﾈｯﾄ機能搭載ﾓﾃﾞﾙ)"
    ]
  },
  {
    "name": "ラウンドワン青森店",
    "operation_time": "",
    "holiday": "",
    "latitude": "40.79867718",
    "longitude": "140.7483213",
    "tel": "017-762-3591",
    "address": "青森市浜田3-1-1",
    "access": "",
    "games": [
      "麻雀格闘倶楽部(ﾆｭｰｷｬﾋﾞﾈｯﾄ機能搭載ﾓﾃﾞﾙ)"
    ]
  },
  {
    "name": "ゲームフェイス八尾",
    "operation_time": "平日10:00～24:00 土日祝9:00～24:00",
    "holiday": "無し",
    "latitude": "34.6039863",
    "longitude": "135.6123324",
    "tel": "0729-48-2306",
    "address": "八尾市天王寺屋2-68",
    "access": "JR大和路線「志紀駅」下車徒歩7分",
    "games": [
      "麻雀格闘倶楽部(ﾆｭｰｷｬﾋﾞﾈｯﾄ機能搭載ﾓﾃﾞﾙ)"
    ]
  },
  {
    "name": "キャッツアイ静内店",
    "operation_time": "10:00～24:00",
    "holiday": "",
    "latitude": "42.341483",
    "longitude": "142.354614",
    "tel": "0146-43-0888",
    "address": "日高郡新ひだか町静内木場町2-1-41",
    "access": "",
    "games": [
      "麻雀格闘倶楽部(ﾆｭｰｷｬﾋﾞﾈｯﾄ機能搭載ﾓﾃﾞﾙ)"
    ]
  },
  {
    "name": "@time草津店",
    "operation_time": "一部24時間",
    "holiday": "無し",
    "latitude": "35.01929882",
    "longitude": "135.9421004",
    "tel": "077-561-1177",
    "address": "草津市木川町68",
    "access": "滋賀県道42号線(草津守山線)、木川町交差点そば",
    "games": [
      "麻雀格闘倶楽部(ﾆｭｰｷｬﾋﾞﾈｯﾄ機能搭載ﾓﾃﾞﾙ)"
    ]
  },
  {
    "name": "アピナ富山豊田店",
    "operation_time": "10:00～24:00",
    "holiday": "無し",
    "latitude": "36.7211336",
    "longitude": "137.2352552",
    "tel": "076-433-3355",
    "address": "富山市豊田町2-12-66",
    "access": "国道8号線豊田東交差点近く",
    "games": [
      "麻雀格闘倶楽部(ﾆｭｰｷｬﾋﾞﾈｯﾄ機能搭載ﾓﾃﾞﾙ)"
    ]
  },
  {
    "name": "日高東宝ボウル",
    "operation_time": "10:00～24:00",
    "holiday": "無し",
    "latitude": "33.89573154",
    "longitude": "135.152283",
    "tel": "0738-23-2660",
    "address": "御坊市薗31-1",
    "access": "国道42号線南下、南海バスの看板を目印に中央通り4丁目交差点を左折ピンが目印。",
    "games": [
      "麻雀格闘倶楽部(ﾆｭｰｷｬﾋﾞﾈｯﾄ機能搭載ﾓﾃﾞﾙ)"
    ]
  },
  {
    "name": "網走ヤングボウル",
    "operation_time": "10:00～24:00",
    "holiday": "無し",
    "latitude": "44.017613",
    "longitude": "144.245263",
    "tel": "0152-44-6556",
    "address": "網走市新町2-7-15",
    "access": "網走駅より北見方面へ徒歩10分車3分ホンダカーズ北見網走店向かいt駐車場有り72台",
    "games": [
      "麻雀格闘倶楽部(ﾆｭｰｷｬﾋﾞﾈｯﾄ機能搭載ﾓﾃﾞﾙ)"
    ]
  },
  {
    "name": "ネットアクション守山",
    "operation_time": "一部24時間営業",
    "holiday": "無し",
    "latitude": "35.0693009",
    "longitude": "135.9953524",
    "tel": "077-583-5122",
    "address": "守山市播磨田町306",
    "access": "JR守山駅からバス10分",
    "games": [
      "麻雀格闘倶楽部(ﾆｭｰｷｬﾋﾞﾈｯﾄ機能搭載ﾓﾃﾞﾙ)"
    ]
  },
  {
    "name": "エースレーン守山",
    "operation_time": "10:00～24:00",
    "holiday": "無し",
    "latitude": "35.06802993",
    "longitude": "135.9957195",
    "tel": "077-514-2455",
    "address": "守山市播磨田町231-4ACT守山3番館内",
    "access": "名神高速道栗東IC出て国道8号線彦根方面向かい辻交差点左折し15分 JR守山駅よりタクシー5分",
    "games": [
      "麻雀格闘倶楽部(ﾆｭｰｷｬﾋﾞﾈｯﾄ機能搭載ﾓﾃﾞﾙ)"
    ]
  },
  {
    "name": "エースレーン草津",
    "operation_time": "10:00～24:00",
    "holiday": "無し",
    "latitude": "34.99965692",
    "longitude": "135.9463199",
    "tel": "077-569-0472",
    "address": "草津市野路3-1-11",
    "access": "JR東海道線南草津駅より徒歩10分。国道1号線南田山交差点そば",
    "games": [
      "麻雀格闘倶楽部(ﾆｭｰｷｬﾋﾞﾈｯﾄ機能搭載ﾓﾃﾞﾙ)"
    ]
  },
  {
    "name": "JOYJOY南草津店",
    "operation_time": "月～木11:00～翌6:00 金・祝前11:00～ 土・特日24時間営業 日・祝日～翌6:00",
    "holiday": "無し",
    "latitude": "35.007212",
    "longitude": "135.954238",
    "tel": "077-567-9666",
    "address": "草津市矢倉2-7-18",
    "access": "",
    "games": [
      "麻雀格闘倶楽部(ﾆｭｰｷｬﾋﾞﾈｯﾄ機能搭載ﾓﾃﾞﾙ)"
    ]
  },
  {
    "name": "富山レジャーランド掛尾店",
    "operation_time": "",
    "holiday": "",
    "latitude": "36.66605175",
    "longitude": "137.208892",
    "tel": "076-413-2606",
    "address": "富山市掛尾町360-1",
    "access": "",
    "games": [
      "麻雀格闘倶楽部(ﾆｭｰｷｬﾋﾞﾈｯﾄ機能搭載ﾓﾃﾞﾙ)"
    ]
  },
  {
    "name": "アピナ富山南店",
    "operation_time": "10:00～24:00",
    "holiday": "無し",
    "latitude": "36.665007",
    "longitude": "137.217248",
    "tel": "076-461-6644",
    "address": "富山市堀川町355-3",
    "access": "富山マイプラザ店内",
    "games": [
      "麻雀格闘倶楽部(ﾆｭｰｷｬﾋﾞﾈｯﾄ機能搭載ﾓﾃﾞﾙ)"
    ]
  },
  {
    "name": "@time守山店",
    "operation_time": "一部24時間",
    "holiday": "無し",
    "latitude": "35.052326",
    "longitude": "135.996929",
    "tel": "077-514-2201",
    "address": "守山市梅田町28-1",
    "access": "",
    "games": [
      "麻雀格闘倶楽部(ﾆｭｰｷｬﾋﾞﾈｯﾄ機能搭載ﾓﾃﾞﾙ)"
    ]
  },
  {
    "name": "アピナ富山新庄店",
    "operation_time": "10:00～24:00",
    "holiday": "無し",
    "latitude": "36.69533117",
    "longitude": "137.2480753",
    "tel": "076-491-7700",
    "address": "富山市荒川3-2-12",
    "access": "",
    "games": [
      "麻雀格闘倶楽部(ﾆｭｰｷｬﾋﾞﾈｯﾄ機能搭載ﾓﾃﾞﾙ)"
    ]
  },
  {
    "name": "アプレシオ天正寺店",
    "operation_time": "一部24時間",
    "holiday": "無し",
    "latitude": "36.68025569",
    "longitude": "137.2512074",
    "tel": "076-420-7322",
    "address": "富山市天正寺68",
    "access": "県道56号天正寺交差点付近",
    "games": [
      "麻雀格闘倶楽部(ﾆｭｰｷｬﾋﾞﾈｯﾄ機能搭載ﾓﾃﾞﾙ)"
    ]
  },
  {
    "name": "PALO網走",
    "operation_time": "",
    "holiday": "",
    "latitude": "44.00098836",
    "longitude": "144.2838377",
    "tel": "070-3100-4523",
    "address": "網走市駒場北5-83駒場ショッピングタウン",
    "access": "",
    "games": [
      "麻雀格闘倶楽部(ﾆｭｰｷｬﾋﾞﾈｯﾄ機能搭載ﾓﾃﾞﾙ)"
    ]
  },
  {
    "name": "自遊空間新潟佐渡店",
    "operation_time": "一部24時間",
    "holiday": "無し",
    "latitude": "38.003522",
    "longitude": "138.332993",
    "tel": "0259-51-5020",
    "address": "佐渡市長木赤坂811",
    "access": "",
    "games": [
      "麻雀格闘倶楽部(ﾆｭｰｷｬﾋﾞﾈｯﾄ機能搭載ﾓﾃﾞﾙ)"
    ]
  },
  {
    "name": "エースレーン近江八幡",
    "operation_time": "月～木・日・祝09:00～24:00 金・土・祝前日09:00～翌2:00",
    "holiday": "無し",
    "latitude": "35.13185244",
    "longitude": "136.1023481",
    "tel": "0748-31-2468",
    "address": "近江八幡市出町736",
    "access": "",
    "games": [
      "麻雀格闘倶楽部(ﾆｭｰｷｬﾋﾞﾈｯﾄ機能搭載ﾓﾃﾞﾙ)"
    ]
  },
  {
    "name": "@time近江八幡店",
    "operation_time": "一部24時間",
    "holiday": "無し",
    "latitude": "35.13032",
    "longitude": "136.107548",
    "tel": "0748-31-4111",
    "address": "近江八幡市鷹飼町北1-8-1",
    "access": "",
    "games": [
      "麻雀格闘倶楽部(ﾆｭｰｷｬﾋﾞﾈｯﾄ機能搭載ﾓﾃﾞﾙ)"
    ]
  },
  {
    "name": "@time長浜バイパス店",
    "operation_time": "",
    "holiday": "",
    "latitude": "35.37205348",
    "longitude": "136.2896019",
    "tel": "0749-68-2201",
    "address": "長浜市大辰巳町49",
    "access": "",
    "games": [
      "麻雀格闘倶楽部(ﾆｭｰｷｬﾋﾞﾈｯﾄ機能搭載ﾓﾃﾞﾙ)"
    ]
  },
  {
    "name": "アプレシオ魚津店",
    "operation_time": "",
    "holiday": "",
    "latitude": "36.83312464",
    "longitude": "137.4202338",
    "tel": "0765-24-0511",
    "address": "魚津市江口1855",
    "access": "",
    "games": [
      "麻雀格闘倶楽部(ﾆｭｰｷｬﾋﾞﾈｯﾄ機能搭載ﾓﾃﾞﾙ)"
    ]
  },
  {
    "name": "ゲームスポットアップル",
    "operation_time": "",
    "holiday": "",
    "latitude": "36.8255737",
    "longitude": "137.4142933",
    "tel": "0765-24-7740",
    "address": "魚津市吉島2-407-1",
    "access": "",
    "games": [
      "麻雀格闘倶楽部(ﾆｭｰｷｬﾋﾞﾈｯﾄ機能搭載ﾓﾃﾞﾙ)"
    ]
  },
  {
    "name": "プレイランド黒部",
    "operation_time": "5:00～24:00",
    "holiday": "無し",
    "latitude": "36.88891002",
    "longitude": "137.4646533",
    "tel": "0765-52-5141",
    "address": "黒部市沓掛645",
    "access": "国道8号線沿い黒部IC入口交差点近く",
    "games": [
      "麻雀格闘倶楽部(ﾆｭｰｷｬﾋﾞﾈｯﾄ機能搭載ﾓﾃﾞﾙ)"
    ]
  },
  {
    "name": "ラウンドワン奈良ミナーラ店",
    "operation_time": "",
    "holiday": "",
    "latitude": "34.685231",
    "longitude": "135.802224",
    "tel": "0742-32-3900",
    "address": "奈良市二条大路南1-3-1ミ･ナーラ5F",
    "access": "",
    "games": [
      "麻雀格闘倶楽部(ﾆｭｰｷｬﾋﾞﾈｯﾄ機能搭載ﾓﾃﾞﾙ)"
    ]
  },
  {
    "name": "トムソーヤのなかまたち鷹巣店",
    "operation_time": "施設の営業時間に準じる",
    "holiday": "",
    "latitude": "40.229809",
    "longitude": "140.384714",
    "tel": "080-7195-3578",
    "address": "北秋田市栄字中綱31-1イオンタウン鷹巣店",
    "access": "",
    "games": [
      "麻雀格闘倶楽部(ﾆｭｰｷｬﾋﾞﾈｯﾄ機能搭載ﾓﾃﾞﾙ)"
    ]
  },
  {
    "name": "アミューズメントCUE奈良三条店",
    "operation_time": "10:00～24:00",
    "holiday": "無し",
    "latitude": "34.68177805",
    "longitude": "135.8221257",
    "tel": "0742-25-5115",
    "address": "奈良市三条町478-1",
    "access": "JR奈良駅から三条通りを東へすぐ",
    "games": [
      "麻雀格闘倶楽部(ﾆｭｰｷｬﾋﾞﾈｯﾄ機能搭載ﾓﾃﾞﾙ)"
    ]
  },
  {
    "name": "スロットギャラリー",
    "operation_time": "",
    "holiday": "",
    "latitude": "36.94616",
    "longitude": "137.547902",
    "tel": "0765-32-3337",
    "address": "下新川郡朝日町月山854-1",
    "access": "",
    "games": [
      "麻雀格闘倶楽部(ﾆｭｰｷｬﾋﾞﾈｯﾄ機能搭載ﾓﾃﾞﾙ)"
    ]
  },
  {
    "name": "ファンタジープラザ西帯広店",
    "operation_time": "",
    "holiday": "",
    "latitude": "42.91189058",
    "longitude": "143.1437886",
    "tel": "0155-41-8940",
    "address": "帯広市西21条南4-1MEGAドンキホーテ西帯広店2F",
    "access": "",
    "games": [
      "麻雀格闘倶楽部(ﾆｭｰｷｬﾋﾞﾈｯﾄ機能搭載ﾓﾃﾞﾙ)"
    ]
  },
  {
    "name": "ACT五個荘",
    "operation_time": "9:00～24:00",
    "holiday": "無し",
    "latitude": "35.143634",
    "longitude": "136.177179",
    "tel": "0748-48-8220",
    "address": "東近江市五個荘石塚243-1",
    "access": "",
    "games": [
      "麻雀格闘倶楽部(ﾆｭｰｷｬﾋﾞﾈｯﾄ機能搭載ﾓﾃﾞﾙ)"
    ]
  },
  {
    "name": "彦根パスカ",
    "operation_time": "13:00～24:00",
    "holiday": "無し",
    "latitude": "35.25868777",
    "longitude": "136.2653241",
    "tel": "070-3166-4833",
    "address": "彦根市西沼波町166",
    "access": "近江鉄道ひこね芹川駅下車徒歩10分",
    "games": [
      "麻雀格闘倶楽部(ﾆｭｰｷｬﾋﾞﾈｯﾄ機能搭載ﾓﾃﾞﾙ)"
    ]
  },
  {
    "name": "@time彦根店",
    "operation_time": "一部24時間",
    "holiday": "無し",
    "latitude": "35.25164502",
    "longitude": "136.2643391",
    "tel": "0749-21-4100",
    "address": "彦根市東沼波町111-1",
    "access": "近江鉄道本線「彦根口」駅より東南東へ約700m。",
    "games": [
      "麻雀格闘倶楽部(ﾆｭｰｷｬﾋﾞﾈｯﾄ機能搭載ﾓﾃﾞﾙ)"
    ]
  },
  {
    "name": "アミューズメントCUE大和高田",
    "operation_time": "10:00～24:00",
    "holiday": "無し",
    "latitude": "34.49978101",
    "longitude": "135.7354379",
    "tel": "0745-25-3335",
    "address": "大和高田市東中2-11-16",
    "access": "国道166号線東宝交差点そば",
    "games": [
      "麻雀格闘倶楽部(ﾆｭｰｷｬﾋﾞﾈｯﾄ機能搭載ﾓﾃﾞﾙ)"
    ]
  },
  {
    "name": "JOYJOY東近江八日市店",
    "operation_time": "月～木11:00～翌6:00 金・祝前11:00～ 土・特日24時間営業 日・祝日～翌6:00",
    "holiday": "無し",
    "latitude": "35.105566",
    "longitude": "136.212067",
    "tel": "059-357-0008",
    "address": "東近江市札の辻1-4-21",
    "access": "",
    "games": [
      "麻雀格闘倶楽部(ﾆｭｰｷｬﾋﾞﾈｯﾄ機能搭載ﾓﾃﾞﾙ)"
    ]
  },
  {
    "name": "アミパラ橿原店",
    "operation_time": "",
    "holiday": "",
    "latitude": "34.52935645",
    "longitude": "135.7966131",
    "tel": "0744-25-0550",
    "address": "橿原市十市町1222-1ツインゲート橿原1F",
    "access": "",
    "games": [
      "麻雀格闘倶楽部(ﾆｭｰｷｬﾋﾞﾈｯﾄ機能搭載ﾓﾃﾞﾙ)"
    ]
  },
  {
    "name": "北星ボウルアネックス",
    "operation_time": "10:00～24:00",
    "holiday": "無し",
    "latitude": "40.284097",
    "longitude": "140.576254",
    "tel": "0186-49-1155",
    "address": "大館市字観音堂304",
    "access": "北星ボウルアネックス内",
    "games": [
      "麻雀格闘倶楽部(ﾆｭｰｷｬﾋﾞﾈｯﾄ機能搭載ﾓﾃﾞﾙ)"
    ]
  },
  {
    "name": "ACT水口",
    "operation_time": "10:00～24:00",
    "holiday": "無し",
    "latitude": "34.973527",
    "longitude": "136.175542",
    "tel": "0748-63-4812",
    "address": "甲賀市水口町新町1-5-2447-7",
    "access": "",
    "games": [
      "麻雀格闘倶楽部(ﾆｭｰｷｬﾋﾞﾈｯﾄ機能搭載ﾓﾃﾞﾙ)"
    ]
  },
  {
    "name": "ラウンドワン秋田店",
    "operation_time": "",
    "holiday": "",
    "latitude": "39.70235247",
    "longitude": "140.1092394",
    "tel": "018-896-6711",
    "address": "秋田市卸町1-1-2",
    "access": "",
    "games": [
      "麻雀格闘倶楽部(ﾆｭｰｷｬﾋﾞﾈｯﾄ機能搭載ﾓﾃﾞﾙ)"
    ]
  },
  {
    "name": "ロックンボウル",
    "operation_time": "10:00～翌5:00",
    "holiday": "無し",
    "latitude": "39.71725634",
    "longitude": "140.1434496",
    "tel": "018-831-6900",
    "address": "秋田市広面字長沼301",
    "access": "",
    "games": [
      "麻雀格闘倶楽部(ﾆｭｰｷｬﾋﾞﾈｯﾄ機能搭載ﾓﾃﾞﾙ)"
    ]
  },
  {
    "name": "サンボウル",
    "operation_time": "10:00～24:00",
    "holiday": "",
    "latitude": "34.77078775",
    "longitude": "136.1186566",
    "tel": "0595-24-0568",
    "address": "伊賀市小田町南出1528",
    "access": "名阪国道上野東IC15分",
    "games": [
      "麻雀格闘倶楽部(ﾆｭｰｷｬﾋﾞﾈｯﾄ機能搭載ﾓﾃﾞﾙ)"
    ]
  },
  {
    "name": "ドリーム キャンディ",
    "operation_time": "一部24時間",
    "holiday": "無し",
    "latitude": "34.775269",
    "longitude": "136.122796",
    "tel": "0595-26-7568",
    "address": "伊賀市小田町711-1",
    "access": "西大手駅から約13分",
    "games": [
      "麻雀格闘倶楽部(ﾆｭｰｷｬﾋﾞﾈｯﾄ機能搭載ﾓﾃﾞﾙ)"
    ]
  },
  {
    "name": "アミューズメントスペースコミ丸アリババ大垣店",
    "operation_time": "10:00～24:00",
    "holiday": "無し",
    "latitude": "35.38404596",
    "longitude": "136.5956139",
    "tel": "050-3575-0530",
    "address": "大垣市池尻町940-1",
    "access": "関が原バイパス沿い",
    "games": [
      "麻雀格闘倶楽部(ﾆｭｰｷｬﾋﾞﾈｯﾄ機能搭載ﾓﾃﾞﾙ)"
    ]
  },
  {
    "name": "ラウンドワンモレラ岐阜店",
    "operation_time": "",
    "holiday": "",
    "latitude": "35.455121",
    "longitude": "136.672955",
    "tel": "058-323-6600",
    "address": "本巣市三橋1100",
    "access": "",
    "games": [
      "麻雀格闘倶楽部(ﾆｭｰｷｬﾋﾞﾈｯﾄ機能搭載ﾓﾃﾞﾙ)"
    ]
  },
  {
    "name": "大垣メトロポリス",
    "operation_time": "10:00～24:00",
    "holiday": "無し",
    "latitude": "35.36694278",
    "longitude": "136.6291725",
    "tel": "0584-75-5734",
    "address": "大垣市三塚町字西沼523-1",
    "access": "",
    "games": [
      "麻雀格闘倶楽部(ﾆｭｰｷｬﾋﾞﾈｯﾄ機能搭載ﾓﾃﾞﾙ)"
    ]
  },
  {
    "name": "JOYJOY名張夏見店",
    "operation_time": "",
    "holiday": "",
    "latitude": "34.62157184",
    "longitude": "136.1045554",
    "tel": "0595-64-5556",
    "address": "名張市希央台3番町75",
    "access": "",
    "games": [
      "麻雀格闘倶楽部(ﾆｭｰｷｬﾋﾞﾈｯﾄ機能搭載ﾓﾃﾞﾙ)"
    ]
  },
  {
    "name": "岐阜レジャーランド穂積店",
    "operation_time": "7:00～24:00",
    "holiday": "無し",
    "latitude": "35.38432479",
    "longitude": "136.6846653",
    "tel": "058-326-1133",
    "address": "瑞穂市稲里630",
    "access": "国道21号線沿い瑞穂市野田新田交差点近く",
    "games": [
      "麻雀格闘倶楽部(ﾆｭｰｷｬﾋﾞﾈｯﾄ機能搭載ﾓﾃﾞﾙ)"
    ]
  },
  {
    "name": "モーリーファンタジーf岐阜",
    "operation_time": "10:00～22:00",
    "holiday": "無し",
    "latitude": "35.44803841",
    "longitude": "136.7447554",
    "tel": "070-3100-3566",
    "address": "岐阜市正木中1-2-1マーサ21 北館3F",
    "access": "ジャスコ岐阜店北側3階",
    "games": [
      "麻雀格闘倶楽部(ﾆｭｰｷｬﾋﾞﾈｯﾄ機能搭載ﾓﾃﾞﾙ)"
    ]
  },
  {
    "name": "モーリーファンタジー本荘",
    "operation_time": "",
    "holiday": "",
    "latitude": "39.39161012",
    "longitude": "140.026304",
    "tel": "080-3476-8892",
    "address": "由利本荘市石脇字田中138イオンスーパーセンター本荘店1F",
    "access": "",
    "games": [
      "麻雀格闘倶楽部(ﾆｭｰｷｬﾋﾞﾈｯﾄ機能搭載ﾓﾃﾞﾙ)"
    ]
  },
  {
    "name": "亜熱帯岐阜県庁前",
    "operation_time": "一部24時間営業",
    "holiday": "無し",
    "latitude": "35.3936692",
    "longitude": "136.7148093",
    "tel": "0582-76-2666",
    "address": "岐阜市藪田中2-13-4",
    "access": "",
    "games": [
      "麻雀格闘倶楽部(ﾆｭｰｷｬﾋﾞﾈｯﾄ機能搭載ﾓﾃﾞﾙ)"
    ]
  },
  {
    "name": "Asobinoすてぇじ輪之内店",
    "operation_time": "",
    "holiday": "",
    "latitude": "35.29341233",
    "longitude": "136.6497617",
    "tel": "0584-69-4690",
    "address": "安八郡輪之内町四郷新開229イオンタウン輪之内内",
    "access": "",
    "games": [
      "麻雀格闘倶楽部(ﾆｭｰｷｬﾋﾞﾈｯﾄ機能搭載ﾓﾃﾞﾙ)"
    ]
  },
  {
    "name": "ゲームファンタジアン柳津店",
    "operation_time": "一部24時間営業",
    "holiday": "無し",
    "latitude": "35.37596826",
    "longitude": "136.7145391",
    "tel": "058-279-0085",
    "address": "岐阜市柳津町上佐波西3-68",
    "access": "岐阜県ふれあい会館から南に4分",
    "games": [
      "麻雀格闘倶楽部(ﾆｭｰｷｬﾋﾞﾈｯﾄ機能搭載ﾓﾃﾞﾙ)"
    ]
  },
  {
    "name": "イーグルボウル",
    "operation_time": "",
    "holiday": "",
    "latitude": "40.60882",
    "longitude": "141.22112",
    "tel": "0176-25-1233",
    "address": "十和田市東四番町3-39",
    "access": "",
    "games": [
      "麻雀格闘倶楽部(ﾆｭｰｷｬﾋﾞﾈｯﾄ機能搭載ﾓﾃﾞﾙ)"
    ]
  },
  {
    "name": "A.Cグランド",
    "operation_time": "9:00～24:00",
    "holiday": "無し",
    "latitude": "35.38308553",
    "longitude": "136.7461998",
    "tel": "058-275-0351",
    "address": "岐阜市茜部大川1-77",
    "access": "名鉄新岐阜駅15分",
    "games": [
      "麻雀格闘倶楽部(ﾆｭｰｷｬﾋﾞﾈｯﾄ機能搭載ﾓﾃﾞﾙ)"
    ]
  },
  {
    "name": "JOYJOY岐阜茜部店",
    "operation_time": "",
    "holiday": "",
    "latitude": "35.38781289",
    "longitude": "136.7531953",
    "tel": "058-275-2223",
    "address": "岐阜市茜部菱野1-35",
    "access": "",
    "games": [
      "麻雀格闘倶楽部(ﾆｭｰｷｬﾋﾞﾈｯﾄ機能搭載ﾓﾃﾞﾙ)"
    ]
  },
  {
    "name": "JOYJOY尾西郷東店",
    "operation_time": "",
    "holiday": "",
    "latitude": "35.30995929",
    "longitude": "136.7501915",
    "tel": "0586-61-1555",
    "address": "一宮市小信中島郷東45-1",
    "access": "",
    "games": [
      "麻雀格闘倶楽部(ﾆｭｰｷｬﾋﾞﾈｯﾄ機能搭載ﾓﾃﾞﾙ)"
    ]
  },