[
  {
    "name": "タイトーステーション福岡天神店",
    "operation_time": "10:00～翌1:00",
    "holiday": "無し",
    "latitude": "33.5896519",
    "longitude": "130.3962521",
    "tel": "092-737-5500",
    "address": "福岡市中央区天神2-6-35サザンクロスビル",
    "access": "西鉄福岡駅北口より徒歩2分",
    "games": [
      "麻雀ファイトガール"
    ]
  },
  {
    "name": "GiGO福岡天神",
    "operation_time": "",
    "holiday": "",
    "latitude": "33.589905",
    "longitude": "130.396633",
    "tel": "092-771-8121",
    "address": "福岡市中央区天神2-7-6天神DADAビル",
    "access": "",
    "games": [
      "麻雀ファイトガール"
    ]
  },
  {
    "name": "ラウンドワン福岡天神店",
    "operation_time": "",
    "holiday": "",
    "latitude": "33.58960223",
    "longitude": "130.3968402",
    "tel": "092-720-8101",
    "address": "福岡市中央区天神2-6-12",
    "access": "",
    "games": [
      "麻雀ファイトガール"
    ]
  },
  {
    "name": "楽市街道箱崎店3F",
    "operation_time": "10:00～24:00",
    "holiday": "無し",
    "latitude": "33.62410817",
    "longitude": "130.4195897",
    "tel": "092-642-0761",
    "address": "福岡市東区箱崎5-1-8楽市街道箱崎店内3F",
    "access": "3号線沿い九州大学そば",
    "games": [
      "麻雀ファイトガール"
    ]
  },
  {
    "name": "最後の5$",
    "operation_time": "一部24時間営業",
    "holiday": "無し",
    "latitude": "33.60926671",
    "longitude": "130.4453319",
    "tel": "092-612-8080",
    "address": "糟屋郡粕屋町大字仲原2706",
    "access": "国道3号線博多バイパスを空港口交差点から北へ5分ほど。",
    "games": [
      "麻雀ファイトガール"
    ]
  },
  {
    "name": "ラウンドワン博多半道橋店",
    "operation_time": "",
    "holiday": "",
    "latitude": "33.58394157",
    "longitude": "130.4382666",
    "tel": "092-475-6611",
    "address": "福岡市博多区半道橋2-2-8",
    "access": "",
    "games": [
      "麻雀ファイトガール"
    ]
  },
  {
    "name": "遊道楽 嘉瀬店",
    "operation_time": "11:00～24:00",
    "holiday": "無し",
    "latitude": "33.24215325",
    "longitude": "130.2565663",
    "tel": "0952-40-0952",
    "address": "佐賀市嘉瀬町大字中原2488-1",
    "access": "207号線沿い",
    "games": [
      "麻雀ファイトガール"
    ]
  },
  {
    "name": "ラウンドワン佐賀店",
    "operation_time": "",
    "holiday": "",
    "latitude": "33.27533631",
    "longitude": "130.3015536",
    "tel": "0952-36-7070",
    "address": "佐賀市兵庫北4-2-1",
    "access": "",
    "games": [
      "麻雀ファイトガール"
    ]
  },
  {
    "name": "ラウンドワン大野城店",
    "operation_time": "",
    "holiday": "",
    "latitude": "33.54646948",
    "longitude": "130.4822214",
    "tel": "092-504-7411",
    "address": "大野城市御笠川1-18-16",
    "access": "",
    "games": [
      "麻雀ファイトガール"
    ]
  },
  {
    "name": "ラウンドワン小倉店",
    "operation_time": "",
    "holiday": "",
    "latitude": "33.89742877",
    "longitude": "130.8598475",
    "tel": "093-562-8805",
    "address": "北九州市小倉北区西港町15-65",
    "access": "",
    "games": [
      "麻雀ファイトガール"
    ]
  },
  {
    "name": "G-STAGE小倉店",
    "operation_time": "10:00～20:00",
    "holiday": "無し",
    "latitude": "33.88758128",
    "longitude": "130.8847829",
    "tel": "093-551-3133",
    "address": "北九州市小倉北区浅野2-14-5",
    "access": "小倉駅前あるあるシティ2F",
    "games": [
      "麻雀ファイトガール"
    ]
  },
  {
    "name": "G-pala小倉店",
    "operation_time": "",
    "holiday": "",
    "latitude": "33.83945824",
    "longitude": "130.9109857",
    "tel": "093-953-7405",
    "address": "北九州市小倉南区上葛原1-14-1",
    "access": "",
    "games": [
      "麻雀ファイトガール"
    ]
  },
  {
    "name": "パスカワールドグリーンランド",
    "operation_time": "10:00～翌3:00",
    "holiday": "無し",
    "latitude": "32.98790587",
    "longitude": "130.4711246",
    "tel": "0968-69-3001",
    "address": "荒尾市本井手1574-54",
    "access": "三井グリーンランドウルトラマンランド横",
    "games": [
      "麻雀ファイトガール"
    ]
  },
  {
    "name": "G-pala日田店",
    "operation_time": "10:00～24:00",
    "holiday": "無し",
    "latitude": "33.32522467",
    "longitude": "130.9114515",
    "tel": "0973-25-5262",
    "address": "日田市友田997-1",
    "access": "",
    "games": [
      "麻雀ファイトガール"
    ]
  },
  {
    "name": "サープラ山口あそびタウン",
    "operation_time": "9:00～24:00",
    "holiday": "無し",
    "latitude": "34.1647908",
    "longitude": "131.4517343",
    "tel": "083-933-0307",
    "address": "山口市湯田温泉6-8-3",
    "access": "JR山口線 湯田温泉駅下車 湯田自動車学校方面徒歩10分",
    "games": [
      "麻雀ファイトガール"
    ]
  },
  {
    "name": "ラウンドワン熊本店",
    "operation_time": "",
    "holiday": "",
    "latitude": "32.78499883",
    "longitude": "130.6775647",
    "tel": "096-325-7200",
    "address": "熊本市西区春日7-25-15",
    "access": "",
    "games": [
      "麻雀ファイトガール"
    ]
  },
  {
    "name": "サープラ下通りあそびタウン",
    "operation_time": "",
    "holiday": "",
    "latitude": "32.8026522",
    "longitude": "130.7092883",
    "tel": "096-355-2888",
    "address": "熊本市中央区手取本町4-12",
    "access": "",
    "games": [
      "麻雀ファイトガール"
    ]
  },
  {
    "name": "スポラ九品寺",
    "operation_time": "10:00～翌3:00",
    "holiday": "無し",
    "latitude": "32.79041868",
    "longitude": "130.7149285",
    "tel": "096-372-5700",
    "address": "熊本市中央区九品寺5-10-15",
    "access": "JR豊肥本線南熊本駅徒歩10分",
    "games": [
      "麻雀ファイトガール"
    ]
  },
  {
    "name": "ユーズランド三光店",
    "operation_time": "10:00～21:00",
    "holiday": "",
    "latitude": "33.559002",
    "longitude": "131.192857",
    "tel": "0979-43-6562",
    "address": "中津市三光佐知1032イオン三光SC2F",
    "access": "",
    "games": [
      "麻雀ファイトガール"
    ]
  },
  {
    "name": "パスカワールド宇土店",
    "operation_time": "日曜～木曜 10:00～23:00  金曜・土曜 10:00～24:00",
    "holiday": "無し",
    "latitude": "32.68271108",
    "longitude": "130.6679513",
    "tel": "0964-22-5311",
    "address": "宇土市善道寺町綾織95",
    "access": "松橋ICより車で10分、宇土シティーショッピングセンター内",
    "games": [
      "麻雀ファイトガール"
    ]
  },
  {
    "name": "スポラ菊陽店",
    "operation_time": "10:00～24:00",
    "holiday": "無し",
    "latitude": "32.86472855",
    "longitude": "130.8092457",
    "tel": "096-213-5720",
    "address": "菊池郡菊陽町津久礼駄飼代2617-2",
    "access": "",
    "games": [
      "麻雀ファイトガール"
    ]
  },
  {
    "name": "ラウンドワン沖縄･宜野湾店",
    "operation_time": "",
    "holiday": "",
    "latitude": "26.27580261",
    "longitude": "127.7310389",
    "tel": "098-870-2110",
    "address": "宜野湾市真志喜3-28-8",
    "access": "",
    "games": [
      "麻雀ファイトガール"
    ]
  },
  {
    "name": "ラウンドワン沖縄･南風原店",
    "operation_time": "",
    "holiday": "",
    "latitude": "26.19509176",
    "longitude": "127.7210653",
    "tel": "098-940-6670",
    "address": "島尻郡南風原町字兼城下茂原552",
    "access": "",
    "games": [
      "麻雀ファイトガール"
    ]
  },
  {
    "name": "ラウンドワン鹿児島宇宿店",
    "operation_time": "",
    "holiday": "",
    "latitude": "31.54388304",
    "longitude": "130.5427759",
    "tel": "099-284-0655",
    "address": "鹿児島市宇宿2-2-2",
    "access": "",
    "games": [
      "麻雀ファイトガール"
    ]
  },
  {
    "name": "アミューズメントスペース遊ランド稚内店",
    "operation_time": "",
    "holiday": "",
    "latitude": "45.40077226",
    "longitude": "141.6807113",
    "tel": "0162-22-2233",
    "address": "稚内市港5-8-15",
    "access": "",
    "games": [
      "麻雀ファイトガール"
    ]
  },
  {
    "name": "タイトーFステーションセントポルタ大分店",
    "operation_time": "",
    "holiday": "",
    "latitude": "33.235334",
    "longitude": "131.606448",
    "tel": "097-533-2716",
    "address": "大分市中央町2-1-1",
    "access": "",
    "games": [
      "麻雀ファイトガール"
    ]
  },
  {
    "name": "ラウンドワン大分店",
    "operation_time": "",
    "holiday": "",
    "latitude": "33.24885259",
    "longitude": "131.6402543",
    "tel": "097-573-2800",
    "address": "大分市萩原2-13-17",
    "access": "",
    "games": [
      "麻雀ファイトガール"
    ]
  },
  {
    "name": "アミパラ広島店",
    "operation_time": "10:00～24:00",
    "holiday": "無し",
    "latitude": "34.39350431",
    "longitude": "132.4360428",
    "tel": "082-297-7135",
    "address": "広島市西区西観音町3-17",
    "access": "平和大通り沿い、西区区役所から東へすぐ",
    "games": [
      "麻雀ファイトガール"
    ]
  },
  {
    "name": "タイトーステーション広島紙屋町店",
    "operation_time": "平日10:00～24:00 土日祝9:00～24:00",
    "holiday": "無し",
    "latitude": "34.394034",
    "longitude": "132.456154",
    "tel": "082-544-3961",
    "address": "広島市中区紙屋町2-2-21",
    "access": "広島電鉄 紙屋町西電停より徒歩2分",
    "games": [
      "麻雀ファイトガール"
    ]
  },
  {
    "name": "ラウンドワン広島店",
    "operation_time": "",
    "holiday": "",
    "latitude": "34.39365895",
    "longitude": "132.4600423",
    "tel": "082-545-8910",
    "address": "広島市中区立町3-11",
    "access": "",
    "games": [
      "麻雀ファイトガール"
    ]
  },
  {
    "name": "タイトーステーション広島本通店",
    "operation_time": "10:00～24:00",
    "holiday": "無し",
    "latitude": "34.3929912",
    "longitude": "132.4599026",
    "tel": "082-541-6345",
    "address": "広島市中区本通3-5せらかぐ本通ビル",
    "access": "広島電鉄・立町駅より徒歩5分",
    "games": [
      "麻雀ファイトガール"
    ]
  },
  {
    "name": "アミパラがいな店",
    "operation_time": "10:00 ～ 24:00",
    "holiday": "無し",
    "latitude": "35.43797411",
    "longitude": "133.3392651",
    "tel": "0859-39-1800",
    "address": "米子市日ノ出町1-8-13",
    "access": "米子しんまち天満屋から南西へ300m",
    "games": [
      "麻雀ファイトガール"
    ]
  },
  {
    "name": "GiGO広",
    "operation_time": "10:00～24:00",
    "holiday": "無し",
    "latitude": "34.22860722",
    "longitude": "132.6293589",
    "tel": "070-1459-4743",
    "address": "呉市広中町1-9フタバ図書TSUTAYA広店2F",
    "access": "呉線広駅前下車すぐ185号線沿いフタバ図書内",
    "games": [
      "麻雀ファイトガール"
    ]
  },
  {
    "name": "ラウンドワン宮崎店",
    "operation_time": "",
    "holiday": "",
    "latitude": "31.89458335",
    "longitude": "131.4170876",
    "tel": "0985-63-1210",
    "address": "宮崎市中村東3-4-60",
    "access": "",
    "games": [
      "麻雀ファイトガール"
    ]
  },
  {
    "name": "ラウンドワン松山店",
    "operation_time": "",
    "holiday": "",
    "latitude": "33.8664873",
    "longitude": "132.751593",
    "tel": "089-911-5511",
    "address": "松山市東長戸1-3-10",
    "access": "",
    "games": [
      "麻雀ファイトガール"
    ]
  },
  {
    "name": "プレイドーム松山",
    "operation_time": "",
    "holiday": "無し",
    "latitude": "33.80938654",
    "longitude": "132.7280805",
    "tel": "089-972-3000",
    "address": "松山市余戸南4-9-40",
    "access": "伊予鉄鎌田駅より徒歩2分",
    "games": [
      "麻雀ファイトガール"
    ]
  },
  {
    "name": "アミューズメントパークMGキスケ店",
    "operation_time": "",
    "holiday": "無し",
    "latitude": "33.84135404",
    "longitude": "132.753158",
    "tel": "089-933-2737",
    "address": "松山市宮田町4キスケボール1F内ゲームコーナー",
    "access": "JR松山駅より徒歩3分",
    "games": [
      "麻雀ファイトガール"
    ]
  },
  {
    "name": "スーパーヒーロー倉吉",
    "operation_time": "10:00～翌3:00/土・休前日/10:00～翌5:00",
    "holiday": "無し",
    "latitude": "35.43833291",
    "longitude": "133.8393183",
    "tel": "0858-23-5255",
    "address": "倉吉市見日町633",
    "access": "バス・西倉吉方面行き/厚生病院前下車徒歩3分",
    "games": [
      "麻雀ファイトガール"
    ]
  },
  {
    "name": "アミューズメントパークMGジアス店",
    "operation_time": "",
    "holiday": "無し",
    "latitude": "34.44068975",
    "longitude": "133.2607402",
    "tel": "084-939-7733",
    "address": "福山市柳津町1-7-60",
    "access": "",
    "games": [
      "麻雀ファイトガール"
    ]
  },
  {
    "name": "ラウンドワン福山店",
    "operation_time": "",
    "holiday": "",
    "latitude": "34.489155",
    "longitude": "133.3925782",
    "tel": "084-973-9891",
    "address": "福山市明神町1-9-28",
    "access": "",
    "games": [
      "麻雀ファイトガール"
    ]
  },
  {
    "name": "アミューズメントパークMG東予店",
    "operation_time": "",
    "holiday": "",
    "latitude": "33.9205621",
    "longitude": "133.0775644",
    "tel": "0898-35-3222",
    "address": "西条市周布715-1フジ東予店 別棟",
    "access": "",
    "games": [
      "麻雀ファイトガール"
    ]
  },
  {
    "name": "ファンタジスタ",
    "operation_time": "12:00～24:00",
    "holiday": "店舗にお問合わせください",
    "latitude": "34.5583269",
    "longitude": "133.6767549",
    "tel": "086-526-0438",
    "address": "倉敷市新倉敷駅前5-194",
    "access": "JR西日本山陽本線「新倉敷」駅から南西に徒歩10分",
    "games": [
      "麻雀ファイトガール"
    ]
  },
  {
    "name": "ユーズランド倉敷店",
    "operation_time": "10:00～21:00",
    "holiday": "無し",
    "latitude": "34.60290341",
    "longitude": "133.7454258",
    "tel": "086-430-5234",
    "address": "倉敷市水江1イオン倉敷ショッピングセンター2F",
    "access": "イオン倉敷SC2F倉敷駅北口1番乗場よりバスで10分山陽自動車道倉敷ICより約7分",
    "games": [
      "麻雀ファイトガール"
    ]
  },
  {
    "name": "ドライブイン古城",
    "operation_time": "7:00～24:00",
    "holiday": "無し",
    "latitude": "34.55139486",
    "longitude": "133.7675318",
    "tel": "086-455-5190",
    "address": "倉敷市福田町福田2111-1",
    "access": "早島ICより車で20分",
    "games": [
      "麻雀ファイトガール"
    ]
  },
  {
    "name": "ラウンドワン岡山妹尾店",
    "operation_time": "",
    "holiday": "",
    "latitude": "34.62318926",
    "longitude": "133.8694608",
    "tel": "086-282-8851",
    "address": "岡山市南区妹尾3413-1",
    "access": "",
    "games": [
      "麻雀ファイトガール"
    ]
  },
  {
    "name": "アミューズメントパークMG伊予三島店",
    "operation_time": "",
    "holiday": "",
    "latitude": "33.97450223",
    "longitude": "133.5286622",
    "tel": "0896-72-7177",
    "address": "四国中央市中之庄町汐汲道75-1",
    "access": "",
    "games": [
      "麻雀ファイトガール"
    ]
  },
  {
    "name": "マックスプラザ善通寺",
    "operation_time": "",
    "holiday": "",
    "latitude": "34.24362494",
    "longitude": "133.7639965",
    "tel": "0877-63-4333",
    "address": "善通寺市中村町1798-2",
    "access": "",
    "games": [
      "麻雀ファイトガール"
    ]
  },
  {
    "name": "GiGOイオン札幌手稲駅前SC",
    "operation_time": "ゲームコーナー9:00～26:00 / メダルコーナー9:00～24:00",
    "holiday": "無し",
    "latitude": "43.12045749",
    "longitude": "141.2452406",
    "tel": "080-7127-7065",
    "address": "札幌市手稲区前田1条11-3F",
    "access": "西友手稲店3F",
    "games": [
      "麻雀ファイトガール"
    ]
  },
  {
    "name": "アミューズメントスペース遊ランド士別店",
    "operation_time": "12:00～翌2:00",
    "holiday": "無し",
    "latitude": "44.173913",
    "longitude": "142.394292",
    "tel": "0165-29-2828",
    "address": "士別市大通り東8",
    "access": "士別駅徒歩10分",
    "games": [
      "麻雀ファイトガール"
    ]
  },
  {
    "name": "ラウンドワン札幌北21条店",
    "operation_time": "",
    "holiday": "",
    "latitude": "43.08681907",
    "longitude": "141.3495671",
    "tel": "011-733-8801",
    "address": "札幌市東区北21条東1-1-21",
    "access": "",
    "games": [
      "麻雀ファイトガール"
    ]
  },
  {
    "name": "GiGO札幌駅西口",
    "operation_time": "",
    "holiday": "",
    "latitude": "43.06749301",
    "longitude": "141.3465097",
    "tel": "080-7173-6552",
    "address": "札幌市北区北6条西6-1-1WEST6",
    "access": "",
    "games": [
      "麻雀ファイトガール"
    ]
  },
  {
    "name": "ラウンドワン札幌すすきの店",
    "operation_time": "",
    "holiday": "",
    "latitude": "43.05431311",
    "longitude": "141.3540587",
    "tel": "011-520-1022",
    "address": "札幌市中央区南五条西3-6-1札幌東宝公楽ビル",
    "access": "",
    "games": [
      "麻雀ファイトガール"
    ]
  },
  {
    "name": "えの木高松店",
    "operation_time": "平日14:00～24:00 土日祝10:00～24:00",
    "holiday": "火曜日/水曜日",
    "latitude": "34.33588169",
    "longitude": "134.0537351",
    "tel": "",
    "address": "高松市藤塚町3-3-3",
    "access": "",
    "games": [
      "麻雀ファイトガール"
    ]
  },
  {
    "name": "ラウンドワン高松店",
    "operation_time": "",
    "holiday": "",
    "latitude": "34.33898638",
    "longitude": "134.0669994",
    "tel": "087-812-6115",
    "address": "高松市松島町2-7-43",
    "access": "",
    "games": [
      "麻雀ファイトガール"
    ]
  },
  {
    "name": "ラウンドワン高知店",
    "operation_time": "",
    "holiday": "",
    "latitude": "33.55793713",
    "longitude": "133.554676",
    "tel": "088-804-3070",
    "address": "高知市南宝永町4-12",
    "access": "",
    "games": [
      "麻雀ファイトガール"
    ]
  },
  {
    "name": "ラウンドワン札幌白石本通店",
    "operation_time": "",
    "holiday": "",
    "latitude": "43.03673108",
    "longitude": "141.4328227",
    "tel": "011-865-8051",
    "address": "札幌市白石区本通-16-北1-50",
    "access": "",
    "games": [
      "麻雀ファイトガール"
    ]
  },
  {
    "name": "遊ランド春光店",
    "operation_time": "11:00～翌4:00",
    "holiday": "無し",
    "latitude": "43.798192",
    "longitude": "142.373983",
    "tel": "0166-55-3355",
    "address": "旭川市春光1条7-2-25",
    "access": "JR旭川駅車20分",
    "games": [
      "麻雀ファイトガール"
    ]
  },
  {
    "name": "ラウンドワン旭川店",
    "operation_time": "",
    "holiday": "",
    "latitude": "43.78651521",
    "longitude": "142.397308",
    "tel": "0166-49-5071",
    "address": "旭川市永山3条1-4-7",
    "access": "",
    "games": [
      "麻雀ファイトガール"
    ]
  },
  {
    "name": "ゲームアイビス太子店",
    "operation_time": "10:00～24:00",
    "holiday": "無し",
    "latitude": "34.83203126",
    "longitude": "134.6001053",
    "tel": "0792-77-2320",
    "address": "揖保郡太子町太田2148-1",
    "access": "姫路バイパス太子ランプより相生方面へ車で5分",
    "games": [
      "麻雀ファイトガール"
    ]
  },
  {
    "name": "遊ランド西御料店",
    "operation_time": "平日12:00～翌3:00 金・土・祝前日11:00～翌5:00",
    "holiday": "無し",
    "latitude": "43.723884",
    "longitude": "142.368924",
    "tel": "0166-60-5050",
    "address": "旭川市西御料5条2-64-19",
    "access": "旭川環状線1号から美瑛・富良野方面へお進み下さいませ",
    "games": [
      "麻雀ファイトガール"
    ]
  },
  {
    "name": "ラウンドワン姫路飾磨店",
    "operation_time": "",
    "holiday": "",
    "latitude": "34.79228629",
    "longitude": "134.6871127",
    "tel": "079-243-1830",
    "address": "姫路市飾磨区中島1-254",
    "access": "",
    "games": [
      "麻雀ファイトガール"
    ]
  },
  {
    "name": "あそVIVA本店",
    "operation_time": "9:00～24:00",
    "holiday": "無し",
    "latitude": "35.28971907",
    "longitude": "135.1348229",
    "tel": "0773-25-5055",
    "address": "福知山市字堀小字上高田2146-1あそVIVA1F",
    "access": "",
    "games": [
      "麻雀ファイトガール"
    ]
  },
  {
    "name": "ラウンドワン函館店",
    "operation_time": "",
    "holiday": "",
    "latitude": "41.82459206",
    "longitude": "140.7173548",
    "tel": "0138-49-8401",
    "address": "函館市西桔梗町848-11",
    "access": "",
    "games": [
      "麻雀ファイトガール"
    ]
  },
  {
    "name": "ホムスタ加古川店",
    "operation_time": "10:00～24:00",
    "holiday": "無し",
    "latitude": "34.74552902",
    "longitude": "134.8355115",
    "tel": "0794-56-2121",
    "address": "加古川市尾上町安田351-1メガコート",
    "access": "",
    "games": [
      "麻雀ファイトガール"
    ]
  },
  {
    "name": "ラウンドワン加古川店",
    "operation_time": "",
    "holiday": "",
    "latitude": "34.74708002",
    "longitude": "134.836935",
    "tel": "0794-29-2513",
    "address": "加古川市尾上町安田字小河原325番6号",
    "access": "",
    "games": [
      "麻雀ファイトガール"
    ]
  },
  {
    "name": "遊ランド富良野店",
    "operation_time": "13:00～翌1:00",
    "holiday": "無し",
    "latitude": "43.34423305",
    "longitude": "142.3786409",
    "tel": "0167-39-0123",
    "address": "富良野市弥生町5-50",
    "access": "富良野駅徒歩10分",
    "games": [
      "麻雀ファイトガール"
    ]
  },
  {
    "name": "トップラン",
    "operation_time": "10:00～24:00",
    "holiday": "無し",
    "latitude": "34.717655",
    "longitude": "134.928895",
    "tel": "078-969-2700",
    "address": "神戸市西区岩岡町古郷1474-1",
    "access": "第二神明道路大久保ICから車で5分",
    "games": [
      "麻雀ファイトガール"
    ]
  },
  {
    "name": "アミューズメントパフェ パレパレ",
    "operation_time": "10:00～24:00",
    "holiday": "無し",
    "latitude": "34.08586633",
    "longitude": "134.5426759",
    "tel": "088-677-8991",
    "address": "徳島市南田宮2-2-46",
    "access": "国道11号線から田宮街道を西に車で5分",
    "games": [
      "麻雀ファイトガール"
    ]
  },
  {
    "name": "ホムスタ玉津店",
    "operation_time": "10:00～24:00",
    "holiday": "無し",
    "latitude": "34.67922481",
    "longitude": "134.9831791",
    "tel": "078-920-3337",
    "address": "神戸市西区丸塚2-9-18メガパレス2F",
    "access": "第二神名玉津IC下車車5分",
    "games": [
      "麻雀ファイトガール"
    ]
  },
  {
    "name": "ラウンドワン徳島･万代店",
    "operation_time": "",
    "holiday": "",
    "latitude": "34.064828",
    "longitude": "134.564699",
    "tel": "088-612-0025",
    "address": "徳島市万代町4-19-1",
    "access": "",
    "games": [
      "麻雀ファイトガール"
    ]
  },
  {
    "name": "アミューズメント ミール",
    "operation_time": "10:00～24:00",
    "holiday": "無し",
    "latitude": "34.88047252",
    "longitude": "135.2295927",
    "tel": "0795-64-5678",
    "address": "三田市対中町5-21",
    "access": "神戸電鉄三田本町駅下車国道176号線側へ徒歩5分。車の場合はガリバー三田店より176号を三田方面へ、ブックプラザ三田店の向かい。",
    "games": [
      "麻雀ファイトガール"
    ]
  },
  {
    "name": "アルゴ",
    "operation_time": "11:15～23:30",
    "holiday": "無し",
    "latitude": "34.69392181",
    "longitude": "135.1914556",
    "tel": "078-334-3031",
    "address": "神戸市中央区下山手通1-1-8",
    "access": "JR三ノ宮駅下車徒歩5分生田神社前",
    "games": [
      "麻雀ファイトガール"
    ]
  },
  {
    "name": "GiGO三宮北口",
    "operation_time": "",
    "holiday": "",
    "latitude": "34.69312229",
    "longitude": "135.192177",
    "tel": "070-6949-3872",
    "address": "神戸市中央区北長狭通1-8-1コスモビルB1F-2F",
    "access": "",
    "games": [
      "麻雀ファイトガール"
    ]
  },
  {
    "name": "遊･スペース マジカル",
    "operation_time": "9:00～24:00",
    "holiday": "無し",
    "latitude": "34.69551577",
    "longitude": "135.1950261",
    "tel": "078-414-8844",
    "address": "神戸市中央区琴ノ緒町5-2-3協律三宮センタービル3F",
    "access": "JR三ノ宮駅下車徒歩5分",
    "games": [
      "麻雀ファイトガール"
    ]
  },
  {
    "name": "ラウンドワン三宮駅前店",
    "operation_time": "",
    "holiday": "",
    "latitude": "34.69403073",
    "longitude": "135.1973402",
    "tel": "078-252-7200",
    "address": "神戸市中央区小野柄通り6-1-17",
    "access": "",
    "games": [
      "麻雀ファイトガール"
    ]
  },
  {
    "name": "バイパスレジャーランド加賀店",
    "operation_time": "一部24時間営業",
    "holiday": "無し",
    "latitude": "36.32515503",
    "longitude": "136.4113746",
    "tel": "0761-74-8007",
    "address": "加賀市箱宮町ヲ1-1",
    "access": "国道8号線加賀産業道路終点近く",
    "games": [
      "麻雀ファイトガール"
    ]
  },
  {
    "name": "バイパスレジャーランド藤江新館",
    "operation_time": "",
    "holiday": "",
    "latitude": "36.58375651",
    "longitude": "136.6206642",
    "tel": "076-268-7518",
    "address": "金沢市藤江南2-105",
    "access": "",
    "games": [
      "麻雀ファイトガール"
    ]
  },
  {
    "name": "バイパスレジャーランド藤江本館",
    "operation_time": "一部24時間営業",
    "holiday": "無し",
    "latitude": "36.58397239",
    "longitude": "136.621523",
    "tel": "076-268-3798",
    "address": "金沢市藤江南2-41",
    "access": "国道8号線沿い藤江交差点近く",
    "games": [
      "麻雀ファイトガール"
    ]
  },
  {
    "name": "フクイレジャーランドワイプラザ店",
    "operation_time": "一部24時間営業",
    "holiday": "無し",
    "latitude": "36.08750805",
    "longitude": "136.2494211",
    "tel": "0776-57-0433",
    "address": "福井市新保北1-303ヤスサキワイプラザB棟2F",
    "access": "国道8号線沿い福井市内新保交差点近くワイプラザ内",
    "games": [
      "麻雀ファイトガール"
    ]
  },
  {
    "name": "GiGO福井",
    "operation_time": "",
    "holiday": "",
    "latitude": "36.073357",
    "longitude": "136.243038",
    "tel": "0776-52-0806",
    "address": "福井市丸山町1-410",
    "access": "",
    "games": [
      "麻雀ファイトガール"
    ]
  },
  {
    "name": "福井レジャーランド板垣店",
    "operation_time": "",
    "holiday": "",
    "latitude": "36.042283",
    "longitude": "136.233748",
    "tel": "0776-33-5510",
    "address": "福井市下馬3-112",
    "access": "",
    "games": [
      "麻雀ファイトガール"
    ]
  },
  {
    "name": "ラウンドワン金沢店",
    "operation_time": "",
    "holiday": "",
    "latitude": "36.54211559",
    "longitude": "136.626054",
    "tel": "076-245-1850",
    "address": "金沢市横川6-120-1",
    "access": "",
    "games": [
      "麻雀ファイトガール"
    ]
  },
  {
    "name": "キッズサーカスシピィ店",
    "operation_time": "",
    "holiday": "",
    "latitude": "35.90367935",
    "longitude": "136.1521765",
    "tel": "0778-42-6880",
    "address": "越前市新町7-8",
    "access": "",
    "games": [
      "麻雀ファイトガール"
    ]
  },
  {
    "name": "GiGO武生",
    "operation_time": "",
    "holiday": "",
    "latitude": "35.905197",
    "longitude": "136.153466",
    "tel": "0778-21-1675",
    "address": "越前市新町3ー13-4",
    "access": "",
    "games": [
      "麻雀ファイトガール"
    ]
  },
  {
    "name": "ラウンドワン伊丹店",
    "operation_time": "",
    "holiday": "",
    "latitude": "34.77891327",
    "longitude": "135.3932572",
    "tel": "0727-75-4150",
    "address": "伊丹市昆陽7-29",
    "access": "",
    "games": [
      "麻雀ファイトガール"
    ]
  },
  {
    "name": "ジョイランド敦賀店",
    "operation_time": "10:00～24:00",
    "holiday": "無し",
    "latitude": "35.64473762",
    "longitude": "136.0430148",
    "tel": "0770-37-1616",
    "address": "敦賀市木崎40-土三田12USAアリーナ内",
    "access": "",
    "games": [
      "麻雀ファイトガール"
    ]
  },
  {
    "name": "ラウンドワンJR尼崎駅前店",
    "operation_time": "",
    "holiday": "",
    "latitude": "34.73331738",
    "longitude": "135.4329448",
    "tel": "06-6495-4177",
    "address": "尼崎市潮江1-4-5プラストいきいきビル4F",
    "access": "",
    "games": [
      "麻雀ファイトガール"
    ]
  },
  {
    "name": "ラウンドワン豊中店",
    "operation_time": "",
    "holiday": "",
    "latitude": "34.75733488",
    "longitude": "135.465555",
    "tel": "06-6865-2200",
    "address": "豊中市名神口1-1-1",
    "access": "",
    "games": [
      "麻雀ファイトガール"
    ]
  },
  {
    "name": "ユーズランド和歌山店",
    "operation_time": "10:00～21:00",
    "holiday": "",
    "latitude": "34.275743",
    "longitude": "135.149066",
    "tel": "073-452-1668",
    "address": "和歌山市ふじと台23イオンモール和歌山2F",
    "access": "",
    "games": [
      "麻雀ファイトガール"
    ]
  },
  {
    "name": "ピタゴラス和歌山店",
    "operation_time": "",
    "holiday": "",
    "latitude": "34.25253983",
    "longitude": "135.1463143",
    "tel": "070-1479-6710",
    "address": "和歌山市土入73-1",
    "access": "",
    "games": [
      "麻雀ファイトガール"
    ]
  },
  {
    "name": "ゲームSPOT207",
    "operation_time": "7:00～24:00",
    "holiday": "無し",
    "latitude": "36.73235328",
    "longitude": "137.0023356",
    "tel": "0766-26-2070",
    "address": "高岡市鐘紡町1655-3",
    "access": "JR高岡駅から車で15分",
    "games": [
      "麻雀ファイトガール"
    ]
  },
  {
    "name": "あそVIVA阪急茨木店",
    "operation_time": "",
    "holiday": "",
    "latitude": "34.817929",
    "longitude": "135.576325",
    "tel": "072-631-6606",
    "address": "茨木市永代町6-2スポーツプラザ茨木2F",
    "access": "",
    "games": [
      "麻雀ファイトガール"
    ]
  },
  {
    "name": "ぞうさん",
    "operation_time": "",
    "holiday": "",
    "latitude": "36.69943034",
    "longitude": "136.985008",
    "tel": "0766-63-6154",
    "address": "高岡市戸出町野瀬689",
    "access": "",
    "games": [
      "麻雀ファイトガール"
    ]
  },
  {
    "name": "ラウンドワン東淀川店",
    "operation_time": "",
    "holiday": "",
    "latitude": "34.74289355",
    "longitude": "135.5255278",
    "tel": "06-6160-2221",
    "address": "大阪市東淀川区菅原7-14-29",
    "access": "",
    "games": [
      "麻雀ファイトガール"
    ]
  },
  {
    "name": "ラウンドワン梅田店",
    "operation_time": "",
    "holiday": "",
    "latitude": "34.70337769",
    "longitude": "135.5009178",
    "tel": "06-6312-6800",
    "address": "大阪市北区小松原町4-16",
    "access": "",
    "games": [
      "麻雀ファイトガール"
    ]
  },
  {
    "name": "ユーズランド高岡店",
    "operation_time": "10:00～21:00",
    "holiday": "無し",
    "latitude": "36.72378877",
    "longitude": "137.016935",
    "tel": "0766-27-2411",
    "address": "高岡市下伏間江383イオンモール高岡2F",
    "access": "イオン高岡SC2FJR高岡駅よりバスで10分能越自動車道高岡ICより東へ約3km",
    "games": [
      "麻雀ファイトガール"
    ]
  },
  {
    "name": "ゲームパニック堺",
    "operation_time": "10:00～23:45",
    "holiday": "無し",
    "latitude": "34.597817",
    "longitude": "135.447433",
    "tel": "072-224-8295",
    "address": "堺市堺区築港八幡町1-1堺浜シーサイド内堺浜えんため館",
    "access": "南海バス20系統「堺市内北回り」 堺駅西口→堺浜シーサイドステージ約17分 堺東駅→堺浜シーサイドステージ約25分",
    "games": [
      "麻雀ファイトガール"
    ]
  },
  {
    "name": "ラウンドワン千日前店",
    "operation_time": "",
    "holiday": "",
    "latitude": "34.667424",
    "longitude": "135.5026714",
    "tel": "06-4708-2600",
    "address": "大阪市中央区難波1-3-1",
    "access": "",
    "games": [
      "麻雀ファイトガール"
    ]
  },
  {
    "name": "GiGO難波アビオン",
    "operation_time": "",
    "holiday": "",
    "latitude": "34.66278737",
    "longitude": "135.5032116",
    "tel": "070-1458-1437",
    "address": "大阪市浪速区難波中2-3-15MMOビル1-2F",
    "access": "",
    "games": [
      "麻雀ファイトガール"
    ]
  },
  {
    "name": "タイトーステーション大阪日本橋店",
    "operation_time": "10:00～24:00",
    "holiday": "無し",
    "latitude": "34.660362",
    "longitude": "135.506113",
    "tel": "06-6630-7270",
    "address": "大阪市浪速区日本橋4-9-14",
    "access": "地下鉄なんば駅・日本橋駅・恵美須町駅から約7分ほど。",
    "games": [
      "麻雀ファイトガール"
    ]
  },
  {
    "name": "ラウンドワン高槻店",
    "operation_time": "",
    "holiday": "",
    "latitude": "34.83266921",
    "longitude": "135.6301782",
    "tel": "072-672-9933",
    "address": "高槻市辻子3-6-4",
    "access": "",
    "games": [
      "麻雀ファイトガール"
    ]
  },
  {
    "name": "ラウンドワン和歌山店",
    "operation_time": "",
    "holiday": "",
    "latitude": "34.19849168",
    "longitude": "135.1859428",
    "tel": "073-421-8210",
    "address": "和歌山市小雑賀739-3",
    "access": "",
    "games": [
      "麻雀ファイトガール"
    ]
  },
  {
    "name": "ゲームプラザエム",
    "operation_time": "",
    "holiday": "",
    "latitude": "34.735265",
    "longitude": "135.564645",
    "tel": "06-6991-0363",
    "address": "守口市本町1-3-3",
    "access": "",
    "games": [
      "麻雀ファイトガール"
    ]
  },
  {
    "name": "ラウンドワン京都河原町店",
    "operation_time": "",
    "holiday": "",
    "latitude": "35.00699573",
    "longitude": "135.7685149",
    "tel": "075-213-8400",
    "address": "京都市中京区河原町通り三条下ル山崎町250",
    "access": "",
    "games": [
      "麻雀ファイトガール"
    ]
  },
  {
    "name": "ラウンドワン守口店",
    "operation_time": "",
    "holiday": "",
    "latitude": "34.7562488",
    "longitude": "135.5886793",
    "tel": "06-6907-9270",
    "address": "守口市佐太東町2-6-14ジャガーグリーン2F",
    "access": "",
    "games": [
      "麻雀ファイトガール"
    ]
  },
  {
    "name": "GiGOあべのアポロ",
    "operation_time": "10:00～24:00",
    "holiday": "",
    "latitude": "34.646623",
    "longitude": "135.511677",
    "tel": "06-6647-0716",
    "address": "大阪市阿倍野区阿倍野筋1-5-31アポロビル3F･4F",
    "access": "JR 天王寺駅・近鉄あべの橋駅より徒歩3分 アポロビル 3F",
    "games": [
      "麻雀ファイトガール"
    ]
  },
  {
    "name": "ラウンドワン堺駅前店",
    "operation_time": "",
    "holiday": "",
    "latitude": "34.58340412",
    "longitude": "135.468425",
    "tel": "072-222-0120",
    "address": "堺市堺区戎島町4-44-3",
    "access": "",
    "games": [
      "麻雀ファイトガール"
    ]
  },
  {
    "name": "星狩物語岸和田店",
    "operation_time": "10:00～24:00",
    "holiday": "無し",
    "latitude": "34.45453199",
    "longitude": "135.3850619",
    "tel": "072-432-3841",
    "address": "岸和田市作才町1047",
    "access": "南海岸和田駅より徒歩10分",
    "games": [
      "麻雀ファイトガール"
    ]
  },
  {
    "name": "ラウンドワン岸和田店",
    "operation_time": "",
    "holiday": "",
    "latitude": "34.45649962",
    "longitude": "135.3885278",
    "tel": "072-429-1100",
    "address": "岸和田市八阪町2-11-1",
    "access": "",
    "games": [
      "麻雀ファイトガール"
    ]
  },
  {
    "name": "ラウンドワン城東放出店",
    "operation_time": "",
    "holiday": "",
    "latitude": "34.69651235",
    "longitude": "135.559648",
    "tel": "06-6936-0100",
    "address": "大阪市城東区今福南3-4-38",
    "access": "",
    "games": [
      "麻雀ファイトガール"
    ]
  },
  {
    "name": "モンキートリック",
    "operation_time": "10:00～24:00",
    "holiday": "無し",
    "latitude": "34.78316526",
    "longitude": "135.628799",
    "tel": "072-835-6361",
    "address": "寝屋川市香里南之町32-5",
    "access": "京阪本線香里園駅下車徒歩2分",
    "games": [
      "麻雀ファイトガール"
    ]
  },
  {
    "name": "ラウンドワン京都伏見店",
    "operation_time": "",
    "holiday": "",
    "latitude": "34.93599659",
    "longitude": "135.746198",
    "tel": "075-622-9911",
    "address": "京都市伏見区下鳥羽平塚町131",
    "access": "",
    "games": [
      "麻雀ファイトガール"
    ]
  },
  {
    "name": "クァトロブーム小杉",
    "operation_time": "",
    "holiday": "",
    "latitude": "36.7205",
    "longitude": "137.092912",
    "tel": "0766-57-8219",
    "address": "射水市三ケ2602",
    "access": "",
    "games": [
      "麻雀ファイトガール"
    ]
  },
  {
    "name": "GiGO布施",
    "operation_time": "",
    "holiday": "",
    "latitude": "34.66416946",
    "longitude": "135.5628455",
    "tel": "06-6783-6999",
    "address": "東大阪市長堂1-1-1ロンモール布施内",
    "access": "",
    "games": [
      "麻雀ファイトガール"
    ]
  },
  {
    "name": "GiGO北見",
    "operation_time": "10:00～24:00",
    "holiday": "無し",
    "latitude": "43.79655355",
    "longitude": "143.8426866",
    "tel": "080-7437-9057",
    "address": "北見市西三輪5-1-16",
    "access": "国道39号 大雪大通沿い",
    "games": [
      "麻雀ファイトガール"
    ]
  },
  {
    "name": "トップラン東大阪",
    "operation_time": "",
    "holiday": "",
    "latitude": "34.69383",
    "longitude": "135.61757",
    "tel": "072-970-6923",
    "address": "東大阪市東鴻池町1-6-30イオンタウン東大阪2F",
    "access": "",
    "games": [
      "麻雀ファイトガール"
    ]
  },
  {
    "name": "ラウンドワン堺中央環状店",
    "operation_time": "",
    "holiday": "",
    "latitude": "34.55707895",
    "longitude": "135.5362412",
    "tel": "072-253-9559",
    "address": "堺市東区石原町2-241",
    "access": "",
    "games": [
      "麻雀ファイトガール"
    ]
  },
  {
    "name": "ラウンドワン東大阪店",
    "operation_time": "",
    "holiday": "",
    "latitude": "34.6531932",
    "longitude": "135.60637",
    "tel": "06-6224-1700",
    "address": "東大阪市若江南町1-2-12",
    "access": "",
    "games": [
      "麻雀ファイトガール"
    ]
  },
  {
    "name": "ラウンドワン浜大津アーカス店",
    "operation_time": "",
    "holiday": "",
    "latitude": "35.010557",
    "longitude": "135.866804",
    "tel": "077-526-8722",
    "address": "大津市浜町2-1浜大津アーカス4F",
    "access": "",
    "games": [
      "麻雀ファイトガール"
    ]
  },
  {
    "name": "トヤマレジャーランド呉羽店",
    "operation_time": "一部24時間営業",
    "holiday": "無し",
    "latitude": "36.71545083",
    "longitude": "137.1579046",
    "tel": "076-434-5336",
    "address": "富山市高木字貝塚2054",
    "access": "県道44号線沿い呉羽本町交差点を富山方面方向に車で3分",
    "games": [
      "麻雀ファイトガール"
    ]
  },
  {
    "name": "滋賀レジャーランド大津店",
    "operation_time": "",
    "holiday": "",
    "latitude": "35.003875",
    "longitude": "135.883431",
    "tel": "077-548-7851",
    "address": "大津市におの浜3-1-43",
    "access": "",
    "games": [
      "麻雀ファイトガール"
    ]
  },
  {
    "name": "ラウンドワン青森店",
    "operation_time": "",
    "holiday": "",
    "latitude": "40.79867718",
    "longitude": "140.7483213",
    "tel": "017-762-3591",
    "address": "青森市浜田3-1-1",
    "access": "",
    "games": [
      "麻雀ファイトガール"
    ]
  },
  {
    "name": "ゲームフェイス八尾",
    "operation_time": "平日10:00～24:00 土日祝9:00～24:00",
    "holiday": "無し",
    "latitude": "34.6039863",
    "longitude": "135.6123324",
    "tel": "0729-48-2306",
    "address": "八尾市天王寺屋2-68",
    "access": "JR大和路線「志紀駅」下車徒歩7分",
    "games": [
      "麻雀ファイトガール"
    ]
  },
  {
    "name": "キッズサーカス五福",
    "operation_time": "",
    "holiday": "",
    "latitude": "36.69555337",
    "longitude": "137.192538",
    "tel": "076-433-0051",
    "address": "富山市五福1143-1アリスショッピングセンター内",
    "access": "新富山駅出口から徒歩約5分 大学前(富山県)駅出口から徒歩約9分(道案内)",
    "games": [
      "麻雀ファイトガール"
    ]
  },
  {
    "name": "ネットアクション守山",
    "operation_time": "一部24時間営業",
    "holiday": "無し",
    "latitude": "35.0693009",
    "longitude": "135.9953524",
    "tel": "077-583-5122",
    "address": "守山市播磨田町306",
    "access": "JR守山駅からバス10分",
    "games": [
      "麻雀ファイトガール"
    ]
  },
  {
    "name": "エースレーン草津",
    "operation_time": "10:00～24:00",
    "holiday": "無し",
    "latitude": "34.99965692",
    "longitude": "135.9463199",
    "tel": "077-569-0472",
    "address": "草津市野路3-1-11",
    "access": "JR東海道線南草津駅より徒歩10分。国道1号線南田山交差点そば",
    "games": [
      "麻雀ファイトガール"
    ]
  },
  {
    "name": "富山レジャーランド掛尾店",
    "operation_time": "",
    "holiday": "",
    "latitude": "36.66605175",
    "longitude": "137.208892",
    "tel": "076-413-2606",
    "address": "富山市掛尾町360-1",
    "access": "",
    "games": [
      "麻雀ファイトガール"
    ]
  },
  {
    "name": "タイトーFステーションイオン近江八幡店",
    "operation_time": "",
    "holiday": "",
    "latitude": "35.12047338",
    "longitude": "136.1037493",
    "tel": "0748-38-5172",
    "address": "近江八幡市鷹飼町190-9イオン近江八幡2番街 1F",
    "access": "",
    "games": [
      "麻雀ファイトガール"
    ]
  },
  {
    "name": "ゲームスポットアップル",
    "operation_time": "",
    "holiday": "",
    "latitude": "36.8255737",
    "longitude": "137.4142933",
    "tel": "0765-24-7740",
    "address": "魚津市吉島2-407-1",
    "access": "",
    "games": [
      "麻雀ファイトガール"
    ]
  },
  {
    "name": "プレイランド黒部",
    "operation_time": "5:00～24:00",
    "holiday": "無し",
    "latitude": "36.88891002",
    "longitude": "137.4646533",
    "tel": "0765-52-5141",
    "address": "黒部市沓掛645",
    "access": "国道8号線沿い黒部IC入口交差点近く",
    "games": [
      "麻雀ファイトガール"
    ]
  },
  {
    "name": "ラウンドワン奈良ミナーラ店",
    "operation_time": "",
    "holiday": "",
    "latitude": "34.685231",
    "longitude": "135.802224",
    "tel": "0742-32-3900",
    "address": "奈良市二条大路南1-3-1ミ･ナーラ5F",
    "access": "",
    "games": [
      "麻雀ファイトガール"
    ]
  },
  {
    "name": "キッズサーカス奈良柏木店",
    "operation_time": "",
    "holiday": "",
    "latitude": "34.67167",
    "longitude": "135.799186",
    "tel": "0742-93-4464",
    "address": "奈良市柏木町456-1",
    "access": "",
    "games": [
      "麻雀ファイトガール"
    ]
  },
  {
    "name": "彦根パスカ",
    "operation_time": "13:00～24:00",
    "holiday": "無し",
    "latitude": "35.25868777",
    "longitude": "136.2653241",
    "tel": "070-3166-4833",
    "address": "彦根市西沼波町166",
    "access": "近江鉄道ひこね芹川駅下車徒歩10分",
    "games": [
      "麻雀ファイトガール"
    ]
  },
  {
    "name": "GiGOドリームタウン白樺",
    "operation_time": "9:00～翌3:00",
    "holiday": "無し",
    "latitude": "42.91947724",
    "longitude": "143.174195",
    "tel": "080-7422-4566",
    "address": "帯広市白樺16条西2ドリームタウン白樺内",
    "access": "ドリームタウン白樺内",
    "games": [
      "麻雀ファイトガール"
    ]
  },
  {
    "name": "GiGO帯広稲田",
    "operation_time": "平日・祝日10:00～24:00 / 土日8:00～24:00",
    "holiday": "無し",
    "latitude": "42.89057652",
    "longitude": "143.1965812",
    "tel": "080-7351-3976",
    "address": "帯広市稲田町南8線西12-1スズランボウル内",
    "access": "イトーヨーカドー帯広店隣り",
    "games": [
      "麻雀ファイトガール"
    ]
  },
  {
    "name": "ラウンドワン秋田店",
    "operation_time": "",
    "holiday": "",
    "latitude": "39.70235247",
    "longitude": "140.1092394",
    "tel": "018-896-6711",
    "address": "秋田市卸町1-1-2",
    "access": "",
    "games": [
      "麻雀ファイトガール"
    ]
  },
  {
    "name": "アミューズメントスペースコミ丸アリババ大垣店",
    "operation_time": "10:00～24:00",
    "holiday": "無し",
    "latitude": "35.38404596",
    "longitude": "136.5956139",
    "tel": "050-3575-0530",
    "address": "大垣市池尻町940-1",
    "access": "関が原バイパス沿い",
    "games": [
      "麻雀ファイトガール"
    ]
  },
  {
    "name": "ラウンドワンモレラ岐阜店",
    "operation_time": "",
    "holiday": "",
    "latitude": "35.455121",
    "longitude": "136.672955",
    "tel": "058-323-6600",
    "address": "本巣市三橋1100",
    "access": "",
    "games": [
      "麻雀ファイトガール"
    ]
  },
  {
    "name": "岐阜レジャーランド穂積店",
    "operation_time": "7:00～24:00",
    "holiday": "無し",
    "latitude": "35.38432479",
    "longitude": "136.6846653",
    "tel": "058-326-1133",
    "address": "瑞穂市稲里630",
    "access": "国道21号線沿い瑞穂市野田新田交差点近く",
    "games": [
      "麻雀ファイトガール"
    ]
  },
  {
    "name": "ゲームファンタジアン柳津店",
    "operation_time": "一部24時間営業",
    "holiday": "無し",
    "latitude": "35.37596826",
    "longitude": "136.7145391",
    "tel": "058-279-0085",
    "address": "岐阜市柳津町上佐波西3-68",
    "access": "岐阜県ふれあい会館から南に4分",
    "games": [
      "麻雀ファイトガール"
    ]
  },
  {
    "name": "A.Cグランド",
    "operation_time": "9:00～24:00",
    "holiday": "無し",
    "latitude": "35.38308553",
    "longitude": "136.7461998",
    "tel": "058-275-0351",
    "address": "岐阜市茜部大川1-77",
    "access": "名鉄新岐阜駅15分",
    "games": [
      "麻雀ファイトガール"
    ]
  },
  {
    "name": "上越レジャーランボウル",
    "operation_time": "一部24時間営業",
    "holiday": "無し",
    "latitude": "37.16405087",
    "longitude": "138.2489336",
    "tel": "0255-31-2030",
    "address": "上越市下門前薬島827-2",
    "access": "国道8号線沿い高岡市内関川大橋そば",
    "games": [
      "麻雀ファイトガール"
    ]
  },
  {
    "name": "タイトーFステーション上越店",
    "operation_time": "",
    "holiday": "",
    "latitude": "37.148097",
    "longitude": "138.259034",
    "tel": "025-530-7115",
    "address": "上越市富岡3524J-maxシアター内1F",
    "access": "J-MAXシアター1F",
    "games": [
      "麻雀ファイトガール"
    ]
  },
  {
    "name": "GiGO生桑",
    "operation_time": "",
    "holiday": "",
    "latitude": "34.986457",
    "longitude": "136.601599",
    "tel": "059-332-9988",
    "address": "四日市市生桑町299-1",
    "access": "",
    "games": [
      "麻雀ファイトガール"
    ]
  },
  {
    "name": "ユーズランド下田店",
    "operation_time": "10:00～21:00",
    "holiday": "無し",
    "latitude": "40.60188383",
    "longitude": "141.4176032",
    "tel": "0178-50-3237",
    "address": "上北郡おいらせ町中野平40-1イオンモール下田1F",
    "access": "イオン下田SC1・2FJR下田駅よりバスで10分八戸市より車で約15km、三沢市より車で約15km",
    "games": [
      "麻雀ファイトガール"
    ]
  },
  {
    "name": "GiGOトナリエ四日市",
    "operation_time": "",
    "holiday": "",
    "latitude": "34.96844971",
    "longitude": "136.6166023",
    "tel": "059-356-3385",
    "address": "四日市市安島1-3-31トナリエ四日市5F",
    "access": "",
    "games": [
      "麻雀ファイトガール"
    ]
  },
  {
    "name": "アミューズメントスペースコミ丸四日市店",
    "operation_time": "",
    "holiday": "",
    "latitude": "34.96631",
    "longitude": "136.61633",
    "tel": "059-325-7685",
    "address": "四日市市鵜の森1-3-19",
    "access": "",
    "games": [
      "麻雀ファイトガール"
    ]
  },
  {
    "name": "アピナ四日市店",
    "operation_time": "",
    "holiday": "",
    "latitude": "34.94000426",
    "longitude": "136.6070666",
    "tel": "059-349-5011",
    "address": "四日市市泊小柳町4-34",
    "access": "",
    "games": [
      "麻雀ファイトガール"
    ]
  },
  {
    "name": "ラウンドワン名古屋西春店",
    "operation_time": "",
    "holiday": "",
    "latitude": "35.25506282",
    "longitude": "136.8439405",
    "tel": "0568-26-4001",
    "address": "北名古屋市宇福寺神明15",
    "access": "",
    "games": [
      "麻雀ファイトガール"
    ]
  },
  {
    "name": "ラウンドワンみえ川越IC店",
    "operation_time": "",
    "holiday": "",
    "latitude": "35.02319916",
    "longitude": "136.6836502",
    "tel": "059-361-2130",
    "address": "三重郡川越町大字南福崎851-1",
    "access": "",
    "games": [
      "麻雀ファイトガール"
    ]
  },
  {
    "name": "アミューズメントワールドメトロポリス小牧店",
    "operation_time": "平日10:00～23:50 土日祝日前 9:00～23:50",
    "holiday": "無し",
    "latitude": "35.2951722",
    "longitude": "136.905659",
    "tel": "0568-71-0005",
    "address": "小牧市村中新町33",
    "access": "名神高速小牧インターより南へ1km R41号間々本町交差点角",
    "games": [
      "麻雀ファイトガール"
    ]
  },
  {
    "name": "ラウンドワン新潟店",
    "operation_time": "",
    "holiday": "",
    "latitude": "37.88807436",
    "longitude": "139.0177537",
    "tel": "025-280-1322",
    "address": "新潟市中央区美咲町2-1-38",
    "access": "",
    "games": [
      "麻雀ファイトガール"
    ]
  },
  {
    "name": "オリエンタルバッティングセンター可児店",
    "operation_time": "",
    "holiday": "",
    "latitude": "35.4295369",
    "longitude": "137.0390315",
    "tel": "0574-61-3991",
    "address": "可児市今渡695-1",
    "access": "",
    "games": [
      "麻雀ファイトガール"
    ]
  },
  {
    "name": "プレイハウスエリナ",
    "operation_time": "",
    "holiday": "",
    "latitude": "37.71741366",
    "longitude": "138.8908286",
    "tel": "0256-82-4541",
    "address": "新潟市西蒲区津雲田640",
    "access": "JR「岩室駅」より車で5分。駅より国道116号を南下し国道沿い右側。",
    "games": [
      "麻雀ファイトガール"
    ]
  },
  {
    "name": "BOX.Q3",
    "operation_time": "10:00～24:00",
    "holiday": "無し",
    "latitude": "35.17310098",
    "longitude": "136.876603",
    "tel": "052-452-0920",
    "address": "名古屋市中村区則武1-16-8第一Uコーポ1F",
    "access": "各線名古屋駅 太閤口徒歩5分",
    "games": [
      "麻雀ファイトガール"
    ]
  },
  {
    "name": "GiGO春日井",
    "operation_time": "",
    "holiday": "",
    "latitude": "35.26954",
    "longitude": "136.96052",
    "tel": "0568-89-3081",
    "address": "春日井市岩野町4180",
    "access": "",
    "games": [
      "麻雀ファイトガール"
    ]
  },
  {
    "name": "コムテックタワー",
    "operation_time": "平日10:00～24:00、土日祝9:00～24:00",
    "holiday": "",
    "latitude": "35.16941986",
    "longitude": "136.885993",
    "tel": "052-565-6471",
    "address": "名古屋市中村区名駅4-10-20",
    "access": "JR名古屋駅徒歩5分",
    "games": [
      "麻雀ファイトガール"
    ]
  },
  {
    "name": "ラウンドワン津･高茶屋店",
    "operation_time": "",
    "holiday": "",
    "latitude": "34.6726828",
    "longitude": "136.5194663",
    "tel": "059-238-0011",
    "address": "津市高茶屋小森町277-8",
    "access": "",
    "games": [
      "麻雀ファイトガール"
    ]
  },
  {
    "name": "GiGOマーケットスクエアささしま",
    "operation_time": "",
    "holiday": "",
    "latitude": "35.162736",
    "longitude": "136.884929",
    "tel": "070-1458-1766",
    "address": "名古屋市中村区平池町4-60-14",
    "access": "",
    "games": [
      "麻雀ファイトガール"
    ]
  },
  {
    "name": "ラウンドワン中川一号線店",
    "operation_time": "",
    "holiday": "",
    "latitude": "35.12338322",
    "longitude": "136.8636484",
    "tel": "052-665-5353",
    "address": "名古屋市中川区法蔵町2-23",
    "access": "",
    "games": [
      "麻雀ファイトガール"
    ]
  },
  {
    "name": "アピナ鶴岡店",
    "operation_time": "",
    "holiday": "",
    "latitude": "38.75839782",
    "longitude": "139.8439993",
    "tel": "0235-29-1141",
    "address": "鶴岡市文下字広野1-1",
    "access": "",
    "games": [
      "麻雀ファイトガール"
    ]
  },
  {
    "name": "公楽園",
    "operation_time": "10:00～24:00",
    "holiday": "無し",
    "latitude": "37.63369507",
    "longitude": "138.8655143",
    "tel": "0256-97-1575",
    "address": "燕市熊森1283-1",
    "access": "JR「分水駅」より車で10分。国道116号線を北上し国道沿い右側。",
    "games": [
      "麻雀ファイトガール"
    ]
  },
  {
    "name": "キングジョイ",
    "operation_time": "9:00～24:00",
    "holiday": "無し",
    "latitude": "35.16797694",
    "longitude": "136.9050444",
    "tel": "052-241-9515",
    "address": "名古屋市中区栄3-3-32",
    "access": "地下鉄栄駅徒歩3分",
    "games": [
      "麻雀ファイトガール"
    ]
  },
  {
    "name": "タイトーステーションフェドラ大須店",
    "operation_time": "10:00～24:00",
    "holiday": "無し",
    "latitude": "35.15945319",
    "longitude": "136.9054236",
    "tel": "052-242-2011",
    "address": "名古屋市中区大須3-30-31萬松寺駐車場ビル1F･2F",
    "access": "地下鉄名城線上前津駅より徒歩1分",
    "games": [
      "麻雀ファイトガール"
    ]
  },
  {
    "name": "コムテックスクウェア金山",
    "operation_time": "9:00～24:00",
    "holiday": "",
    "latitude": "35.14401179",
    "longitude": "136.8999767",
    "tel": "052-321-5601",
    "address": "名古屋市中区金山1-16-8",
    "access": "名鉄金山駅徒歩3分",
    "games": [
      "麻雀ファイトガール"
    ]
  },
  {
    "name": "GiGO金山",
    "operation_time": "",
    "holiday": "",
    "latitude": "35.14264312",
    "longitude": "136.9023578",
    "tel": "052-323-0121",
    "address": "名古屋市熱田区金山町1-19-2",
    "access": "",
    "games": [
      "麻雀ファイトガール"
    ]
  },
  {
    "name": "ラウンドワン千種店",
    "operation_time": "",
    "holiday": "",
    "latitude": "35.16799971",
    "longitude": "136.9279985",
    "tel": "052-238-1615",
    "address": "名古屋市千種区新栄3-20-17タイホウ千種駅前南ビル8F",
    "access": "",
    "games": [
      "麻雀ファイトガール"
    ]
  },
  {
    "name": "ADXマミー春日井出川店",
    "operation_time": "",
    "holiday": "",
    "latitude": "35.26729521",
    "longitude": "137.012739",
    "tel": "0568-54-8590",
    "address": "春日井市不二が丘1-5",
    "access": "",
    "games": [
      "麻雀ファイトガール"
    ]
  },
  {
    "name": "名古屋レジャーランド内田橋店",
    "operation_time": "一部24時間営業",
    "holiday": "無し",
    "latitude": "35.1137072",
    "longitude": "136.9098069",
    "tel": "052-694-6051",
    "address": "名古屋市南区内田橋2-26-22",
    "access": "名鉄常滑線豊田本町駅近く",
    "games": [
      "麻雀ファイトガール"
    ]
  },
  {
    "name": "アピナ長岡店",
    "operation_time": "10:00～24:00",
    "holiday": "無し",
    "latitude": "37.45794202",
    "longitude": "138.8125194",
    "tel": "0258-22-5510",
    "address": "長岡市堺東町22",
    "access": "国道8号線長岡バイパス堺交差点近く",
    "games": [
      "麻雀ファイトガール"
    ]
  },
  {
    "name": "ラウンドワン鳴海店",
    "operation_time": "",
    "holiday": "",
    "latitude": "35.09913151",
    "longitude": "136.9528735",
    "tel": "052-899-0700",
    "address": "名古屋市緑区鳴海町字杜若28",
    "access": "",
    "games": [
      "麻雀ファイトガール"
    ]
  },
  {
    "name": "ゲームパニック大高",
    "operation_time": "9:00～23:45",
    "holiday": "無し",
    "latitude": "35.04850561",
    "longitude": "136.9496236",
    "tel": "052-625-5360",
    "address": "名古屋市緑区忠治山201グランドボウルB2F",
    "access": "国道23号線大高町共和IC側道グランドボウルB2階",
    "games": [
      "麻雀ファイトガール"
    ]
  },
  {
    "name": "ゲームセンターテクノポリス",
    "operation_time": "10:00～24:00",
    "holiday": "無し",
    "latitude": "37.42498834",
    "longitude": "138.8377613",
    "tel": "0258-33-1516",
    "address": "長岡市要町1-8-50",
    "access": "JR「宮内駅」西口より徒歩で5分。県道498号線沿い。",
    "games": [
      "麻雀ファイトガール"
    ]
  },
  {
    "name": "ダイナソアエイジ",
    "operation_time": "",
    "holiday": "",
    "latitude": "35.03099",
    "longitude": "136.95617",
    "tel": "0562-47-1234",
    "address": "大府市東新町3-88",
    "access": "",
    "games": [
      "麻雀ファイトガール"
    ]
  },
  {
    "name": "ラウンドワン長野店",
    "operation_time": "",
    "holiday": "",
    "latitude": "36.65105714",
    "longitude": "138.225192",
    "tel": "026-254-5801",
    "address": "長野市大字東和田827-6",
    "access": "",
    "games": [
      "麻雀ファイトガール"
    ]
  },
  {
    "name": "ユーズランド東浦店",
    "operation_time": "10:00～21:00",
    "holiday": "無し",
    "latitude": "34.97885364",
    "longitude": "136.9741411",
    "tel": "0562-82-2782",
    "address": "知多郡東浦町大字緒川字旭13-2イオンモール東浦2F",
    "access": "イオン東浦SC2FJR緒川駅より徒歩5分知多半島道路東浦知多ICより約4km",
    "games": [
      "麻雀ファイトガール"
    ]
  },
  {
    "name": "M'sPARK刈谷店",
    "operation_time": "10:00～24:00",
    "holiday": "無し",
    "latitude": "35.00549344",
    "longitude": "137.0014494",
    "tel": "0566-27-5822",
    "address": "刈谷市稲場町3-206",
    "access": "155号沿い",
    "games": [
      "麻雀ファイトガール"
    ]
  },
  {
    "name": "ゲームダイコク",
    "operation_time": "",
    "holiday": "",
    "latitude": "34.880273",
    "longitude": "136.916512",
    "tel": "0569-24-1316",
    "address": "半田市青山2-27-1",
    "access": "",
    "games": [
      "麻雀ファイトガール"
    ]
  },
  {
    "name": "半田メトロポリス",
    "operation_time": "平日10:00～23:50 土日祝日前 9:00～23:50",
    "holiday": "無し",
    "latitude": "34.87469206",
    "longitude": "136.9217723",
    "tel": "0569-24-5226",
    "address": "半田市旭町3-11-1半田コロナワールド内2F",
    "access": "JR武豊線東成岩駅より徒歩1分",
    "games": [
      "麻雀ファイトガール"
    ]
  },
  {
    "name": "ラウンドワン半田店",
    "operation_time": "",
    "holiday": "",
    "latitude": "34.88609688",
    "longitude": "136.9412056",
    "tel": "0569-25-7351",
    "address": "半田市瑞穂町6-7-8",
    "access": "",
    "games": [
      "麻雀ファイトガール"
    ]
  },
  {
    "name": "アピナ松本",
    "operation_time": "10:00～24:00",
    "holiday": "無し",
    "latitude": "36.21052692",
    "longitude": "137.9610526",
    "tel": "0263-24-1133",
    "address": "松本市双葉19-10",
    "access": "国道19号線沿い、イトーヨーカドーそば",
    "games": [
      "麻雀ファイトガール"
    ]
  },
  {
    "name": "HapipiLand十日町店",
    "operation_time": "",
    "holiday": "",
    "latitude": "37.13648",
    "longitude": "138.7456",
    "tel": "080-7143-5507",
    "address": "十日町市丑735-1",
    "access": "",
    "games": [
      "麻雀ファイトガール"
    ]
  },
  {
    "name": "M'Sパーク豊田店",
    "operation_time": "一部24時間営業",
    "holiday": "",
    "latitude": "35.0565113",
    "longitude": "137.1404324",
    "tel": "0565-71-0027",
    "address": "豊田市寿町3-10-11",
    "access": "愛知環状鉄道三河豊田駅10分。名鉄三河線土橋駅より徒歩10分。",
    "games": [
      "麻雀ファイトガール"
    ]
  },
  {
    "name": "安城メトロポリス",
    "operation_time": "平日10:00～24:00、土日祝日9:00～24:00",
    "holiday": "無し",
    "latitude": "34.95485697",
    "longitude": "137.0975854",
    "tel": "0566-74-8238",
    "address": "安城市浜富町6-8",
    "access": "JR東海道本線安城駅より車で3分・徒歩10分",
    "games": [
      "麻雀ファイトガール"
    ]
  },
  {
    "name": "ラウンドワン盛岡店",
    "operation_time": "",
    "holiday": "",
    "latitude": "39.70035197",
    "longitude": "141.133077",
    "tel": "019-654-9011",
    "address": "盛岡市盛岡駅西通2-10-35",
    "access": "",
    "games": [
      "麻雀ファイトガール"
    ]
  },
  {
    "name": "サンシャイン",
    "operation_time": "10:00～24:00",
    "holiday": "無し",
    "latitude": "39.70320065",
    "longitude": "141.1454348",
    "tel": "019-622-9516",
    "address": "盛岡市大通2-7-21",
    "access": "盛岡大通り沿い",
    "games": [
      "麻雀ファイトガール"
    ]
  },
  {
    "name": "ADXマミー岡崎店",
    "operation_time": "",
    "holiday": "",
    "latitude": "34.97692806",
    "longitude": "137.161659",
    "tel": "0564-83-6262",
    "address": "岡崎市井田新町6-1",
    "access": "",
    "games": [
      "麻雀ファイトガール"
    ]
  },
  {
    "name": "GiGO北岡崎",
    "operation_time": "9:00～24:00",
    "holiday": "無し",
    "latitude": "34.97365547",
    "longitude": "137.1600268",
    "tel": "070-1393-5583",
    "address": "岡崎市錦町2-4",
    "access": "国道248号線沿い、愛知環状線北岡崎駅から徒歩3分",
    "games": [
      "麻雀ファイトガール"
    ]
  },
  {
    "name": "GiGO新庄",
    "operation_time": "",
    "holiday": "",
    "latitude": "38.76416135",
    "longitude": "140.3089553",
    "tel": "080-7037-0268",
    "address": "新庄市金沢字沖1068",
    "access": "",
    "games": [
      "麻雀ファイトガール"
    ]
  },
  {
    "name": "タイトーFステーション盛岡南店",
    "operation_time": "10:00～24:00",
    "holiday": "無し",
    "latitude": "39.666626",
    "longitude": "141.157277",
    "tel": "019-639-9185",
    "address": "盛岡市津志田町2-1-77",
    "access": "国道4号線沿い、津志田交差点近く。",
    "games": [
      "麻雀ファイトガール"
    ]
  },
  {
    "name": "プレイゾーンバンブー",
    "operation_time": "11:00～24:00",
    "holiday": "無し",
    "latitude": "37.051028",
    "longitude": "138.868007",
    "tel": "025-782-5277",
    "address": "南魚沼市竹俣60-6",
    "access": "JR「六日町」より車で5分。国道17号線沿い。",
    "games": [
      "麻雀ファイトガール"
    ]
  },
  {
    "name": "ポート24幸田",
    "operation_time": "10:00～24:00",
    "holiday": "無休",
    "latitude": "34.89016302",
    "longitude": "137.1632649",
    "tel": "0564-63-6588",
    "address": "額田郡幸田町大字高力字沖原15カメリアガーデン幸田内",
    "access": "東名高速音羽蒲郡ICから車で30分",
    "games": [
      "麻雀ファイトガール"
    ]
  },
  {
    "name": "豊川メトロポリス",
    "operation_time": "平日10:00～24:00 土日9:00～24:00",
    "holiday": "無し",
    "latitude": "34.80229218",
    "longitude": "137.3847976",
    "tel": "0533-85-6540",
    "address": "豊川市下長山町上アライ14-1",
    "access": "東名高速豊川インター南・国道151号線・城下交差点東へ500m",
    "games": [
      "麻雀ファイトガール"
    ]
  },
  {
    "name": "GiGO天童",
    "operation_time": "10:00～24:00",
    "holiday": "無し",
    "latitude": "38.34302924",
    "longitude": "140.3739732",
    "tel": "023-656-9370",
    "address": "天童市南町1-5-26",
    "access": "JR「天童駅」より車で10分。国道13号線を南下し国道沿い左側。",
    "games": [
      "麻雀ファイトガール"
    ]
  },
  {
    "name": "テクノワールド",
    "operation_time": "店舗にてご確認ください",
    "holiday": "無し",
    "latitude": "39.179225",
    "longitude": "141.162155",
    "tel": "0197-47-3619",
    "address": "奥州市江刺愛宕梁川127-1",
    "access": "",
    "games": [
      "麻雀ファイトガール"
    ]
  },
  {
    "name": "ラウンドワン豊橋店",
    "operation_time": "",
    "holiday": "",
    "latitude": "34.7239242",
    "longitude": "137.4323261",
    "tel": "0532-65-2212",
    "address": "豊橋市大岩町字岩田27-2",
    "access": "",
    "games": [
      "麻雀ファイトガール"
    ]
  },
  {
    "name": "GiGO米沢",
    "operation_time": "",
    "holiday": "",
    "latitude": "37.91095607",
    "longitude": "140.133677",
    "tel": "0238-24-0666",
    "address": "米沢市大字花沢字タナコ原177",
    "access": "",
    "games": [
      "麻雀ファイトガール"
    ]
  },
  {
    "name": "群馬レジャーランド渋川店",
    "operation_time": "",
    "holiday": "",
    "latitude": "36.4742053",
    "longitude": "139.0154654",
    "tel": "0279-25-0718",
    "address": "渋川市八木原1364",
    "access": "",
    "games": [
      "麻雀ファイトガール"
    ]
  },
  {
    "name": "GiGO会津若松",
    "operation_time": "9:00～24:00",
    "holiday": "無し",
    "latitude": "37.51832577",
    "longitude": "139.9222191",
    "tel": "0242-37-0777",
    "address": "会津若松市町北町上荒久田字宮下142",
    "access": "磐越道会津若松IC側",
    "games": [
      "麻雀ファイトガール"
    ]
  },
  {
    "name": "ポート24浜松店",
    "operation_time": "10:00～24:00",
    "holiday": "無休",
    "latitude": "34.68017431",
    "longitude": "137.6443768",
    "tel": "053-440-5588",
    "address": "浜松市中央区坪井町4183",
    "access": "東名高速浜松西ICから車で15分",
    "games": [
      "麻雀ファイトガール"
    ]
  },
  {
    "name": "ユーズランド高崎店",
    "operation_time": "10:00～21:00",
    "holiday": "",
    "latitude": "36.39047889",
    "longitude": "139.0067302",
    "tel": "027-310-9113",
    "address": "高崎市棟高町1400イオン高崎SC2F",
    "access": "",
    "games": [
      "麻雀ファイトガール"
    ]
  },
  {
    "name": "群馬レジャーランド高崎駅東口店",
    "operation_time": "一部24時間営業",
    "holiday": "無し",
    "latitude": "36.32992086",
    "longitude": "139.0128661",
    "tel": "027-330-3002",
    "address": "高崎市江木町333-1高崎EXビル2F",
    "access": "JR高崎駅東口徒歩10分",
    "games": [
      "麻雀ファイトガール"
    ]
  },
  {
    "name": "群馬レジャーランド前橋店",
    "operation_time": "",
    "holiday": "",
    "latitude": "36.40497647",
    "longitude": "139.0794189",
    "tel": "050-1726-4972",
    "address": "前橋市日吉町4-37-1",
    "access": "",
    "games": [
      "麻雀ファイトガール"
    ]
  },
  {
    "name": "ラウンドワン浜松店",
    "operation_time": "",
    "holiday": "",
    "latitude": "34.73795995",
    "longitude": "137.7638799",
    "tel": "053-461-1101",
    "address": "浜松市中央区天王町諏訪1981-17",
    "access": "",
    "games": [
      "麻雀ファイトガール"
    ]
  },
  {
    "name": "マトリクス前橋店",
    "operation_time": "10:00～24:00",
    "holiday": "無し",
    "latitude": "36.37294244",
    "longitude": "139.059637",
    "tel": "027-212-3133",
    "address": "前橋市小相木町563-3",
    "access": "県道13号線小相木交差点を高崎方面へ150m",
    "games": [
      "麻雀ファイトガール"
    ]
  },
  {
    "name": "サープラOZ浜松あそびタウン",
    "operation_time": "9:00～24:00",
    "holiday": "無し",
    "latitude": "34.72247074",
    "longitude": "137.7647101",
    "tel": "053-466-3387",
    "address": "浜松市中央区宮竹町322-1",
    "access": "東名高速浜松IC車で20分",
    "games": [
      "麻雀ファイトガール"
    ]
  },
  {
    "name": "ラウンドワン前橋店",
    "operation_time": "",
    "holiday": "",
    "latitude": "36.36888377",
    "longitude": "139.1051864",
    "tel": "027-287-1501",
    "address": "前橋市天川大島町1101-1",
    "access": "",
    "games": [
      "麻雀ファイトガール"
    ]
  },
  {
    "name": "ゲームパニック甲府",
    "operation_time": "",
    "holiday": "",
    "latitude": "35.64182781",
    "longitude": "138.547239",
    "tel": "080-3350-2893",
    "address": "甲府市国母5-20-24",
    "access": "",
    "games": [
      "麻雀ファイトガール"
    ]
  },
  {
    "name": "アピナ富谷店",
    "operation_time": "",
    "holiday": "",
    "latitude": "38.36528256",
    "longitude": "140.8765988",
    "tel": "022-341-5177",
    "address": "富谷市大清水1-33-1イオンモール109シネマズ富谷1F",
    "access": "",
    "games": [
      "麻雀ファイトガール"
    ]
  },
  {
    "name": "群馬レジャーランド藤岡店",
    "operation_time": "一部24時間営業",
    "holiday": "",
    "latitude": "36.27426745",
    "longitude": "139.0718857",
    "tel": "0274-40-2371",
    "address": "藤岡市中2002-1",
    "access": "県道13号沿い、上信越道藤岡IC北 カーオプション店『ピット100』2階",
    "games": [
      "麻雀ファイトガール"
    ]
  },
  {
    "name": "GAME BANK",
    "operation_time": "9:00～24:00",
    "holiday": "無し",
    "latitude": "38.352801",
    "longitude": "140.877385",
    "tel": "022-776-5677",
    "address": "仙台市泉区大沢2-5-4",
    "access": "東北自動車道 泉インター直ぐ",
    "games": [
      "麻雀ファイトガール"
    ]
  },
  {
    "name": "GiGOイオン仙台中山",
    "operation_time": "",
    "holiday": "",
    "latitude": "38.299061",
    "longitude": "140.828497",
    "tel": "022-347-3139",
    "address": "仙台市泉区南中山1-35-57イオン仙台中山店別館3F",
    "access": "",
    "games": [
      "麻雀ファイトガール"
    ]
  },
  {
    "name": "ラウンドワンスタジアム仙台泉店",
    "operation_time": "",
    "holiday": "",
    "latitude": "38.35192551",
    "longitude": "140.8797545",
    "tel": "022-347-4471",
    "address": "仙台市泉区大沢2-12-4仙台泉インターシティ1F",
    "access": "",
    "games": [
      "麻雀ファイトガール"
    ]
  },
  {
    "name": "インターワールド伊勢崎店",
    "operation_time": "10:00～24:00",
    "holiday": "無し",
    "latitude": "36.3315169",
    "longitude": "139.1624928",
    "tel": "0270-25-4338",
    "address": "伊勢崎市宮子町3425-4",
    "access": "関東自動車道駒形ICから5分。伊勢崎オートレース近く",
    "games": [
      "麻雀ファイトガール"
    ]
  },
  {
    "name": "群馬レジャーランド伊勢崎店",
    "operation_time": "一部24時間営業",
    "holiday": "無し",
    "latitude": "36.31824274",
    "longitude": "139.1723592",
    "tel": "0270-40-5330",
    "address": "伊勢崎市連取町3066-1",
    "access": "伊勢崎市内県道2号線沿い伊勢崎オート近く",
    "games": [
      "麻雀ファイトガール"
    ]
  },
  {
    "name": "GiGO仙台一番町",
    "operation_time": "",
    "holiday": "",
    "latitude": "38.26424",
    "longitude": "140.87121",
    "tel": "022-393-6746",
    "address": "仙台市青葉区一番町4-5-13サンシャインビル1F",
    "access": "",
    "games": [
      "麻雀ファイトガール"
    ]
  },
  {
    "name": "ラウンドワンさいたま･上里店",
    "operation_time": "",
    "holiday": "",
    "latitude": "36.259925",
    "longitude": "139.137383",
    "tel": "0495-35-2201",
    "address": "児玉郡上里町大字金久保字周川394-1",
    "access": "",
    "games": [
      "麻雀ファイトガール"
    ]
  },
  {
    "name": "タイトーステーション仙台クリスロード店",
    "operation_time": "9:00～24:00",
    "holiday": "無し",
    "latitude": "38.261006",
    "longitude": "140.875705",
    "tel": "022-262-2541",
    "address": "仙台市青葉区中央2-3-25",
    "access": "JR仙台駅・地下鉄仙台駅より徒歩8分(ハピナ名掛丁アーケード内)",
    "games": [
      "麻雀ファイトガール"
    ]
  },
  {
    "name": "GiGO仙台",
    "operation_time": "",
    "holiday": "",
    "latitude": "38.26181",
    "longitude": "140.87675",
    "tel": "022-211-1922",
    "address": "仙台市青葉区中央2-5-5三経60ビル",
    "access": "",
    "games": [
      "麻雀ファイトガール"
    ]
  },
  {
    "name": "ラウンドワン仙台苦竹店",
    "operation_time": "",
    "holiday": "",
    "latitude": "38.26828399",
    "longitude": "140.9172614",
    "tel": "022-788-2581",
    "address": "仙台市宮城野区苦竹1-7-10",
    "access": "",
    "games": [
      "麻雀ファイトガール"
    ]
  },
  {
    "name": "GiGO利府",
    "operation_time": "10:00～24:00",
    "holiday": "無し",
    "latitude": "38.32801132",
    "longitude": "140.9756135",
    "tel": "080-7500-4898",
    "address": "宮城郡利府町加瀬字新前谷地55-1",
    "access": "三陸自動車道 利府中IC下車利府バイパス沿い車で5分",
    "games": [
      "麻雀ファイトガール"
    ]
  },
  {
    "name": "ラウンドワン福島店",
    "operation_time": "",
    "holiday": "",
    "latitude": "37.75259469",
    "longitude": "140.4562354",
    "tel": "024-525-4731",
    "address": "福島市太田町14-18",
    "access": "",
    "games": [
      "麻雀ファイトガール"
    ]
  },
  {
    "name": "ユーズランド大河原店",
    "operation_time": "10:00～21:00",
    "holiday": "",
    "latitude": "38.065153",
    "longitude": "140.737021",
    "tel": "0224-51-1237",
    "address": "柴田郡大河原町字小島2-1フォルテ2F",
    "access": "",
    "games": [
      "麻雀ファイトガール"
    ]
  },
  {
    "name": "GiGO福島南",
    "operation_time": "10:00～24:00",
    "holiday": "無し",
    "latitude": "37.72791083",
    "longitude": "140.4671033",
    "tel": "024-544-0280",
    "address": "福島市黒岩字中島7-2",
    "access": "高速福島西ICより車で15分。国道4号線を右折し「黒岩」交差点手前左側。",
    "games": [
      "麻雀ファイトガール"
    ]
  },
  {
    "name": "ゲームコーナー東部",
    "operation_time": "9:00～24:00",
    "holiday": "無し",
    "latitude": "38.25101621",
    "longitude": "140.9438974",
    "tel": "022-287-5880",
    "address": "仙台市若林区六丁の目中町26-60",
    "access": "六丁目の交差点より多賀城方面へ向かい車で5分。産業通り沿い。",
    "games": [
      "麻雀ファイトガール"
    ]
  },
  {
    "name": "GiGO名取",
    "operation_time": "",
    "holiday": "",
    "latitude": "38.1565798",
    "longitude": "140.8882353",
    "tel": "022-384-8950",
    "address": "名取市飯野坂字土城堀57-1",
    "access": "",
    "games": [
      "麻雀ファイトガール"
    ]
  },
  {
    "name": "ビデオゲームミュージアムロボット深谷店",
    "operation_time": "10:00～24:00",
    "holiday": "無し",
    "latitude": "36.17966807",
    "longitude": "139.2987761",
    "tel": "048-573-3951",
    "address": "深谷市上柴町西4-12-1",
    "access": "",
    "games": [
      "麻雀ファイトガール"
    ]
  },
  {
    "name": "GiGO日和田",
    "operation_time": "",
    "holiday": "",
    "latitude": "37.44821593",
    "longitude": "140.3804189",
    "tel": "070-1458-5583",
    "address": "郡山市日和田町字西中島7-1",
    "access": "",
    "games": [
      "麻雀ファイトガール"
    ]
  },
  {
    "name": "群馬レジャーランド太田店",
    "operation_time": "一部24時間営業",
    "holiday": "無し",
    "latitude": "36.26802219",
    "longitude": "139.3761382",
    "tel": "0276-47-8030",
    "address": "太田市西矢島町162-2",
    "access": "",
    "games": [
      "麻雀ファイトガール"
    ]
  },
  {
    "name": "ユーズランド太田店",
    "operation_time": "10:00～21:00",
    "holiday": "無し",
    "latitude": "36.29327372",
    "longitude": "139.4001931",
    "tel": "0276-47-8722",
    "address": "太田市石原町81イオンモール太田2F",
    "access": "イオン太田SC2F東武伊勢崎線太田駅よりバスで10分東北道館林ICよりR354～R122(太田バイパス)経由約30分",
    "games": [
      "麻雀ファイトガール"
    ]
  },
  {
    "name": "タイトーFステーション郡山オリエントパーク店",
    "operation_time": "",
    "holiday": "",
    "latitude": "37.37465045",
    "longitude": "140.3487929",
    "tel": "024-946-8222",
    "address": "郡山市安積町荒井字大久保35-1",
    "access": "",
    "games": [
      "麻雀ファイトガール"
    ]
  },
  {
    "name": "ドラマ足利店",
    "operation_time": "10:00～24:00",
    "holiday": "無し",
    "latitude": "36.32220259",
    "longitude": "139.4503607",
    "tel": "0284-73-9559",
    "address": "足利市朝倉町244-1",
    "access": "東武伊勢崎線足利市駅より徒歩10分",
    "games": [
      "麻雀ファイトガール"
    ]
  },
  {
    "name": "ラウンドワン静岡･駿河店",
    "operation_time": "",
    "holiday": "",
    "latitude": "34.950991",
    "longitude": "138.360524",
    "tel": "054-201-1601",
    "address": "静岡市駿河区向手越1-10-1",
    "access": "",
    "games": [
      "麻雀ファイトガール"
    ]
  },
  {
    "name": "ラウンドワン郡山店",
    "operation_time": "",
    "holiday": "",
    "latitude": "37.40229903",
    "longitude": "140.3957065",
    "tel": "024-941-3191",
    "address": "郡山市向河原町4-55",
    "access": "",
    "games": [
      "麻雀ファイトガール"
    ]
  },
  {
    "name": "アップル新北街道店",
    "operation_time": "10:00～24:00",
    "holiday": "無休",
    "latitude": "34.99831803",
    "longitude": "138.4134069",
    "tel": "054-261-9109",
    "address": "静岡市葵区沓谷5-13-4",
    "access": "東名高速静岡ICから車で20分",
    "games": [
      "麻雀ファイトガール"
    ]
  },
  {
    "name": "アミューズパーク郡山店",
    "operation_time": "店舗にてご確認ください",
    "holiday": "無し",
    "latitude": "37.37446344",
    "longitude": "140.3838207",
    "tel": "0249-44-9898",
    "address": "郡山市安積町日出山2-80",
    "access": "JR郡山駅より車で10分。東部幹線沿い。",
    "games": [
      "麻雀ファイトガール"
    ]
  },
  {
    "name": "アップルグランリバー 大井川店",
    "operation_time": "10:00～24:00",
    "holiday": "無し",
    "latitude": "34.80971624",
    "longitude": "138.2732243",
    "tel": "054-270-3244",
    "address": "焼津市下江留1327",
    "access": "東名高速道路、吉田ICより車で10分",
    "games": [
      "麻雀ファイトガール"
    ]
  },
  {
    "name": "ゲームスペースA-3",
    "operation_time": "10:00～24:00",
    "holiday": "無し",
    "latitude": "37.12433442",
    "longitude": "140.1824915",
    "tel": "0248-23-3421",
    "address": "西白河郡西郷村豊作西15-16-17",
    "access": "新白河駅高原口より徒歩3分",
    "games": [
      "麻雀ファイトガール"
    ]
  },
  {
    "name": "大田原スポーツランド",
    "operation_time": "10:00～翌2:00",
    "holiday": "無し",
    "latitude": "36.85195131",
    "longitude": "139.9934495",
    "tel": "0287-36-7137",
    "address": "那須塩原市一区町104-60",
    "access": "大田原ゴルフセンター入口付近(パチンコニラク前)",
    "games": [
      "麻雀ファイトガール"
    ]
  },
  {
    "name": "ラウンドワン富士店",
    "operation_time": "",
    "holiday": "",
    "latitude": "35.15310644",
    "longitude": "138.6938016",
    "tel": "0545-51-3636",
    "address": "富士市八代町4-15",
    "access": "",
    "games": [
      "麻雀ファイトガール"
    ]
  },
  {
    "name": "シーサイドリゾート",
    "operation_time": "10:00～24:00",
    "holiday": "無し",
    "latitude": "36.56327652",
    "longitude": "139.8604649",
    "tel": "028-632-5006",
    "address": "宇都宮市睦町7-3",
    "access": "鹿沼街道沿い",
    "games": [
      "麻雀ファイトガール"
    ]
  },
  {
    "name": "アミューズメントヒカリ",
    "operation_time": "",
    "holiday": "",
    "latitude": "36.56004",
    "longitude": "139.88167",
    "tel": "028-632-0382",
    "address": "宇都宮市江野町7-13ヒカリビル1F",
    "access": "",
    "games": [
      "麻雀ファイトガール"
    ]
  },
  {
    "name": "ラウンドワンさいたま･鴻巣店",
    "operation_time": "",
    "holiday": "",
    "latitude": "36.08064011",
    "longitude": "139.4902201",
    "tel": "048-595-2001",
    "address": "鴻巣市箕田3163-7",
    "access": "",
    "games": [
      "麻雀ファイトガール"
    ]
  },
  {
    "name": "ラウンドワン宇都宮店",
    "operation_time": "",
    "holiday": "",
    "latitude": "36.54080987",
    "longitude": "139.8868656",
    "tel": "028-614-8171",
    "address": "宇都宮市江曽島町2072-1",
    "access": "",
    "games": [
      "麻雀ファイトガール"
    ]
  },
  {
    "name": "GiGO宇都宮",
    "operation_time": "",
    "holiday": "",
    "latitude": "36.558326",
    "longitude": "139.90882",
    "tel": "028-633-6082",
    "address": "宇都宮市東宿郷5-1-7",
    "access": "",
    "games": [
      "麻雀ファイトガール"
    ]
  },
  {
    "name": "ユーズランド日の出店",
    "operation_time": "10:00～21:00",
    "holiday": "",
    "latitude": "35.73493237",
    "longitude": "139.2750782",
    "tel": "042-588-8177",
    "address": "西多摩郡日の出町大字平井字三吉野桜木237-3 3F",
    "access": "",
    "games": [
      "麻雀ファイトガール"
    ]
  },
  {
    "name": "インターパークプラスワン 宇都宮店",
    "operation_time": "9:00～24:00",
    "holiday": "無し",
    "latitude": "36.48822111",
    "longitude": "139.9053211",
    "tel": "028-657-6789",
    "address": "宇都宮市インターパーク6-5-1",
    "access": "国道4号線、北関東自動車道、宇都宮上三川インターインター降りてすぐ",
    "games": [
      "麻雀ファイトガール"
    ]
  },
  {
    "name": "ラウンドワン入間店",
    "operation_time": "",
    "holiday": "",
    "latitude": "35.82812299",
    "longitude": "139.3755366",
    "tel": "042-960-1521",
    "address": "入間市小谷田3-7-25",
    "access": "",
    "games": [
      "麻雀ファイトガール"
    ]
  },
  {
    "name": "タイトーFステーションクレアモール川越店",
    "operation_time": "",
    "holiday": "",
    "latitude": "35.91384483",
    "longitude": "139.482921",
    "tel": "049-298-8963",
    "address": "川越市新富町2-1-13本川越SSビル1-4F",
    "access": "",
    "games": [
      "麻雀ファイトガール"
    ]
  },
  {
    "name": "GiGO入間",
    "operation_time": "",
    "holiday": "",
    "latitude": "35.81911",
    "longitude": "139.418219",
    "tel": "070-1458-7167",
    "address": "入間市東藤沢2-18",
    "access": "",
    "games": [
      "麻雀ファイトガール"
    ]
  },
  {
    "name": "ゲームパドック プラスワン",
    "operation_time": "9:00～24:00",
    "holiday": "無し",
    "latitude": "36.2067047",
    "longitude": "139.7580433",
    "tel": "0280-98-5161",
    "address": "古河市小堤1916-1",
    "access": "国道125号、古河方面から下妻方面に走行、新幹線のガードをくくって500m左手",
    "games": [
      "麻雀ファイトガール"
    ]
  },
  {
    "name": "ラウンドワン武蔵村山店",
    "operation_time": "",
    "holiday": "",
    "latitude": "35.73563714",
    "longitude": "139.3826993",
    "tel": "042-520-3211",
    "address": "武蔵村山市伊奈平3-1-1",
    "access": "",
    "games": [
      "麻雀ファイトガール"
    ]
  },
  {
    "name": "ラウンドワンさいたま･栗橋店",
    "operation_time": "",
    "holiday": "",
    "latitude": "36.12348469",
    "longitude": "139.7152159",
    "tel": "0480-55-0831",
    "address": "久喜市小右衛門192-1",
    "access": "",
    "games": [
      "麻雀ファイトガール"
    ]
  },
  {
    "name": "ゲームプラザセントラル八王子店",
    "operation_time": "10:00～翌1:00",
    "holiday": "無し",
    "latitude": "35.65802575",
    "longitude": "139.338208",
    "tel": "0426-44-0078",
    "address": "八王子市東町12-15第5セントラルビル",
    "access": "JR八王子駅徒歩1分",
    "games": [
      "麻雀ファイトガール"
    ]
  },
  {
    "name": "ラウンドワン上尾店",
    "operation_time": "",
    "holiday": "",
    "latitude": "35.98574121",
    "longitude": "139.6078308",
    "tel": "048-778-3411",
    "address": "上尾市大字平塚917-1",
    "access": "",
    "games": [
      "麻雀ファイトガール"
    ]
  },
  {
    "name": "シルクハット八王子",
    "operation_time": "10:00～24:45",
    "holiday": "",
    "latitude": "35.65636374",
    "longitude": "139.3384725",
    "tel": "",
    "address": "八王子市旭町2-5八王子ツインタワービル3F",
    "access": "JR八王子駅前",
    "games": [
      "麻雀ファイトガール"
    ]
  },
  {
    "name": "アミューズメントフィールドバイヨン",
    "operation_time": "10:00～24:00",
    "holiday": "無し",
    "latitude": "35.85617882",
    "longitude": "139.522425",
    "tel": "0492-65-1400",
    "address": "ふじみ野市うれし野2-16-1LCモールうれし野2F",
    "access": "東武東上線「ふじみ野」駅徒歩6分ショッピングモールリズム横",
    "games": [
      "麻雀ファイトガール"
    ]
  },
  {
    "name": "ラウンドワン所沢店",
    "operation_time": "",
    "holiday": "",
    "latitude": "35.78935214",
    "longitude": "139.4700049",
    "tel": "04-2940-8631",
    "address": "所沢市東町5-22TOCOTOCO SQUARE6F",
    "access": "",
    "games": [
      "麻雀ファイトガール"
    ]
  },
  {
    "name": "タイトーステーション立川北口店",
    "operation_time": "",
    "holiday": "",
    "latitude": "35.699058",
    "longitude": "139.412162",
    "tel": "042-512-9651",
    "address": "立川市曙町2-4-5OSJ TACHIKAWA2･3F",
    "access": "",
    "games": [
      "麻雀ファイトガール"
    ]
  },
  {
    "name": "GiGO立川",
    "operation_time": "",
    "holiday": "",
    "latitude": "35.6972343",
    "longitude": "139.4142917",
    "tel": "042-521-3050",
    "address": "立川市柴崎町3-2-1サザンビル1F",
    "access": "",
    "games": [
      "麻雀ファイトガール"
    ]
  },
  {
    "name": "インターワールド幸手店",
    "operation_time": "",
    "holiday": "",
    "latitude": "36.05714632",
    "longitude": "139.7144119",
    "tel": "0480-47-0540",
    "address": "幸手市上高野2142-1",
    "access": "",
    "games": [
      "麻雀ファイトガール"
    ]
  },
  {
    "name": "WORLD GAME CIRCUS",
    "operation_time": "",
    "holiday": "",
    "latitude": "35.69651",
    "longitude": "139.42878",
    "tel": "042-512-5610",
    "address": "立川市羽衣町2-4-13羽衣長田ビル101",
    "access": "",
    "games": [
      "麻雀ファイトガール"
    ]
  },
  {
    "name": "アドアーズ橋本店",
    "operation_time": "10:00～23:30",
    "holiday": "無し",
    "latitude": "35.59444342",
    "longitude": "139.3489184",
    "tel": "042-700-2310",
    "address": "相模原市緑区橋本3-3-1SING橋本2F",
    "access": "橋本MOVIX(映画館)の2F",
    "games": [
      "麻雀ファイトガール"
    ]
  },
  {
    "name": "ラウンドワン大宮店",
    "operation_time": "",
    "holiday": "",
    "latitude": "35.91078012",
    "longitude": "139.6254963",
    "tel": "048-658-5666",
    "address": "さいたま市大宮区宮町4-90-7",
    "access": "",
    "games": [
      "麻雀ファイトガール"
    ]
  },
  {
    "name": "GiGO大宮西口",
    "operation_time": "",
    "holiday": "",
    "latitude": "35.90617972",
    "longitude": "139.6220194",
    "tel": "070-5372-2702",
    "address": "さいたま市大宮区桜木町2-3-2泰伸ビル2-4F",
    "access": "",
    "games": [
      "麻雀ファイトガール"
    ]
  },
  {
    "name": "埼玉レジャーランド大宮駅東口店",
    "operation_time": "",
    "holiday": "",
    "latitude": "35.90800635",
    "longitude": "139.6245445",
    "tel": "048-788-4340",
    "address": "さいたま市大宮区宮町1-8大宮セントラルビルB1F-2F",
    "access": "",
    "games": [
      "麻雀ファイトガール"
    ]
  },
  {
    "name": "埼玉レジャーランド大宮ラクーン店",
    "operation_time": "",
    "holiday": "",
    "latitude": "35.90775385",
    "longitude": "139.6256741",
    "tel": "048-871-5539",
    "address": "さいたま市大宮区宮町1-60大宮ラクーン5F",
    "access": "",
    "games": [
      "麻雀ファイトガール"
    ]
  },
  {
    "name": "タイトーステーション大宮店",
    "operation_time": "9:00～翌1:00",
    "holiday": "無し",
    "latitude": "35.907441",
    "longitude": "139.625505",
    "tel": "048-782-5461",
    "address": "さいたま市大宮区大門町1-1",
    "access": "大宮駅東口徒歩1分",
    "games": [
      "麻雀ファイトガール"
    ]
  },
  {
    "name": "フリスポ下館",
    "operation_time": "",
    "holiday": "",
    "latitude": "36.30255879",
    "longitude": "139.9564543",
    "tel": "0296-22-7552",
    "address": "筑西市神分472",
    "access": "国道50号を下館から小山方面へ10分",
    "games": [
      "麻雀ファイトガール"
    ]
  },
  {
    "name": "GiGO相模原",
    "operation_time": "10:00～24:00",
    "holiday": "無し",
    "latitude": "35.57350902",
    "longitude": "139.3710322",
    "tel": "080-7465-6268",
    "address": "相模原市中央区中央2-1-5ムトス内",
    "access": "JR横浜線相模原駅徒歩15分国道16号線近く",
    "games": [
      "麻雀ファイトガール"
    ]
  },
  {
    "name": "タイトーステーション国分寺店",
    "operation_time": "",
    "holiday": "",
    "latitude": "35.701889",
    "longitude": "139.480156",
    "tel": "042-401-0592",
    "address": "国分寺市本町3-5-11",
    "access": "",
    "games": [
      "麻雀ファイトガール"
    ]
  },
  {
    "name": "Amusement&Game MAGHREB",
    "operation_time": "10:00～24:00",
    "holiday": "無し",
    "latitude": "35.624024",
    "longitude": "139.423196",
    "tel": "042-371-5556",
    "address": "多摩市落合1-39-2マグレブビル1F",
    "access": "京王線・小田急線 多摩センター駅 徒歩3分/多摩モノレール多摩センター駅 徒歩1分",
    "games": [
      "麻雀ファイトガール"
    ]
  },
  {
    "name": "ラウンドワン府中本町駅前店",
    "operation_time": "",
    "holiday": "",
    "latitude": "35.667312",
    "longitude": "139.477387",
    "tel": "042-340-4901",
    "address": "府中市本町1-13-3カネタビル",
    "access": "",
    "games": [
      "麻雀ファイトガール"
    ]
  },
  {
    "name": "ラウンドワン朝霞店",
    "operation_time": "",
    "holiday": "",
    "latitude": "35.79026242",
    "longitude": "139.5796756",
    "tel": "048-450-1822",
    "address": "朝霞市膝折町2-16-10",
    "access": "",
    "games": [
      "麻雀ファイトガール"
    ]
  },
  {
    "name": "埼玉レジャーランド春日部店",
    "operation_time": "一部24時間",
    "holiday": "無し",
    "latitude": "35.95940469",
    "longitude": "139.7289621",
    "tel": "048-763-4061",
    "address": "春日部市大字増富字谷際163-1",
    "access": "国道16号線沿い春日部市増富地内",
    "games": [
      "麻雀ファイトガール"
    ]
  },
  {
    "name": "アミューズメントクラブ浦和",
    "operation_time": "10:00～23:45",
    "holiday": "無し",
    "latitude": "35.86027333",
    "longitude": "139.6535096",
    "tel": "048-814-0200",
    "address": "さいたま市浦和区仲町1-10-7",
    "access": "浦和駅西口徒歩8分",
    "games": [
      "麻雀ファイトガール"
    ]
  },
  {
    "name": "神奈川レジャーランド厚木店",
    "operation_time": "一部24時間営業",
    "holiday": "無し",
    "latitude": "35.44802433",
    "longitude": "139.3431365",
    "tel": "050-1722-4336",
    "address": "厚木市戸室5-31-1",
    "access": "小田急本厚木駅よりバスにてアンリツ前バス停下車徒歩1分",
    "games": [
      "麻雀ファイトガール"
    ]
  },
  {
    "name": "ユーズランド春日部店",
    "operation_time": "10:00～21:00",
    "holiday": "施設の営業日に準じる",
    "latitude": "35.987895",
    "longitude": "139.788478",
    "tel": "048-745-2501",
    "address": "春日部市下柳420-1イオンモール春日部2F 2037",
    "access": "庄和インターそば",
    "games": [
      "麻雀ファイトガール"
    ]
  },
  {
    "name": "ラウンドワンわらび店",
    "operation_time": "",
    "holiday": "",
    "latitude": "35.83078787",
    "longitude": "139.6742521",
    "tel": "048-447-8080",
    "address": "蕨市北町5-1-6",
    "access": "",
    "games": [
      "麻雀ファイトガール"
    ]
  },
  {
    "name": "GiGO成増",
    "operation_time": "",
    "holiday": "",
    "latitude": "35.7774666",
    "longitude": "139.6312648",
    "tel": "070-1459-3563",
    "address": "板橋区成増2-17-24五曠第6ビルB1F-1F",
    "access": "",
    "games": [
      "麻雀ファイトガール"
    ]
  },
  {
    "name": "ゲームパーク石神井",
    "operation_time": "10:00～24:00",
    "holiday": "無し",
    "latitude": "35.74266197",
    "longitude": "139.6044655",
    "tel": "03-3997-3799",
    "address": "練馬区石神井町3-17-16",
    "access": "西部池袋線石神井公園駅徒歩2分",
    "games": [
      "麻雀ファイトガール"
    ]
  },
  {
    "name": "ラウンドワン町田店",
    "operation_time": "",
    "holiday": "",
    "latitude": "35.54409488",
    "longitude": "139.4432407",
    "tel": "042-710-0091",
    "address": "町田市森野1-13-14",
    "access": "",
    "games": [
      "麻雀ファイトガール"
    ]
  },
  {
    "name": "GiGO相模大野",
    "operation_time": "",
    "holiday": "",
    "latitude": "35.532177",
    "longitude": "139.436075",
    "tel": "042-741-8195",
    "address": "相模原市南区相模大野3-13-2フレスコビル3F",
    "access": "",
    "games": [
      "麻雀ファイトガール"
    ]
  },
  {
    "name": "GiGO町田",
    "operation_time": "",
    "holiday": "",
    "latitude": "35.54392",
    "longitude": "139.446987",
    "tel": "042-723-6701",
    "address": "町田市原町田6-13-17アーバンミサワビル",
    "access": "",
    "games": [
      "麻雀ファイトガール"
    ]
  },
  {
    "name": "シルクハット本厚木",
    "operation_time": "9:00～23:45",
    "holiday": "無し",
    "latitude": "35.44024066",
    "longitude": "139.3629959",
    "tel": "",
    "address": "厚木市中町3-4-22第二会田ビル2F",
    "access": "小田急「本厚木駅」北口より徒歩1分 第二会田ビル",
    "games": [
      "麻雀ファイトガール"
    ]
  },
  {
    "name": "ピンクパンサー 下妻店",
    "operation_time": "12:00～24:00",
    "holiday": "無し",
    "latitude": "36.17067062",
    "longitude": "139.9664734",
    "tel": "0296-43-6880",
    "address": "下妻市小島884-10",
    "access": "国道旧294号線沿い",
    "games": [
      "麻雀ファイトガール"
    ]
  },
  {
    "name": "東京レジャーランド吉祥寺店",
    "operation_time": "",
    "holiday": "",
    "latitude": "35.7036243",
    "longitude": "139.5786419",
    "tel": "0422-27-2200",
    "address": "武蔵野市吉祥寺本町1-3-7YSビル",
    "access": "",
    "games": [
      "麻雀ファイトガール"
    ]
  },
  {
    "name": "ラウンドワン吉祥寺店",
    "operation_time": "",
    "holiday": "",
    "latitude": "35.706276",
    "longitude": "139.580884",
    "tel": "0422-29-1051",
    "address": "武蔵野市吉祥寺本町1-11-22",
    "access": "",
    "games": [
      "麻雀ファイトガール"
    ]
  },
  {
    "name": "タイトーFステーション吉祥寺JOY",
    "operation_time": "",
    "holiday": "",
    "latitude": "35.70436",
    "longitude": "139.57963",
    "tel": "090-7265-2005",
    "address": "武蔵野市吉祥寺本町1-8-23河田ビル",
    "access": "",
    "games": [
      "麻雀ファイトガール"
    ]
  },
  {
    "name": "タイトーステーション町田店",
    "operation_time": "10:00～24:00",
    "holiday": "無し",
    "latitude": "35.542593",
    "longitude": "139.448333",
    "tel": "042-739-6196",
    "address": "町田市原町田6-21-23松山ビル1F",
    "access": "JR横浜線町田駅より徒歩3分・小田急線町田駅より徒歩5分",
    "games": [
      "麻雀ファイトガール"
    ]
  },
  {
    "name": "GiGO海老名",
    "operation_time": "",
    "holiday": "",
    "latitude": "35.45161",
    "longitude": "139.39236",
    "tel": "046-292-5812",
    "address": "海老名市中央1-4-31海老名プラザビル1F",
    "access": "",
    "games": [
      "麻雀ファイトガール"
    ]
  },
  {
    "name": "タイトーステーション海老名ビナウォーク店",
    "operation_time": "10:00～24:00",
    "holiday": "無し",
    "latitude": "35.452455",
    "longitude": "139.395834",
    "tel": "046-292-5160",
    "address": "海老名市中央1-18-1ビナウォーク6番館2F",
    "access": "JR相模線、相鉄線、小田急線、海老名駅より徒歩5分",
    "games": [
      "麻雀ファイトガール"
    ]
  },
  {
    "name": "ミラクル イン 中村橋",
    "operation_time": "10:00～24:00",
    "holiday": "無し",
    "latitude": "35.73696054",
    "longitude": "139.6383659",
    "tel": "03-5933-9312",
    "address": "練馬区貫井1-1-2",
    "access": "西武池袋線中村橋駅徒歩2分",
    "games": [
      "麻雀ファイトガール"
    ]
  },
  {
    "name": "ラウンドワン板橋店",
    "operation_time": "",
    "holiday": "",
    "latitude": "35.77658",
    "longitude": "139.67879",
    "tel": "03-5922-3521",
    "address": "板橋区相生町16-13",
    "access": "",
    "games": [
      "麻雀ファイトガール"
    ]
  },
  {
    "name": "ゲームニュートン",
    "operation_time": "10:00～24:00",
    "holiday": "無し",
    "latitude": "35.77799391",
    "longitude": "139.685865",
    "tel": "03-3558-9766",
    "address": "板橋区志村3-24-3高橋ビル1F",
    "access": "都営地下鉄三田線志村三丁目駅下車徒歩3分",
    "games": [
      "麻雀ファイトガール"
    ]
  },
  {
    "name": "千葉レジャーランド野田店",
    "operation_time": "一部24時間営業",
    "holiday": "無し",
    "latitude": "35.97154747",
    "longitude": "139.8653487",
    "tel": "04-7120-3535",
    "address": "野田市吉春776-1",
    "access": "国道16号線沿い野田市吉春地内",
    "games": [
      "麻雀ファイトガール"
    ]
  },
  {
    "name": "ゲームスタジオキューブ高円寺",
    "operation_time": "10:00～翌1:00",
    "holiday": "無し",
    "latitude": "35.7049194",
    "longitude": "139.6495113",
    "tel": "03-3315-4448",
    "address": "杉並区高円寺南4-26-12福丸ビルB1F",
    "access": "JR中央線高円寺駅徒歩2分",
    "games": [
      "麻雀ファイトガール"
    ]
  },
  {
    "name": "ラウンドワンららぽーと湘南平塚店",
    "operation_time": "",
    "holiday": "",
    "latitude": "35.335825",
    "longitude": "139.354769",
    "tel": "0463-25-4051",
    "address": "平塚市天沼10-1ららぽーと湘南平塚店3F",
    "access": "",
    "games": [
      "麻雀ファイトガール"
    ]
  },
  {
    "name": "GiGO赤羽",
    "operation_time": "",
    "holiday": "",
    "latitude": "35.778926",
    "longitude": "139.722383",
    "tel": "070-1458-9465",
    "address": "北区赤羽1-7-9赤羽第一葉山ビルB1F",
    "access": "",
    "games": [
      "麻雀ファイトガール"
    ]
  },
  {
    "name": "アドアーズ中野店",
    "operation_time": "10:00～23:45",
    "holiday": "無し",
    "latitude": "35.70931435",
    "longitude": "139.6656989",
    "tel": "03-3389-7670",
    "address": "中野区中野5-52-15ブロードウェイ185",
    "access": "中野ブロードウェイ内左手",
    "games": [
      "麻雀ファイトガール"
    ]
  },
  {
    "name": "ゲームW店",
    "operation_time": "10:00～24:00",
    "holiday": "不定休",
    "latitude": "35.72942259",
    "longitude": "139.6828924",
    "tel": "03-5983-7880",
    "address": "豊島区南長崎5-27-6",
    "access": "西武池袋線 東長崎駅より徒歩2分",
    "games": [
      "麻雀ファイトガール"
    ]
  },
  {
    "name": "ゲームサファリ大山",
    "operation_time": "10:00～24:00",
    "holiday": "無し",
    "latitude": "35.74900603",
    "longitude": "139.7022497",
    "tel": "03-5248-4743",
    "address": "板橋区大山東町60-10パチンコやすだ2F",
    "access": "東武東上線大山駅徒歩1分",
    "games": [
      "麻雀ファイトガール"
    ]
  },
  {
    "name": "ユーズランド越谷店",
    "operation_time": "10:00～21:00",
    "holiday": "無し",
    "latitude": "35.87763779",
    "longitude": "139.8247477",
    "tel": "048-934-3342",
    "address": "越谷市レイクタウン4-2-2イオンレイクタウンKAZE 3F",
    "access": "武蔵野線レイクタウン駅下車徒歩1分",
    "games": [
      "麻雀ファイトガール"
    ]
  },
  {
    "name": "タイトーステーション池袋西口店",
    "operation_time": "",
    "holiday": "",
    "latitude": "35.73058948",
    "longitude": "139.709706",
    "tel": "03-6907-3560",
    "address": "豊島区西池袋1-15-9第一西池ビル",
    "access": "",
    "games": [
      "麻雀ファイトガール"
    ]
  },
  {
    "name": "ゲームサファリ池袋",
    "operation_time": "10:00～24:00",
    "holiday": "無し",
    "latitude": "35.73224113",
    "longitude": "139.7133267",
    "tel": "03-3981-2544",
    "address": "豊島区東池袋1-42-3やすだ東池袋ビル2F",
    "access": "JR山手線池袋駅東口徒歩4分(ビックカメラ本店裏)",
    "games": [
      "麻雀ファイトガール"
    ]
  },
  {
    "name": "ラウンドワン池袋店",
    "operation_time": "",
    "holiday": "",
    "latitude": "35.730175",
    "longitude": "139.714846",
    "tel": "03-5928-0221",
    "address": "豊島区東池袋1-14-1池袋スクエア",
    "access": "",
    "games": [
      "麻雀ファイトガール"
    ]
  },
  {
    "name": "GiGO総本店",
    "operation_time": "",
    "holiday": "",
    "latitude": "35.72930775",
    "longitude": "139.7150562",
    "tel": "080-7018-7351",
    "address": "豊島区東池袋1-13-6ロクマルゲート池袋B1F-3F",
    "access": "",
    "games": [
      "麻雀ファイトガール"
    ]
  },
  {
    "name": "東京レジャーランド池袋店",
    "operation_time": "",
    "holiday": "",
    "latitude": "35.73071",
    "longitude": "139.71644",
    "tel": "03-5904-8388",
    "address": "豊島区東池袋1-29-1マルビル池袋2-3F",
    "access": "",
    "games": [
      "麻雀ファイトガール"
    ]
  },
  {
    "name": "高田馬場ゲーセンミカド",
    "operation_time": "",
    "holiday": "",
    "latitude": "35.71273889",
    "longitude": "139.7034543",
    "tel": "03-5386-0127",
    "address": "新宿区高田馬場4-5-10",
    "access": "",
    "games": [
      "麻雀ファイトガール"
    ]
  },
  {
    "name": "タイトーステーションBIGBOX高田馬場",
    "operation_time": "10:00～24:00",
    "holiday": "無し",
    "latitude": "35.712933",
    "longitude": "139.70419",
    "tel": "03-5272-9855",
    "address": "新宿区高田馬場1-35-3BIGBOX6F",
    "access": "西武新宿線・高田馬場駅より徒歩1分",
    "games": [
      "麻雀ファイトガール"
    ]
  },
  {
    "name": "namco王子サンスクエア店",
    "operation_time": "",
    "holiday": "",
    "latitude": "35.7529261",
    "longitude": "139.7377633",
    "tel": "03-5959-9830",
    "address": "北区王子1-4-1サンスクエア2F",
    "access": "",
    "games": [
      "麻雀ファイトガール"
    ]
  },
  {
    "name": "タイトーステーション溝の口店",
    "operation_time": "",
    "holiday": "",
    "latitude": "35.600042",
    "longitude": "139.61245",
    "tel": "044-328-9262",
    "address": "川崎市高津区溝口1-11-8",
    "access": "",
    "games": [
      "麻雀ファイトガール"
    ]
  },
  {
    "name": "ラウンドワン草加店",
    "operation_time": "",
    "holiday": "",
    "latitude": "35.81240056",
    "longitude": "139.7878993",
    "tel": "048-920-3701",
    "address": "草加市谷塚上町204-1",
    "access": "",
    "games": [
      "麻雀ファイトガール"
    ]
  },
  {
    "name": "ゲームファクトリーマグマ",
    "operation_time": "～24:00",
    "holiday": "無し",
    "latitude": "35.82819969",
    "longitude": "139.8024875",
    "tel": "0489-24-9800",
    "address": "草加市氷川町2125-1",
    "access": "東武伊勢崎線草加駅徒歩1分",
    "games": [
      "麻雀ファイトガール"
    ]
  },
  {
    "name": "ゲームパニック新宿歌舞伎町",
    "operation_time": "",
    "holiday": "",
    "latitude": "35.69606337",
    "longitude": "139.7012777",
    "tel": "03-6265-9021",
    "address": "新宿区歌舞伎町1-20-1ヒューマックスパビリオン1-2F",
    "access": "",
    "games": [
      "麻雀ファイトガール"
    ]
  },
  {
    "name": "GiGO新宿西口",
    "operation_time": "",
    "holiday": "",
    "latitude": "35.68945769",
    "longitude": "139.6973935",
    "tel": "03-3349-0257",
    "address": "新宿区西新宿1-12-5",
    "access": "",
    "games": [
      "麻雀ファイトガール"
    ]
  },
  {
    "name": "新宿スポーツランド本館",
    "operation_time": "",
    "holiday": "",
    "latitude": "35.69316847",
    "longitude": "139.7018443",
    "tel": "03-3352-5489",
    "address": "新宿区新宿3-22-12",
    "access": "",
    "games": [
      "麻雀ファイトガール"
    ]
  },
  {
    "name": "タイトーステーション新宿南口ゲームワールド店",
    "operation_time": "10:00～25:00",
    "holiday": "無し",
    "latitude": "35.689926",
    "longitude": "139.702372",
    "tel": "03-3226-0395",
    "address": "新宿区新宿3-35-8",
    "access": "JR・新宿駅より徒歩1分",
    "games": [
      "麻雀ファイトガール"
    ]
  },
  {
    "name": "ラウンドワンららぽーと新三郷店",
    "operation_time": "",
    "holiday": "",
    "latitude": "35.859813",
    "longitude": "139.865774",
    "tel": "048-950-7501",
    "address": "三郷市新三郷ららシティ3-1-1ららぽーと新三郷 2F",
    "access": "",
    "games": [
      "麻雀ファイトガール"
    ]
  },
  {
    "name": "ドラマ港北インター店",
    "operation_time": "10:00～24:00",
    "holiday": "無し",
    "latitude": "35.51925659",
    "longitude": "139.5847927",
    "tel": "045-474-6604",
    "address": "横浜市都筑区東方町321-6",
    "access": "第三京浜港北IC右側交差点左折約500M",
    "games": [
      "麻雀ファイトガール"
    ]
  },
  {
    "name": "GiGO渋谷宮益坂",
    "operation_time": "",
    "holiday": "",
    "latitude": "35.660097",
    "longitude": "139.702644",
    "tel": "03-3409-4737",
    "address": "渋谷区渋谷1-14-14EST 1F･7F",
    "access": "",
    "games": [
      "麻雀ファイトガール"
    ]
  },
  {
    "name": "ゲームパニック三郷",
    "operation_time": "",
    "holiday": "",
    "latitude": "35.84215546",
    "longitude": "139.8548102",
    "tel": "048-953-8295",
    "address": "三郷市ピアラシティ1-1-200",
    "access": "",
    "games": [
      "麻雀ファイトガール"
    ]
  },
  {
    "name": "GiGO神楽坂",
    "operation_time": "",
    "holiday": "",
    "latitude": "35.701061",
    "longitude": "139.741994",
    "tel": "03-3260-7253",
    "address": "新宿区神楽坂2-11第2カグラヒルズ1F",
    "access": "",
    "games": [
      "麻雀ファイトガール"
    ]
  },
  {
    "name": "GiGO自由が丘",
    "operation_time": "",
    "holiday": "",
    "latitude": "35.60845726",
    "longitude": "139.6676515",
    "tel": "03-3725-3953",
    "address": "目黒区自由が丘2-10-9",
    "access": "",
    "games": [
      "麻雀ファイトガール"
    ]
  },
  {
    "name": "ASO:VIBA!",
    "operation_time": "10:00～24:00",
    "holiday": "無し",
    "latitude": "35.64677066",
    "longitude": "139.7109583",
    "tel": "03-3444-4912",
    "address": "渋谷区恵比寿1-10-5",
    "access": "JR山手線恵比寿駅徒歩1分",
    "games": [
      "麻雀ファイトガール"
    ]
  },
  {
    "name": "楽市楽座湘南藤沢店",
    "operation_time": "10:00～22:00",
    "holiday": "無し",
    "latitude": "35.34049487",
    "longitude": "139.4648408",
    "tel": "0466-30-2332",
    "address": "藤沢市辻堂新町4-3-5ミスターマックス湘南藤沢内",
    "access": "ミスターマックス湘南藤沢SC2F",
    "games": [
      "麻雀ファイトガール"
    ]
  },
  {
    "name": "アドアーズ上野アメ横店",
    "operation_time": "10:00～23:30",
    "holiday": "無し",
    "latitude": "35.71002035",
    "longitude": "139.7742619",
    "tel": "03-5812-1570",
    "address": "台東区上野4-9-14上野KKビルB1-4F",
    "access": "アメ横センタービルそば",
    "games": [
      "麻雀ファイトガール"
    ]
  },
  {
    "name": "GiGO綱島",
    "operation_time": "",
    "holiday": "",
    "latitude": "35.5364623",
    "longitude": "139.6324113",
    "tel": "045-547-1199",
    "address": "横浜市港北区綱島西2-6-29城田ビル3F",
    "access": "",
    "games": [
      "麻雀ファイトガール"
    ]
  },
  {
    "name": "東京レジャーランド秋葉原店",
    "operation_time": "10:00～25:00",
    "holiday": "無し",
    "latitude": "35.69887947",
    "longitude": "139.7701404",
    "tel": "03-5298-1360",
    "address": "千代田区外神田1-9-5",
    "access": "JR秋葉原駅徒歩5分",
    "games": [
      "麻雀ファイトガール"
    ]
  },
  {
    "name": "東京レジャーランド秋葉原2号店",
    "operation_time": "10:00～25:00",
    "holiday": "無し",
    "latitude": "35.70073433",
    "longitude": "139.7718424",
    "tel": "03-5209-5650",
    "address": "千代田区外神田4-3-3",
    "access": "JR秋葉原駅より徒歩5分",
    "games": [
      "麻雀ファイトガール"
    ]
  },
  {
    "name": "GiGO秋葉原5号館",
    "operation_time": "",
    "holiday": "",
    "latitude": "35.69869242",
    "longitude": "139.7706229",
    "tel": "03-3255-2168",
    "address": "千代田区外神田1-10-1",
    "access": "",
    "games": [
      "麻雀ファイトガール"
    ]
  },
  {
    "name": "Hey(タイトー)",
    "operation_time": "10:00～24:00",
    "holiday": "無し",
    "latitude": "35.698992",
    "longitude": "139.77108",
    "tel": "03-5209-2030",
    "address": "千代田区外神田1-10-5広瀬本社ビル2F",
    "access": "JR秋葉原駅電気街口を出て徒歩2分",
    "games": [
      "麻雀ファイトガール"
    ]
  },
  {
    "name": "ゲームパニック秋葉原",
    "operation_time": "",
    "holiday": "",
    "latitude": "35.69891",
    "longitude": "139.77165",
    "tel": "03-6285-2820",
    "address": "千代田区外神田1-13-1第122東京ビル",
    "access": "",
    "games": [
      "麻雀ファイトガール"
    ]
  },
  {
    "name": "ラウンドワン横浜綱島店",
    "operation_time": "",
    "holiday": "",
    "latitude": "35.53198182",
    "longitude": "139.6371126",
    "tel": "045-533-6151",
    "address": "横浜市港北区樽町2-6-40T-PLATZ",
    "access": "",
    "games": [
      "麻雀ファイトガール"
    ]
  },
  {
    "name": "タイトーステーション戸塚西口店",
    "operation_time": "10:00～24:00",
    "holiday": "無し",
    "latitude": "35.399502",
    "longitude": "139.531856",
    "tel": "045-881-6757",
    "address": "横浜市戸塚区戸塚町4023",
    "access": "JR戸塚駅西口・市営地下鉄戸塚駅より徒歩5分。",
    "games": [
      "麻雀ファイトガール"
    ]
  },
  {
    "name": "タイトーステーション藤沢店",
    "operation_time": "10:00～23:50",
    "holiday": "無し",
    "latitude": "35.337282",
    "longitude": "139.487332",
    "tel": "0466-47-9153",
    "address": "藤沢市南藤沢21-1",
    "access": "",
    "games": [
      "麻雀ファイトガール"
    ]
  },
  {
    "name": "ゲームメガつくば店",
    "operation_time": "",
    "holiday": "",
    "latitude": "36.07682559",
    "longitude": "140.1047877",
    "tel": "029-846-1200",
    "address": "つくば市小野崎177-2",
    "access": "",
    "games": [
      "麻雀ファイトガール"
    ]
  },
  {
    "name": "ユーズランド水戸内原店",
    "operation_time": "10:00～21:00",
    "holiday": "",
    "latitude": "36.374428",
    "longitude": "140.3590138",
    "tel": "029-259-1218",
    "address": "水戸市内原2-1イオンモール水戸内原2F",
    "access": "",
    "games": [
      "麻雀ファイトガール"
    ]
  },
  {
    "name": "東京レジャーランド亀有店",
    "operation_time": "",
    "holiday": "",
    "latitude": "35.765462",
    "longitude": "139.84798",
    "tel": "03-5680-8893",
    "address": "葛飾区亀有3-21-2",
    "access": "",
    "games": [
      "麻雀ファイトガール"
    ]
  },
  {
    "name": "GiGOデイズタウンつくば",
    "operation_time": "10:00～24:00",
    "holiday": "無休",
    "latitude": "36.07768145",
    "longitude": "140.1153322",
    "tel": "070-1459-0875",
    "address": "つくば市竹園1-9-2デイズタウンつくばB1F",
    "access": "つくば駅徒歩5分デイズタウンつくばB1F",
    "games": [
      "麻雀ファイトガール"
    ]
  },
  {
    "name": "嶺宝スポーツセンター",
    "operation_time": "11:00～23:00",
    "holiday": "火曜日",
    "latitude": "36.97400283",
    "longitude": "140.8903913",
    "tel": "0246-58-8093",
    "address": "いわき市小名浜住吉字折返2-2",
    "access": "6号バイパス住吉交差点横",
    "games": [
      "麻雀ファイトガール"
    ]
  },
  {
    "name": "スーパーウェーブ柏店",
    "operation_time": "9:00～24:00",
    "holiday": "無し",
    "latitude": "35.88165286",
    "longitude": "139.9615303",
    "tel": "04-7144-8366",
    "address": "柏市十余二249-5MEM内",
    "access": "国道16号線沿い マルハンエンタテインメントモール内",
    "games": [
      "麻雀ファイトガール"
    ]
  },
  {
    "name": "ラウンドワン横浜駅西口店",
    "operation_time": "",
    "holiday": "",
    "latitude": "35.46393717",
    "longitude": "139.6180549",
    "tel": "045-412-0880",
    "address": "横浜市西区南幸2-8-16",
    "access": "",
    "games": [
      "麻雀ファイトガール"
    ]
  },
  {
    "name": "タイトーステーション横浜西口五番街店",
    "operation_time": "平日10:00～23:50 土日祝日9:00～23:50",
    "holiday": "無し",
    "latitude": "35.464648",
    "longitude": "139.619593",
    "tel": "045-411-5288",
    "address": "横浜市西区南幸1-12-9",
    "access": "JR・相鉄線・東横線・みなとみらい線 横浜駅より徒歩3分",
    "games": [
      "麻雀ファイトガール"
    ]
  },
  {
    "name": "葛飾ヤングボウル",
    "operation_time": "",
    "holiday": "",
    "latitude": "35.74832547",
    "longitude": "139.8540342",
    "tel": "03-3602-7007",
    "address": "葛飾区青戸5-13-3",
    "access": "",
    "games": [
      "麻雀ファイトガール"
    ]
  },
  {
    "name": "タイトーFステーションオリナス錦糸町店",
    "operation_time": "10:00～23:45",
    "holiday": "無し",
    "latitude": "35.700721",
    "longitude": "139.816024",
    "tel": "03-5610-7376",
    "address": "墨田区太平4-1-2オリナスB1F",
    "access": "JR総武線錦糸町駅北口から徒歩5分",
    "games": [
      "麻雀ファイトガール"
    ]
  },
  {
    "name": "GiGO立石",
    "operation_time": "",
    "holiday": "",
    "latitude": "35.73960492",
    "longitude": "139.8494477",
    "tel": "070-6631-7803",
    "address": "葛飾区立石7-3-6リ･セブン",
    "access": "",
    "games": [
      "麻雀ファイトガール"
    ]
  },
  {
    "name": "タイトーステーション錦糸町楽天地店",
    "operation_time": "10:00～24:00",
    "holiday": "無し",
    "latitude": "35.696456",
    "longitude": "139.815836",
    "tel": "03-5638-0701",
    "address": "墨田区江東橋4-27-14楽天地ビルB1F",
    "access": "東京メトロ半蔵門線・錦糸町駅2番出口直通!東京楽天地ビル地下1階",
    "games": [
      "麻雀ファイトガール"
    ]
  },
  {
    "name": "GiGO大森",
    "operation_time": "",
    "holiday": "",
    "latitude": "35.590043",
    "longitude": "139.72823",
    "tel": "03-5709-0669",
    "address": "大田区山王2-1-5大森駅ララビル2F",
    "access": "",
    "games": [
      "麻雀ファイトガール"
    ]
  },
  {
    "name": "シルクハット蒲田西口",
    "operation_time": "10:00～24:45",
    "holiday": "",
    "latitude": "35.56301591",
    "longitude": "139.7158447",
    "tel": "",
    "address": "大田区西蒲田7-2-3第二醍醐ビルB1-2F",
    "access": "",
    "games": [
      "麻雀ファイトガール"
    ]
  },
  {
    "name": "namco松戸店",
    "operation_time": "",
    "holiday": "",
    "latitude": "35.783581",
    "longitude": "139.900789",
    "tel": "047-711-7274",
    "address": "松戸市松戸1230-1ピアザ松戸1F",
    "access": "",
    "games": [
      "麻雀ファイトガール"
    ]
  },
  {
    "name": "ゲームコスモ鶴見店",
    "operation_time": "10:00～24:00",
    "holiday": "無し",
    "latitude": "35.50924389",
    "longitude": "139.6754695",
    "tel": "045-585-0030",
    "address": "横浜市鶴見区豊岡町17-4",
    "access": "JR「鶴見駅」西口徒歩1分",
    "games": [
      "麻雀ファイトガール"
    ]
  },
  {
    "name": "柏ヤングボウル",
    "operation_time": "一部24時間営業",
    "holiday": "無し",
    "latitude": "35.845987",
    "longitude": "139.957023",
    "tel": "04-7174-2222",
    "address": "柏市南柏中央11-1",
    "access": "JR南柏駅より徒歩5分",
    "games": [
      "麻雀ファイトガール"
    ]
  },
  {
    "name": "柏駅前ヤングボウル",
    "operation_time": "",
    "holiday": "",
    "latitude": "35.8605258",
    "longitude": "139.9713721",
    "tel": "047-164-2117",
    "address": "柏市柏1-3-1ドン･キホーテ5F",
    "access": "",
    "games": [
      "麻雀ファイトガール"
    ]
  },
  {
    "name": "シルクハット川崎ダイス",
    "operation_time": "9:00～24:45",
    "holiday": "無し",
    "latitude": "35.5314121",
    "longitude": "139.7002166",
    "tel": "",
    "address": "川崎市川崎区駅前本町8ダイスビルB2F",
    "access": "JR川崎駅アゼリア地下街と直結、京急川崎駅中央口徒歩1分",
    "games": [
      "麻雀ファイトガール"
    ]
  },
  {
    "name": "シルクハット川崎モアーズ",
    "operation_time": "8:30～24:45",
    "holiday": "無し",
    "latitude": "35.53053954",
    "longitude": "139.6996583",
    "tel": "",
    "address": "川崎市川崎区駅前本町7岡田屋モアーズ1-2F",
    "access": "川崎銀柳商店街内、マクドナルド隣",
    "games": [
      "麻雀ファイトガール"
    ]
  },
  {
    "name": "ピンクパンサー 水戸赤塚店",
    "operation_time": "10:00～24:00",
    "holiday": "無し",
    "latitude": "36.3807337",
    "longitude": "140.4136026",
    "tel": "029-309-1983",
    "address": "水戸市河和田1-1",
    "access": "JR水戸線 赤塚駅徒歩5分 フレスポ赤塚内",
    "games": [
      "麻雀ファイトガール"
    ]
  },
  {
    "name": "シルクハット伊勢佐木町",
    "operation_time": "9:00～23:45",
    "holiday": "無し",
    "latitude": "35.44281185",
    "longitude": "139.629987",
    "tel": "",
    "address": "横浜市中区伊勢佐木町3-96日活会館ビル3F",
    "access": "JR関内駅北口より徒歩7分・京急線日ノ出町より徒歩6分・横浜市営地下鉄ブルーライン伊勢佐木長者町駅より徒歩4分",
    "games": [
      "麻雀ファイトガール"
    ]
  },
  {
    "name": "アドアーズ新小岩店",
    "operation_time": "10:00～23:45",
    "holiday": "無し",
    "latitude": "35.71623508",
    "longitude": "139.8580953",
    "tel": "03-5678-5257",
    "address": "葛飾区新小岩1-44-4VORT新小岩B1-3F",
    "access": "新小岩駅南口ロータリーすぐ看板",
    "games": [
      "麻雀ファイトガール"
    ]
  },
  {
    "name": "ラウンドワン南砂店",
    "operation_time": "",
    "holiday": "",
    "latitude": "35.67184786",
    "longitude": "139.8361845",
    "tel": "03-5617-6911",
    "address": "江東区南砂6-7-15トピレックプラザ4F",
    "access": "",
    "games": [
      "麻雀ファイトガール"
    ]
  },
  {
    "name": "江戸川ヤングボウル",
    "operation_time": "一部24時間",
    "holiday": "無し",
    "latitude": "35.71124527",
    "longitude": "139.8694303",
    "tel": "03-3651-1100",
    "address": "江戸川区中央4-22-25",
    "access": "江戸川区文化センター隣",
    "games": [
      "麻雀ファイトガール"
    ]
  },
  {
    "name": "ピンクパンサー土浦店",
    "operation_time": "",
    "holiday": "",
    "latitude": "36.106571",
    "longitude": "140.215204",
    "tel": "029-886-6467",
    "address": "土浦市木田余4585-3",
    "access": "",
    "games": [
      "麻雀ファイトガール"
    ]
  },
  {
    "name": "ラウンドワン川崎大師店",
    "operation_time": "",
    "holiday": "",
    "latitude": "35.53846653",
    "longitude": "139.741634",
    "tel": "044-270-1541",
    "address": "川崎市川崎区殿町1-5-1",
    "access": "",
    "games": [
      "麻雀ファイトガール"
    ]
  },
  {
    "name": "ゲームパニックつくば",
    "operation_time": "",
    "holiday": "",
    "latitude": "36.04632758",
    "longitude": "140.1679958",
    "tel": "080-3350-1839",
    "address": "土浦市中村東1-1-1",
    "access": "",
    "games": [
      "麻雀ファイトガール"
    ]
  },
  {
    "name": "ラウンドワンアリオ柏店",
    "operation_time": "",
    "holiday": "",
    "latitude": "35.832403",
    "longitude": "140.012023",
    "tel": "04-7190-1201",
    "address": "柏市大島田1-6-1セブンパークアリオ柏 1070",
    "access": "",
    "games": [
      "麻雀ファイトガール"
    ]
  },
  {
    "name": "GiGO水戸",
    "operation_time": "",
    "holiday": "",
    "latitude": "36.369467",
    "longitude": "140.474532",
    "tel": "029-231-1002",
    "address": "水戸市宮町1-7-44コムボックス310 3F",
    "access": "",
    "games": [
      "麻雀ファイトガール"
    ]
  },
  {
    "name": "スタジオプリモ本八幡店",
    "operation_time": "",
    "holiday": "",
    "latitude": "35.72122007",
    "longitude": "139.9274269",
    "tel": "047-711-3534",
    "address": "市川市八幡2-15-10パティオ本八幡5F",
    "access": "",
    "games": [
      "麻雀ファイトガール"
    ]
  },
  {
    "name": "ゲームメガ日立店",
    "operation_time": "10:00～24:00",
    "holiday": "無し",
    "latitude": "36.54818909",
    "longitude": "140.6305166",
    "tel": "0294-32-1983",
    "address": "日立市東多賀町5-10-10",
    "access": "常陸多賀駅徒歩5分",
    "games": [
      "麻雀ファイトガール"
    ]
  },
  {
    "name": "大慶園",
    "operation_time": "一部24時間営業",
    "holiday": "無し",
    "latitude": "35.76304297",
    "longitude": "139.96933",
    "tel": "047-337-5001",
    "address": "市川市大町359",
    "access": "JR市川大野駅下車 市川植物園行きバス乗車 市川斎場前下車徒歩10分・北総線大町駅から車5分",
    "games": [
      "麻雀ファイトガール"
    ]
  },
  {
    "name": "ラウンドワン市川鬼高店",
    "operation_time": "",
    "holiday": "",
    "latitude": "35.711239",
    "longitude": "139.927465",
    "tel": "047-320-3801",
    "address": "市川市鬼高4-1-3",
    "access": "",
    "games": [
      "麻雀ファイトガール"
    ]
  },
  {
    "name": "ゲームプラザセントラル浦安店",
    "operation_time": "10:00～24:00",
    "holiday": "無し",
    "latitude": "35.66516962",
    "longitude": "139.8933569",
    "tel": "0473-55-2447",
    "address": "浦安市北栄1-16-15",
    "access": "地下鉄東西線浦安駅前",
    "games": [
      "麻雀ファイトガール"
    ]
  },
  {
    "name": "アミューズメントパレスワンダーヴュー阿見店",
    "operation_time": "",
    "holiday": "",
    "latitude": "36.04223085",
    "longitude": "140.2100215",
    "tel": "0476-23-0561",
    "address": "稲敷郡阿見町大字阿見2958ショッピングセンターマイ･アミ2F",
    "access": "",
    "games": [
      "麻雀ファイトガール"
    ]
  },
  {
    "name": "タイトーFステーション市川妙典店",
    "operation_time": "施設の営業時間に準じる",
    "holiday": "施設の営業日に準じる",
    "latitude": "35.69246485",
    "longitude": "139.9267286",
    "tel": "047-318-3933",
    "address": "市川市妙典4-1-1イオン市川妙典店2番街2F",
    "access": "",
    "games": [
      "麻雀ファイトガール"
    ]
  },
  {
    "name": "アミューズビバ",
    "operation_time": "",
    "holiday": "",
    "latitude": "36.40636031",
    "longitude": "140.5317325",
    "tel": "029-274-7311",
    "address": "ひたちなか市東大島2-11-11-1Fゲームコーナー",
    "access": "勝田駅東口より北へ1km",
    "games": [
      "麻雀ファイトガール"
    ]
  },
  {
    "name": "ゲームメガ水戸けやき台店",
    "operation_time": "10:00～24:00",
    "holiday": "無し",
    "latitude": "36.33805576",
    "longitude": "140.4832773",
    "tel": "029-247-1983",
    "address": "水戸市酒門町3276-1",
    "access": "50号バイパス沿い",
    "games": [
      "麻雀ファイトガール"
    ]
  },
  {
    "name": "アドアーズ船橋店",
    "operation_time": "10:00～23:45",
    "holiday": "",
    "latitude": "35.700449",
    "longitude": "139.984231",
    "tel": "047-411-3337",
    "address": "船橋市本町1-31-26セブン船橋B1-3F",
    "access": "",
    "games": [
      "麻雀ファイトガール"
    ]
  },
  {
    "name": "アミューズメントエース津田沼",
    "operation_time": "9:00～24:00",
    "holiday": "無し",
    "latitude": "35.69228053",
    "longitude": "140.0201572",
    "tel": "047-475-8918",
    "address": "船橋市前原西2-15-1ファミービル1-3F",
    "access": "JR「津田沼駅」下車北口より徒歩1分",
    "games": [
      "麻雀ファイトガール"
    ]
  },
  {
    "name": "GiGOひたちなか",
    "operation_time": "",
    "holiday": "",
    "latitude": "36.34756197",
    "longitude": "140.5803556",
    "tel": "070-1449-2941",
    "address": "ひたちなか市田中後40-11",
    "access": "",
    "games": [
      "麻雀ファイトガール"
    ]
  },
  {
    "name": "ラッキーバッティングドーム",
    "operation_time": "9:00～23:50",
    "holiday": "無し",
    "latitude": "35.72444576",
    "longitude": "140.0674286",
    "tel": "047-458-8208",
    "address": "八千代市大和田新田1088",
    "access": "東葉高速鉄道八千代緑が丘駅徒歩10分",
    "games": [
      "麻雀ファイトガール"
    ]
  },
  {
    "name": "ラウンドワン習志野店",
    "operation_time": "",
    "holiday": "",
    "latitude": "35.660295",
    "longitude": "140.022576",
    "tel": "047-408-1901",
    "address": "習志野市芝園1-4-5",
    "access": "",
    "games": [
      "麻雀ファイトガール"
    ]
  },
  {
    "name": "GiGO幕張",
    "operation_time": "",
    "holiday": "",
    "latitude": "35.65022338",
    "longitude": "140.0425216",
    "tel": "043-273-5261",
    "address": "千葉市美浜区ひび野1-8メッセアミューズモール1F",
    "access": "",
    "games": [
      "麻雀ファイトガール"
    ]
  },
  {
    "name": "ラッキー佐倉店",
    "operation_time": "10:00～23:45",
    "holiday": "無し",
    "latitude": "35.71839979",
    "longitude": "140.1362206",
    "tel": "043-460-5165",
    "address": "佐倉市井野1475",
    "access": "京成線勝田台駅下車徒歩10分 国道296号沿い",
    "games": [
      "麻雀ファイトガール"
    ]
  },
  {
    "name": "スポーツウェーブ鉄腕24稲毛長沼店",
    "operation_time": "一部24時間営業",
    "holiday": "無し",
    "latitude": "35.66179317",
    "longitude": "140.1264239",
    "tel": "043-215-5560",
    "address": "千葉市稲毛区長沼原町697",
    "access": "東関東自動車道 千葉北ICから約5分 千葉総合運動場そば",
    "games": [
      "麻雀ファイトガール"
    ]
  },
  {
    "name": "パレパレ稲毛長沼店",
    "operation_time": "9:00～24:00",
    "holiday": "無し",
    "latitude": "35.65753267",
    "longitude": "140.129187",
    "tel": "043-304-7878",
    "address": "千葉市稲毛区長沼原町731-25フレスポ稲毛A2棟-4",
    "access": "JR稲毛駅より京成バス山王町行き、ヴィルフォーレ下車2分",
    "games": [
      "麻雀ファイトガール"
    ]
  },
  {
    "name": "イスカンダル木更津店",
    "operation_time": "10:00～24:00",
    "holiday": "無し",
    "latitude": "35.36956684",
    "longitude": "139.9172944",
    "tel": "0120-010-267",
    "address": "木更津市潮見4-1-2",
    "access": "木更津市役所より車で1分",
    "games": [
      "麻雀ファイトガール"
    ]
  },
  {
    "name": "ラッキー中央店(フェリシダ)",
    "operation_time": "9:00～24:50",
    "holiday": "無し",
    "latitude": "35.61028144",
    "longitude": "140.1182438",
    "tel": "043-222-5610",
    "address": "千葉市中央区富士見2-8-1",
    "access": "JR千葉駅より徒歩5分",
    "games": [
      "麻雀ファイトガール"
    ]
  },
  {
    "name": "ゲームチャリオット五井店",
    "operation_time": "10:00～24:00",
    "holiday": "無し",
    "latitude": "35.51363106",
    "longitude": "140.0899562",
    "tel": "0436-23-5533",
    "address": "市原市五井中央西2-1-2",
    "access": "JR五井駅西口駅前",
    "games": [
      "麻雀ファイトガール"
    ]
  },
  {
    "name": "スポーツウェーブ鉄腕24浜野店",
    "operation_time": "一部24時間営業",
    "holiday": "無し",
    "latitude": "35.55423187",
    "longitude": "140.1264305",
    "tel": "043-300-8033",
    "address": "千葉市中央区浜野町1025-59",
    "access": "館山自動車道蘇我ICより車で8分",
    "games": [
      "麻雀ファイトガール"
    ]
  },
  {
    "name": "ラウンドワン市原店",
    "operation_time": "",
    "holiday": "",
    "latitude": "35.54749256",
    "longitude": "140.1233239",
    "tel": "0436-44-8801",
    "address": "市原市八幡北町3-5-1",
    "access": "",
    "games": [
      "麻雀ファイトガール"
    ]
  },
  {
    "name": "ゲームチャリオット辰巳店",
    "operation_time": "10:00～24:00",
    "holiday": "無し",
    "latitude": "35.52471801",
    "longitude": "140.121946",
    "tel": "0436-41-9211",
    "address": "市原市市原500-1",
    "access": "館山自動車道蘇我ICより車で10分、国道297号線沿い",
    "games": [
      "麻雀ファイトガール"
    ]
  },
  {
    "name": "フリスポ佐原",
    "operation_time": "",
    "holiday": "",
    "latitude": "35.90115035",
    "longitude": "140.493442",
    "tel": "0478-54-6160",
    "address": "香取市佐原イ-4200",
    "access": "",
    "games": [
      "麻雀ファイトガール"
    ]
  },
  {
    "name": "館山ヤングボウル",
    "operation_time": "10:00～24:00",
    "holiday": "無し",
    "latitude": "34.990732",
    "longitude": "139.86733",
    "tel": "0470-22-6611",
    "address": "館山市北条1564",
    "access": "JR館山駅より徒歩12分",
    "games": [
      "麻雀ファイトガール"
    ]
  },
  {
    "name": "千葉レジャーランド成東店",
    "operation_time": "一部24時間営業",
    "holiday": "無し",
    "latitude": "35.58828462",
    "longitude": "140.3904243",
    "tel": "047-580-1777",
    "address": "山武市姫島111-1",
    "access": "国道126号線成東町姫島地内ローソン奥",
    "games": [
      "麻雀ファイトガール"
    ]
  },
  {
    "name": "GiGO旭",
    "operation_time": "",
    "holiday": "",
    "latitude": "35.72348705",
    "longitude": "140.6395969",
    "tel": "070-1458-7638",
    "address": "旭市二3150-1",
    "access": "",
    "games": [
      "麻雀ファイトガール"
    ]
  }
]