[
  {
    "name": "楽市街道箱崎店3F",
    "operation_time": "10:00～24:00",
    "holiday": "無し",
    "latitude": "33.62410817",
    "longitude": "130.4195897",
    "tel": "092-642-0761",
    "address": "福岡市東区箱崎5-1-8楽市街道箱崎店内3F",
    "access": "3号線沿い九州大学そば",
    "games": [
      "麻雀ファイトガール(ﾊｲｸﾞﾚｰﾄﾞﾓﾃﾞﾙ)"
    ]
  },
  {
    "name": "ファンタジスタ",
    "operation_time": "12:00～24:00",
    "holiday": "店舗にお問合わせください",
    "latitude": "34.5583269",
    "longitude": "133.6767549",
    "tel": "086-526-0438",
    "address": "倉敷市新倉敷駅前5-194",
    "access": "JR西日本山陽本線「新倉敷」駅から南西に徒歩10分",
    "games": [
      "麻雀ファイトガール(ﾊｲｸﾞﾚｰﾄﾞﾓﾃﾞﾙ)"
    ]
  },
  {
    "name": "ユーズランド倉敷店",
    "operation_time": "10:00～21:00",
    "holiday": "無し",
    "latitude": "34.60290341",
    "longitude": "133.7454258",
    "tel": "086-430-5234",
    "address": "倉敷市水江1イオン倉敷ショッピングセンター2F",
    "access": "イオン倉敷SC2F倉敷駅北口1番乗場よりバスで10分山陽自動車道倉敷ICより約7分",
    "games": [
      "麻雀ファイトガール(ﾊｲｸﾞﾚｰﾄﾞﾓﾃﾞﾙ)"
    ]
  },
  {
    "name": "バイパスレジャーランド藤江新館",
    "operation_time": "",
    "holiday": "",
    "latitude": "36.58375651",
    "longitude": "136.6206642",
    "tel": "076-268-7518",
    "address": "金沢市藤江南2-105",
    "access": "",
    "games": [
      "麻雀ファイトガール(ﾊｲｸﾞﾚｰﾄﾞﾓﾃﾞﾙ)"
    ]
  },
  {
    "name": "バイパスレジャーランド藤江本館",
    "operation_time": "一部24時間営業",
    "holiday": "無し",
    "latitude": "36.58397239",
    "longitude": "136.621523",
    "tel": "076-268-3798",
    "address": "金沢市藤江南2-41",
    "access": "国道8号線沿い藤江交差点近く",
    "games": [
      "麻雀ファイトガール(ﾊｲｸﾞﾚｰﾄﾞﾓﾃﾞﾙ)"
    ]
  },
  {
    "name": "福井レジャーランド板垣店",
    "operation_time": "",
    "holiday": "",
    "latitude": "36.042283",
    "longitude": "136.233748",
    "tel": "0776-33-5510",
    "address": "福井市下馬3-112",
    "access": "",
    "games": [
      "麻雀ファイトガール(ﾊｲｸﾞﾚｰﾄﾞﾓﾃﾞﾙ)"
    ]
  },
  {
    "name": "モンキートリック",
    "operation_time": "10:00～24:00",
    "holiday": "無し",
    "latitude": "34.78316526",
    "longitude": "135.628799",
    "tel": "072-835-6361",
    "address": "寝屋川市香里南之町32-5",
    "access": "京阪本線香里園駅下車徒歩2分",
    "games": [
      "麻雀ファイトガール(ﾊｲｸﾞﾚｰﾄﾞﾓﾃﾞﾙ)"
    ]
  },
  {
    "name": "トヤマレジャーランド呉羽店",
    "operation_time": "一部24時間営業",
    "holiday": "無し",
    "latitude": "36.71545083",
    "longitude": "137.1579046",
    "tel": "076-434-5336",
    "address": "富山市高木字貝塚2054",
    "access": "県道44号線沿い呉羽本町交差点を富山方面方向に車で3分",
    "games": [
      "麻雀ファイトガール(ﾊｲｸﾞﾚｰﾄﾞﾓﾃﾞﾙ)"
    ]
  },
  {
    "name": "富山レジャーランド掛尾店",
    "operation_time": "",
    "holiday": "",
    "latitude": "36.66605175",
    "longitude": "137.208892",
    "tel": "076-413-2606",
    "address": "富山市掛尾町360-1",
    "access": "",
    "games": [
      "麻雀ファイトガール(ﾊｲｸﾞﾚｰﾄﾞﾓﾃﾞﾙ)"
    ]
  },
  {
    "name": "岐阜レジャーランド穂積店",
    "operation_time": "7:00～24:00",
    "holiday": "無し",
    "latitude": "35.38432479",
    "longitude": "136.6846653",
    "tel": "058-326-1133",
    "address": "瑞穂市稲里630",
    "access": "国道21号線沿い瑞穂市野田新田交差点近く",
    "games": [
      "麻雀ファイトガール(ﾊｲｸﾞﾚｰﾄﾞﾓﾃﾞﾙ)"
    ]
  },
  {
    "name": "A.Cグランド",
    "operation_time": "9:00～24:00",
    "holiday": "無し",
    "latitude": "35.38308553",
    "longitude": "136.7461998",
    "tel": "058-275-0351",
    "address": "岐阜市茜部大川1-77",
    "access": "名鉄新岐阜駅15分",
    "games": [
      "麻雀ファイトガール(ﾊｲｸﾞﾚｰﾄﾞﾓﾃﾞﾙ)"
    ]
  },
  {
    "name": "ユーズランド下田店",
    "operation_time": "10:00～21:00",
    "holiday": "無し",
    "latitude": "40.60188383",
    "longitude": "141.4176032",
    "tel": "0178-50-3237",
    "address": "上北郡おいらせ町中野平40-1イオンモール下田1F",
    "access": "イオン下田SC1・2FJR下田駅よりバスで10分八戸市より車で約15km、三沢市より車で約15km",
    "games": [
      "麻雀ファイトガール(ﾊｲｸﾞﾚｰﾄﾞﾓﾃﾞﾙ)"
    ]
  },
  {
    "name": "アミューズメントスペースコミ丸四日市店",
    "operation_time": "",
    "holiday": "",
    "latitude": "34.96631",
    "longitude": "136.61633",
    "tel": "059-325-7685",
    "address": "四日市市鵜の森1-3-19",
    "access": "",
    "games": [
      "麻雀ファイトガール(ﾊｲｸﾞﾚｰﾄﾞﾓﾃﾞﾙ)"
    ]
  },
  {
    "name": "ゲームパニック大高",
    "operation_time": "9:00～23:45",
    "holiday": "無し",
    "latitude": "35.04850561",
    "longitude": "136.9496236",
    "tel": "052-625-5360",
    "address": "名古屋市緑区忠治山201グランドボウルB2F",
    "access": "国道23号線大高町共和IC側道グランドボウルB2階",
    "games": [
      "麻雀ファイトガール(ﾊｲｸﾞﾚｰﾄﾞﾓﾃﾞﾙ)"
    ]
  },
  {
    "name": "ダイナソアエイジ",
    "operation_time": "",
    "holiday": "",
    "latitude": "35.03099",
    "longitude": "136.95617",
    "tel": "0562-47-1234",
    "address": "大府市東新町3-88",
    "access": "",
    "games": [
      "麻雀ファイトガール(ﾊｲｸﾞﾚｰﾄﾞﾓﾃﾞﾙ)"
    ]
  },
  {
    "name": "ユーズランド東浦店",
    "operation_time": "10:00～21:00",
    "holiday": "無し",
    "latitude": "34.97885364",
    "longitude": "136.9741411",
    "tel": "0562-82-2782",
    "address": "知多郡東浦町大字緒川字旭13-2イオンモール東浦2F",
    "access": "イオン東浦SC2FJR緒川駅より徒歩5分知多半島道路東浦知多ICより約4km",
    "games": [
      "麻雀ファイトガール(ﾊｲｸﾞﾚｰﾄﾞﾓﾃﾞﾙ)"
    ]
  },
  {
    "name": "ゲームダイコク",
    "operation_time": "",
    "holiday": "",
    "latitude": "34.880273",
    "longitude": "136.916512",
    "tel": "0569-24-1316",
    "address": "半田市青山2-27-1",
    "access": "",
    "games": [
      "麻雀ファイトガール(ﾊｲｸﾞﾚｰﾄﾞﾓﾃﾞﾙ)"
    ]
  },
  {
    "name": "ユーズランド高崎店",
    "operation_time": "10:00～21:00",
    "holiday": "",
    "latitude": "36.39047889",
    "longitude": "139.0067302",
    "tel": "027-310-9113",
    "address": "高崎市棟高町1400イオン高崎SC2F",
    "access": "",
    "games": [
      "麻雀ファイトガール(ﾊｲｸﾞﾚｰﾄﾞﾓﾃﾞﾙ)"
    ]
  },
  {
    "name": "群馬レジャーランド高崎駅東口店",
    "operation_time": "一部24時間営業",
    "holiday": "無し",
    "latitude": "36.32992086",
    "longitude": "139.0128661",
    "tel": "027-330-3002",
    "address": "高崎市江木町333-1高崎EXビル2F",
    "access": "JR高崎駅東口徒歩10分",
    "games": [
      "麻雀ファイトガール(ﾊｲｸﾞﾚｰﾄﾞﾓﾃﾞﾙ)"
    ]
  },
  {
    "name": "インターワールド伊勢崎店",
    "operation_time": "10:00～24:00",
    "holiday": "無し",
    "latitude": "36.3315169",
    "longitude": "139.1624928",
    "tel": "0270-25-4338",
    "address": "伊勢崎市宮子町3425-4",
    "access": "関東自動車道駒形ICから5分。伊勢崎オートレース近く",
    "games": [
      "麻雀ファイトガール(ﾊｲｸﾞﾚｰﾄﾞﾓﾃﾞﾙ)"
    ]
  },
  {
    "name": "群馬レジャーランド伊勢崎店",
    "operation_time": "一部24時間営業",
    "holiday": "無し",
    "latitude": "36.31824274",
    "longitude": "139.1723592",
    "tel": "0270-40-5330",
    "address": "伊勢崎市連取町3066-1",
    "access": "伊勢崎市内県道2号線沿い伊勢崎オート近く",
    "games": [
      "麻雀ファイトガール(ﾊｲｸﾞﾚｰﾄﾞﾓﾃﾞﾙ)"
    ]
  },
  {
    "name": "群馬レジャーランド太田店",
    "operation_time": "一部24時間営業",
    "holiday": "無し",
    "latitude": "36.26802219",
    "longitude": "139.3761382",
    "tel": "0276-47-8030",
    "address": "太田市西矢島町162-2",
    "access": "",
    "games": [
      "麻雀ファイトガール(ﾊｲｸﾞﾚｰﾄﾞﾓﾃﾞﾙ)"
    ]
  },
  {
    "name": "アップル新北街道店",
    "operation_time": "10:00～24:00",
    "holiday": "無休",
    "latitude": "34.99831803",
    "longitude": "138.4134069",
    "tel": "054-261-9109",
    "address": "静岡市葵区沓谷5-13-4",
    "access": "東名高速静岡ICから車で20分",
    "games": [
      "麻雀ファイトガール(ﾊｲｸﾞﾚｰﾄﾞﾓﾃﾞﾙ)"
    ]
  },
  {
    "name": "タイトーFステーションクレアモール川越店",
    "operation_time": "",
    "holiday": "",
    "latitude": "35.91384483",
    "longitude": "139.482921",
    "tel": "049-298-8963",
    "address": "川越市新富町2-1-13本川越SSビル1-4F",
    "access": "",
    "games": [
      "麻雀ファイトガール(ﾊｲｸﾞﾚｰﾄﾞﾓﾃﾞﾙ)"
    ]
  },
  {
    "name": "埼玉レジャーランド大宮ラクーン店",
    "operation_time": "",
    "holiday": "",
    "latitude": "35.90775385",
    "longitude": "139.6256741",
    "tel": "048-871-5539",
    "address": "さいたま市大宮区宮町1-60大宮ラクーン5F",
    "access": "",
    "games": [
      "麻雀ファイトガール(ﾊｲｸﾞﾚｰﾄﾞﾓﾃﾞﾙ)"
    ]
  },
  {
    "name": "Amusement&Game MAGHREB",
    "operation_time": "10:00～24:00",
    "holiday": "無し",
    "latitude": "35.624024",
    "longitude": "139.423196",
    "tel": "042-371-5556",
    "address": "多摩市落合1-39-2マグレブビル1F",
    "access": "京王線・小田急線 多摩センター駅 徒歩3分/多摩モノレール多摩センター駅 徒歩1分",
    "games": [
      "麻雀ファイトガール(ﾊｲｸﾞﾚｰﾄﾞﾓﾃﾞﾙ)"
    ]
  },
  {
    "name": "神奈川レジャーランド厚木店",
    "operation_time": "一部24時間営業",
    "holiday": "無し",
    "latitude": "35.44802433",
    "longitude": "139.3431365",
    "tel": "050-1722-4336",
    "address": "厚木市戸室5-31-1",
    "access": "小田急本厚木駅よりバスにてアンリツ前バス停下車徒歩1分",
    "games": [
      "麻雀ファイトガール(ﾊｲｸﾞﾚｰﾄﾞﾓﾃﾞﾙ)"
    ]
  },
  {
    "name": "東京レジャーランド吉祥寺店",
    "operation_time": "",
    "holiday": "",
    "latitude": "35.7036243",
    "longitude": "139.5786419",
    "tel": "0422-27-2200",
    "address": "武蔵野市吉祥寺本町1-3-7YSビル",
    "access": "",
    "games": [
      "麻雀ファイトガール(ﾊｲｸﾞﾚｰﾄﾞﾓﾃﾞﾙ)"
    ]
  },
  {
    "name": "アドアーズ中野店",
    "operation_time": "10:00～23:45",
    "holiday": "無し",
    "latitude": "35.70931435",
    "longitude": "139.6656989",
    "tel": "03-3389-7670",
    "address": "中野区中野5-52-15ブロードウェイ185",
    "access": "中野ブロードウェイ内左手",
    "games": [
      "麻雀ファイトガール(ﾊｲｸﾞﾚｰﾄﾞﾓﾃﾞﾙ)"
    ]
  },
  {
    "name": "ユーズランド越谷店",
    "operation_time": "10:00～21:00",
    "holiday": "無し",
    "latitude": "35.87763779",
    "longitude": "139.8247477",
    "tel": "048-934-3342",
    "address": "越谷市レイクタウン4-2-2イオンレイクタウンKAZE 3F",
    "access": "武蔵野線レイクタウン駅下車徒歩1分",
    "games": [
      "麻雀ファイトガール(ﾊｲｸﾞﾚｰﾄﾞﾓﾃﾞﾙ)"
    ]
  },
  {
    "name": "ゲームパニック新宿歌舞伎町",
    "operation_time": "",
    "holiday": "",
    "latitude": "35.69606337",
    "longitude": "139.7012777",
    "tel": "03-6265-9021",
    "address": "新宿区歌舞伎町1-20-1ヒューマックスパビリオン1-2F",
    "access": "",
    "games": [
      "麻雀ファイトガール(ﾊｲｸﾞﾚｰﾄﾞﾓﾃﾞﾙ)"
    ]
  },
  {
    "name": "楽市楽座湘南藤沢店",
    "operation_time": "10:00～22:00",
    "holiday": "無し",
    "latitude": "35.34049487",
    "longitude": "139.4648408",
    "tel": "0466-30-2332",
    "address": "藤沢市辻堂新町4-3-5ミスターマックス湘南藤沢内",
    "access": "ミスターマックス湘南藤沢SC2F",
    "games": [
      "麻雀ファイトガール(ﾊｲｸﾞﾚｰﾄﾞﾓﾃﾞﾙ)"
    ]
  },
  {
    "name": "アドアーズ上野アメ横店",
    "operation_time": "10:00～23:30",
    "holiday": "無し",
    "latitude": "35.71002035",
    "longitude": "139.7742619",
    "tel": "03-5812-1570",
    "address": "台東区上野4-9-14上野KKビルB1-4F",
    "access": "アメ横センタービルそば",
    "games": [
      "麻雀ファイトガール(ﾊｲｸﾞﾚｰﾄﾞﾓﾃﾞﾙ)"
    ]
  },
  {
    "name": "東京レジャーランド秋葉原店",
    "operation_time": "10:00～25:00",
    "holiday": "無し",
    "latitude": "35.69887947",
    "longitude": "139.7701404",
    "tel": "03-5298-1360",
    "address": "千代田区外神田1-9-5",
    "access": "JR秋葉原駅徒歩5分",
    "games": [
      "麻雀ファイトガール(ﾊｲｸﾞﾚｰﾄﾞﾓﾃﾞﾙ)"
    ]
  },
  {
    "name": "東京レジャーランド秋葉原2号店",
    "operation_time": "10:00～25:00",
    "holiday": "無し",
    "latitude": "35.70073433",
    "longitude": "139.7718424",
    "tel": "03-5209-5650",
    "address": "千代田区外神田4-3-3",
    "access": "JR秋葉原駅より徒歩5分",
    "games": [
      "麻雀ファイトガール(ﾊｲｸﾞﾚｰﾄﾞﾓﾃﾞﾙ)"
    ]
  },
  {
    "name": "ゲームパニック秋葉原",
    "operation_time": "",
    "holiday": "",
    "latitude": "35.69891",
    "longitude": "139.77165",
    "tel": "03-6285-2820",
    "address": "千代田区外神田1-13-1第122東京ビル",
    "access": "",
    "games": [
      "麻雀ファイトガール(ﾊｲｸﾞﾚｰﾄﾞﾓﾃﾞﾙ)"
    ]
  },
  {
    "name": "ユーズランド水戸内原店",
    "operation_time": "10:00～21:00",
    "holiday": "",
    "latitude": "36.374428",
    "longitude": "140.3590138",
    "tel": "029-259-1218",
    "address": "水戸市内原2-1イオンモール水戸内原2F",
    "access": "",
    "games": [
      "麻雀ファイトガール(ﾊｲｸﾞﾚｰﾄﾞﾓﾃﾞﾙ)"
    ]
  },
  {
    "name": "東京レジャーランド亀有店",
    "operation_time": "",
    "holiday": "",
    "latitude": "35.765462",
    "longitude": "139.84798",
    "tel": "03-5680-8893",
    "address": "葛飾区亀有3-21-2",
    "access": "",
    "games": [
      "麻雀ファイトガール(ﾊｲｸﾞﾚｰﾄﾞﾓﾃﾞﾙ)"
    ]
  },
  {
    "name": "タイトーFステーションオリナス錦糸町店",
    "operation_time": "10:00～23:45",
    "holiday": "無し",
    "latitude": "35.700721",
    "longitude": "139.816024",
    "tel": "03-5610-7376",
    "address": "墨田区太平4-1-2オリナスB1F",
    "access": "JR総武線錦糸町駅北口から徒歩5分",
    "games": [
      "麻雀ファイトガール(ﾊｲｸﾞﾚｰﾄﾞﾓﾃﾞﾙ)"
    ]
  },
  {
    "name": "ゲームパニックつくば",
    "operation_time": "",
    "holiday": "",
    "latitude": "36.04632758",
    "longitude": "140.1679958",
    "tel": "080-3350-1839",
    "address": "土浦市中村東1-1-1",
    "access": "",
    "games": [
      "麻雀ファイトガール(ﾊｲｸﾞﾚｰﾄﾞﾓﾃﾞﾙ)"
    ]
  },
  {
    "name": "大慶園",
    "operation_time": "一部24時間営業",
    "holiday": "無し",
    "latitude": "35.76304297",
    "longitude": "139.96933",
    "tel": "047-337-5001",
    "address": "市川市大町359",
    "access": "JR市川大野駅下車 市川植物園行きバス乗車 市川斎場前下車徒歩10分・北総線大町駅から車5分",
    "games": [
      "麻雀ファイトガール(ﾊｲｸﾞﾚｰﾄﾞﾓﾃﾞﾙ)"
    ]
  },
  {
    "name": "タイトーFステーション市川妙典店",
    "operation_time": "施設の営業時間に準じる",
    "holiday": "施設の営業日に準じる",
    "latitude": "35.69246485",
    "longitude": "139.9267286",
    "tel": "047-318-3933",
    "address": "市川市妙典4-1-1イオン市川妙典店2番街2F",
    "access": "",
    "games": [
      "麻雀ファイトガール(ﾊｲｸﾞﾚｰﾄﾞﾓﾃﾞﾙ)"
    ]
  },
  {
    "name": "アミューズメントエース津田沼",
    "operation_time": "9:00～24:00",
    "holiday": "無し",
    "latitude": "35.69228053",
    "longitude": "140.0201572",
    "tel": "047-475-8918",
    "address": "船橋市前原西2-15-1ファミービル1-3F",
    "access": "JR「津田沼駅」下車北口より徒歩1分",
    "games": [
      "麻雀ファイトガール(ﾊｲｸﾞﾚｰﾄﾞﾓﾃﾞﾙ)"
    ]
  },
  {
    "name": "スポーツウェーブ鉄腕24稲毛長沼店",
    "operation_time": "一部24時間営業",
    "holiday": "無し",
    "latitude": "35.66179317",
    "longitude": "140.1264239",
    "tel": "043-215-5560",
    "address": "千葉市稲毛区長沼原町697",
    "access": "東関東自動車道 千葉北ICから約5分 千葉総合運動場そば",
    "games": [
      "麻雀ファイトガール(ﾊｲｸﾞﾚｰﾄﾞﾓﾃﾞﾙ)"
    ]
  },
  {
    "name": "スポーツウェーブ鉄腕24浜野店",
    "operation_time": "一部24時間営業",
    "holiday": "無し",
    "latitude": "35.55423187",
    "longitude": "140.1264305",
    "tel": "043-300-8033",
    "address": "千葉市中央区浜野町1025-59",
    "access": "館山自動車道蘇我ICより車で8分",
    "games": [
      "麻雀ファイトガール(ﾊｲｸﾞﾚｰﾄﾞﾓﾃﾞﾙ)"
    ]
  },
  {
    "name": "千葉レジャーランド成東店",
    "operation_time": "一部24時間営業",
    "holiday": "無し",
    "latitude": "35.58828462",
    "longitude": "140.3904243",
    "tel": "047-580-1777",
    "address": "山武市姫島111-1",
    "access": "国道126号線成東町姫島地内ローソン奥",
    "games": [
      "麻雀ファイトガール(ﾊｲｸﾞﾚｰﾄﾞﾓﾃﾞﾙ)"
    ]
  }
]