[
  {
    "name": "アミパラ佐世保店",
    "operation_time": "10:00～24:00",
    "holiday": "無し",
    "latitude": "33.15005741",
    "longitude": "129.7804145",
    "tel": "0956-34-8880",
    "address": "佐世保市大塔町18-15",
    "access": "JR大塔駅徒歩3分",
    "games": [
      "MILLIONET"
    ]
  },
  {
    "name": "G-pala時津店",
    "operation_time": "10:00～24:00",
    "holiday": "無し",
    "latitude": "32.8243884",
    "longitude": "129.8477553",
    "tel": "095-813-2442",
    "address": "西彼杵郡時津町野田郷59",
    "access": "国道206号沿い",
    "games": [
      "MILLIONET"
    ]
  },
  {
    "name": "サープラ新宮あそびタウン",
    "operation_time": "",
    "holiday": "",
    "latitude": "33.706165",
    "longitude": "130.440645",
    "tel": "092-410-4528",
    "address": "糟屋郡新宮町美咲3-1-40",
    "access": "",
    "games": [
      "MILLIONET"
    ]
  },
  {
    "name": "アソビクル福岡新宮店",
    "operation_time": "",
    "holiday": "",
    "latitude": "33.70403275",
    "longitude": "130.4555648",
    "tel": "092-410-6997",
    "address": "糟屋郡新宮町大字三代999-1",
    "access": "",
    "games": [
      "MILLIONET"
    ]
  },
  {
    "name": "タイトーステーション福岡天神店",
    "operation_time": "10:00～翌1:00",
    "holiday": "無し",
    "latitude": "33.5896519",
    "longitude": "130.3962521",
    "tel": "092-737-5500",
    "address": "福岡市中央区天神2-6-35サザンクロスビル",
    "access": "西鉄福岡駅北口より徒歩2分",
    "games": [
      "MILLIONET"
    ]
  },
  {
    "name": "ラウンドワン福岡天神店",
    "operation_time": "",
    "holiday": "",
    "latitude": "33.58960223",
    "longitude": "130.3968402",
    "tel": "092-720-8101",
    "address": "福岡市中央区天神2-6-12",
    "access": "",
    "games": [
      "MILLIONET"
    ]
  },
  {
    "name": "楽市街道箱崎店3F",
    "operation_time": "10:00～24:00",
    "holiday": "無し",
    "latitude": "33.62410817",
    "longitude": "130.4195897",
    "tel": "092-642-0761",
    "address": "福岡市東区箱崎5-1-8楽市街道箱崎店内3F",
    "access": "3号線沿い九州大学そば",
    "games": [
      "MILLIONET"
    ]
  },
  {
    "name": "ラウンドワン博多半道橋店",
    "operation_time": "",
    "holiday": "",
    "latitude": "33.58394157",
    "longitude": "130.4382666",
    "tel": "092-475-6611",
    "address": "福岡市博多区半道橋2-2-8",
    "access": "",
    "games": [
      "MILLIONET"
    ]
  },
  {
    "name": "楽市楽座210トリアス店",
    "operation_time": "10:00～24:00",
    "holiday": "無し",
    "latitude": "33.65282452",
    "longitude": "130.4920223",
    "tel": "092-976-3421",
    "address": "糟屋郡久山町大字山田990",
    "access": "久山町ショッピングモールトリアス敷地内",
    "games": [
      "MILLIONET"
    ]
  },
  {
    "name": "遊道楽 嘉瀬店",
    "operation_time": "11:00～24:00",
    "holiday": "無し",
    "latitude": "33.24215325",
    "longitude": "130.2565663",
    "tel": "0952-40-0952",
    "address": "佐賀市嘉瀬町大字中原2488-1",
    "access": "207号線沿い",
    "games": [
      "MILLIONET"
    ]
  },
  {
    "name": "ラウンドワン佐賀店",
    "operation_time": "",
    "holiday": "",
    "latitude": "33.27533631",
    "longitude": "130.3015536",
    "tel": "0952-36-7070",
    "address": "佐賀市兵庫北4-2-1",
    "access": "",
    "games": [
      "MILLIONET"
    ]
  },
  {
    "name": "ラウンドワン大野城店",
    "operation_time": "",
    "holiday": "",
    "latitude": "33.54646948",
    "longitude": "130.4822214",
    "tel": "092-504-7411",
    "address": "大野城市御笠川1-18-16",
    "access": "",
    "games": [
      "MILLIONET"
    ]
  },
  {
    "name": "GiGO中間",
    "operation_time": "",
    "holiday": "",
    "latitude": "33.8231005",
    "longitude": "130.721697",
    "tel": "093-246-1941",
    "address": "中間市上蓮花寺3-1-1",
    "access": "",
    "games": [
      "MILLIONET"
    ]
  },
  {
    "name": "G-STAGE飯塚",
    "operation_time": "10:00～24:00",
    "holiday": "無し",
    "latitude": "33.636493",
    "longitude": "130.676011",
    "tel": "050-3539-3593",
    "address": "飯塚市枝国680-2",
    "access": "",
    "games": [
      "MILLIONET"
    ]
  },
  {
    "name": "ラウンドワン小倉店",
    "operation_time": "",
    "holiday": "",
    "latitude": "33.89742877",
    "longitude": "130.8598475",
    "tel": "093-562-8805",
    "address": "北九州市小倉北区西港町15-65",
    "access": "",
    "games": [
      "MILLIONET"
    ]
  },
  {
    "name": "遊道楽新合川",
    "operation_time": "10:00～24:00",
    "holiday": "無し",
    "latitude": "33.32176241",
    "longitude": "130.541007",
    "tel": "0942-45-3335",
    "address": "久留米市新合川1-6-7",
    "access": "国道210号線バイパス沿い",
    "games": [
      "MILLIONET"
    ]
  },
  {
    "name": "楽市街道くるめ店",
    "operation_time": "10:00～24:00",
    "holiday": "無し",
    "latitude": "33.31964228",
    "longitude": "130.5426663",
    "tel": "0942-41-1450",
    "address": "久留米市新合川2-7-10久留米アミューズメントビル内",
    "access": "久留米ICから車で5分国道210号線沿い",
    "games": [
      "MILLIONET"
    ]
  },
  {
    "name": "アミパラ下関長府店",
    "operation_time": "10:00～24:00",
    "holiday": "無し",
    "latitude": "34.02547781",
    "longitude": "131.0073811",
    "tel": "083-248-5008",
    "address": "下関市長府才川1-42-48",
    "access": "JR長府駅徒歩12分",
    "games": [
      "MILLIONET"
    ]
  },
  {
    "name": "G-pala小倉店",
    "operation_time": "",
    "holiday": "",
    "latitude": "33.83945824",
    "longitude": "130.9109857",
    "tel": "093-953-7405",
    "address": "北九州市小倉南区上葛原1-14-1",
    "access": "",
    "games": [
      "MILLIONET"
    ]
  },
  {
    "name": "パスカワールドグリーンランド",
    "operation_time": "10:00～翌3:00",
    "holiday": "無し",
    "latitude": "32.98790587",
    "longitude": "130.4711246",
    "tel": "0968-69-3001",
    "address": "荒尾市本井手1574-54",
    "access": "三井グリーンランドウルトラマンランド横",
    "games": [
      "MILLIONET"
    ]
  },
  {
    "name": "サープラ山口あそびタウン",
    "operation_time": "9:00～24:00",
    "holiday": "無し",
    "latitude": "34.1647908",
    "longitude": "131.4517343",
    "tel": "083-933-0307",
    "address": "山口市湯田温泉6-8-3",
    "access": "JR山口線 湯田温泉駅下車 湯田自動車学校方面徒歩10分",
    "games": [
      "MILLIONET"
    ]
  },
  {
    "name": "ラウンドワン熊本店",
    "operation_time": "",
    "holiday": "",
    "latitude": "32.78499883",
    "longitude": "130.6775647",
    "tel": "096-325-7200",
    "address": "熊本市西区春日7-25-15",
    "access": "",
    "games": [
      "MILLIONET"
    ]
  },
  {
    "name": "パスカワールド宇土店",
    "operation_time": "日曜～木曜 10:00～23:00  金曜・土曜 10:00～24:00",
    "holiday": "無し",
    "latitude": "32.68271108",
    "longitude": "130.6679513",
    "tel": "0964-22-5311",
    "address": "宇土市善道寺町綾織95",
    "access": "松橋ICより車で10分、宇土シティーショッピングセンター内",
    "games": [
      "MILLIONET"
    ]
  },
  {
    "name": "アミパラ周南久米店",
    "operation_time": "",
    "holiday": "",
    "latitude": "34.03737576",
    "longitude": "131.8441913",
    "tel": "083-436-1234",
    "address": "周南市久米中央5-6-1イオンタウン周南久米内",
    "access": "",
    "games": [
      "MILLIONET"
    ]
  },
  {
    "name": "ラウンドワン沖縄･宜野湾店",
    "operation_time": "",
    "holiday": "",
    "latitude": "26.27580261",
    "longitude": "127.7310389",
    "tel": "098-870-2110",
    "address": "宜野湾市真志喜3-28-8",
    "access": "",
    "games": [
      "MILLIONET"
    ]
  },
  {
    "name": "GiGO北谷",
    "operation_time": "",
    "holiday": "",
    "latitude": "26.317045",
    "longitude": "127.755636",
    "tel": "098-936-6741",
    "address": "中頭郡北谷町美浜9-8",
    "access": "",
    "games": [
      "MILLIONET"
    ]
  },
  {
    "name": "ラウンドワン沖縄･南風原店",
    "operation_time": "",
    "holiday": "",
    "latitude": "26.19509176",
    "longitude": "127.7210653",
    "tel": "098-940-6670",
    "address": "島尻郡南風原町字兼城下茂原552",
    "access": "",
    "games": [
      "MILLIONET"
    ]
  },
  {
    "name": "ラウンドワン鹿児島宇宿店",
    "operation_time": "",
    "holiday": "",
    "latitude": "31.54388304",
    "longitude": "130.5427759",
    "tel": "099-284-0655",
    "address": "鹿児島市宇宿2-2-2",
    "access": "",
    "games": [
      "MILLIONET"
    ]
  },
  {
    "name": "サープラ鹿児島あそびタウン",
    "operation_time": "9:00～24:00",
    "holiday": "無し",
    "latitude": "31.57003616",
    "longitude": "130.565823",
    "tel": "099-213-0223",
    "address": "鹿児島市与次郎1-11-1 2F",
    "access": "フレスポジャングルパーク鹿児島店2F",
    "games": [
      "MILLIONET"
    ]
  },
  {
    "name": "ラウンドワン大分店",
    "operation_time": "",
    "holiday": "",
    "latitude": "33.24885259",
    "longitude": "131.6402543",
    "tel": "097-573-2800",
    "address": "大分市萩原2-13-17",
    "access": "",
    "games": [
      "MILLIONET"
    ]
  },
  {
    "name": "スペースV1廿日市店",
    "operation_time": "10:00～24:00",
    "holiday": "無し",
    "latitude": "34.35185323",
    "longitude": "132.3340207",
    "tel": "0829-34-3311",
    "address": "廿日市市本町4-23",
    "access": "山陽本線廿日市駅下車2号線沿い東へ徒歩15分",
    "games": [
      "MILLIONET"
    ]
  },
  {
    "name": "アミパラ松江店",
    "operation_time": "",
    "holiday": "",
    "latitude": "35.463684",
    "longitude": "133.074132",
    "tel": "0852-67-1700",
    "address": "松江市東朝日町203-1",
    "access": "",
    "games": [
      "MILLIONET"
    ]
  },
  {
    "name": "サープラ国分あそびタウン",
    "operation_time": "9:00～24:00",
    "holiday": "無し",
    "latitude": "31.72203434",
    "longitude": "130.756017",
    "tel": "0995-48-6789",
    "address": "霧島市国分広瀬2-4-1",
    "access": "",
    "games": [
      "MILLIONET"
    ]
  },
  {
    "name": "GiGOアルパーク北棟",
    "operation_time": "",
    "holiday": "",
    "latitude": "34.37630292",
    "longitude": "132.3950257",
    "tel": "090-9155-1362",
    "address": "広島市西区草津南4-7-1アルパーク北棟2F",
    "access": "",
    "games": [
      "MILLIONET"
    ]
  },
  {
    "name": "アミパラ広島店",
    "operation_time": "10:00～24:00",
    "holiday": "無し",
    "latitude": "34.39350431",
    "longitude": "132.4360428",
    "tel": "082-297-7135",
    "address": "広島市西区西観音町3-17",
    "access": "平和大通り沿い、西区区役所から東へすぐ",
    "games": [
      "MILLIONET"
    ]
  },
  {
    "name": "ラウンドワン広島店",
    "operation_time": "",
    "holiday": "",
    "latitude": "34.39365895",
    "longitude": "132.4600423",
    "tel": "082-545-8910",
    "address": "広島市中区立町3-11",
    "access": "",
    "games": [
      "MILLIONET"
    ]
  },
  {
    "name": "アミパラフォレオ広島東店",
    "operation_time": "",
    "holiday": "",
    "latitude": "34.407515",
    "longitude": "132.504176",
    "tel": "082-562-2211",
    "address": "広島市東区温品1-3-2フォレオ広島東1F",
    "access": "",
    "games": [
      "MILLIONET"
    ]
  },
  {
    "name": "アミパラがいな店",
    "operation_time": "10:00 ～ 24:00",
    "holiday": "無し",
    "latitude": "35.43797411",
    "longitude": "133.3392651",
    "tel": "0859-39-1800",
    "address": "米子市日ノ出町1-8-13",
    "access": "米子しんまち天満屋から南西へ300m",
    "games": [
      "MILLIONET"
    ]
  },
  {
    "name": "アミパラ日吉津店",
    "operation_time": "10:00～24:00",
    "holiday": "無し",
    "latitude": "35.44581571",
    "longitude": "133.3869124",
    "tel": "0859-37-1959",
    "address": "西伯郡日吉津村日吉津1160-1イオン日吉津SC西館2F",
    "access": "米子道米子ICより北へ車で5分 イオン日吉津ショッピングセンター西館1階",
    "games": [
      "MILLIONET"
    ]
  },
  {
    "name": "サープラ都城あそびタウン",
    "operation_time": "",
    "holiday": "",
    "latitude": "31.749022",
    "longitude": "131.079009",
    "tel": "0986-46-2422",
    "address": "都城市上川東4-5997-4",
    "access": "",
    "games": [
      "MILLIONET"
    ]
  },
  {
    "name": "サープラ鹿屋あそびタウン",
    "operation_time": "",
    "holiday": "",
    "latitude": "31.388753",
    "longitude": "130.898",
    "tel": "0994-65-5911",
    "address": "肝属郡肝付町富山1008-5",
    "access": "",
    "games": [
      "MILLIONET"
    ]
  },
  {
    "name": "ラウンドワン宮崎店",
    "operation_time": "",
    "holiday": "",
    "latitude": "31.89458335",
    "longitude": "131.4170876",
    "tel": "0985-63-1210",
    "address": "宮崎市中村東3-4-60",
    "access": "",
    "games": [
      "MILLIONET"
    ]
  },
  {
    "name": "ラウンドワン松山店",
    "operation_time": "",
    "holiday": "",
    "latitude": "33.8664873",
    "longitude": "132.751593",
    "tel": "089-911-5511",
    "address": "松山市東長戸1-3-10",
    "access": "",
    "games": [
      "MILLIONET"
    ]
  },
  {
    "name": "アミパラ松山店",
    "operation_time": "10:00～24:00",
    "holiday": "無し",
    "latitude": "33.833875",
    "longitude": "132.744981",
    "tel": "089-913-5533",
    "address": "松山市生石町655-1",
    "access": "JR松山駅から南西1km 国道196号線沿い",
    "games": [
      "MILLIONET"
    ]
  },
  {
    "name": "アミパラ東尾道店",
    "operation_time": "",
    "holiday": "",
    "latitude": "34.43048495",
    "longitude": "133.2315964",
    "tel": "0848-36-5715",
    "address": "尾道市高須町5688",
    "access": "",
    "games": [
      "MILLIONET"
    ]
  },
  {
    "name": "アミパラ神辺店",
    "operation_time": "10:00～24:00",
    "holiday": "無し",
    "latitude": "34.54578493",
    "longitude": "133.3586159",
    "tel": "084-963-3555",
    "address": "福山市神辺町大字新道上字1-2-1",
    "access": "フジグラン神辺店向かい",
    "games": [
      "MILLIONET"
    ]
  },
  {
    "name": "あみぱらんど福山店",
    "operation_time": "10:00～24:00",
    "holiday": "無し",
    "latitude": "34.48795195",
    "longitude": "133.3784594",
    "tel": "0849-25-6188",
    "address": "福山市三吉町南2-8-24",
    "access": "国道2号線沿い、福山警察署から東へすぐ",
    "games": [
      "MILLIONET"
    ]
  },
  {
    "name": "ラウンドワン福山店",
    "operation_time": "",
    "holiday": "",
    "latitude": "34.489155",
    "longitude": "133.3925782",
    "tel": "084-973-9891",
    "address": "福山市明神町1-9-28",
    "access": "",
    "games": [
      "MILLIONET"
    ]
  },
  {
    "name": "アミパラ倉敷店",
    "operation_time": "10:00～24:00",
    "holiday": "無し",
    "latitude": "34.58364137",
    "longitude": "133.7712207",
    "tel": "086-430-2111",
    "address": "倉敷市西中新田624-1アミパラボウル1F",
    "access": "倉敷市役所前、アミパラボウル1F",
    "games": [
      "MILLIONET"
    ]
  },
  {
    "name": "ラウンドワン岡山妹尾店",
    "operation_time": "",
    "holiday": "",
    "latitude": "34.62318926",
    "longitude": "133.8694608",
    "tel": "086-282-8851",
    "address": "岡山市南区妹尾3413-1",
    "access": "",
    "games": [
      "MILLIONET"
    ]
  },
  {
    "name": "GiGOイオンモール岡山",
    "operation_time": "",
    "holiday": "",
    "latitude": "34.66214987",
    "longitude": "133.9177027",
    "tel": "086-227-7681",
    "address": "岡山市北区下石井1-2-1イオンモール岡山6F",
    "access": "",
    "games": [
      "MILLIONET"
    ]
  },
  {
    "name": "アミパラ岡山店",
    "operation_time": "10:00～24:00",
    "holiday": "無し",
    "latitude": "34.63615978",
    "longitude": "133.919988",
    "tel": "086-235-3332",
    "address": "岡山市北区青江1-13-8",
    "access": "2号線バイパス・青江交差点から北へすぐ",
    "games": [
      "MILLIONET"
    ]
  },
  {
    "name": "アミパラ丸亀店",
    "operation_time": "10:00～24:00",
    "holiday": "無し",
    "latitude": "34.28466398",
    "longitude": "133.8209638",
    "tel": "0877-24-6666",
    "address": "丸亀市飯野町西分字川縁甲584-1ハローズ棟",
    "access": "坂出ICから5分国道11号線沿い ニトリ隣",
    "games": [
      "MILLIONET"
    ]
  },
  {
    "name": "ラウンドワン札幌北21条店",
    "operation_time": "",
    "holiday": "",
    "latitude": "43.08681907",
    "longitude": "141.3495671",
    "tel": "011-733-8801",
    "address": "札幌市東区北21条東1-1-21",
    "access": "",
    "games": [
      "MILLIONET"
    ]
  },
  {
    "name": "ラウンドワン札幌すすきの店",
    "operation_time": "",
    "holiday": "",
    "latitude": "43.05431311",
    "longitude": "141.3540587",
    "tel": "011-520-1022",
    "address": "札幌市中央区南五条西3-6-1札幌東宝公楽ビル",
    "access": "",
    "games": [
      "MILLIONET"
    ]
  },
  {
    "name": "ラウンドワン高松店",
    "operation_time": "",
    "holiday": "",
    "latitude": "34.33898638",
    "longitude": "134.0669994",
    "tel": "087-812-6115",
    "address": "高松市松島町2-7-43",
    "access": "",
    "games": [
      "MILLIONET"
    ]
  },
  {
    "name": "ラウンドワン高知店",
    "operation_time": "",
    "holiday": "",
    "latitude": "33.55793713",
    "longitude": "133.554676",
    "tel": "088-804-3070",
    "address": "高知市南宝永町4-12",
    "access": "",
    "games": [
      "MILLIONET"
    ]
  },
  {
    "name": "アミパラ高松店",
    "operation_time": "",
    "holiday": "",
    "latitude": "34.30701859",
    "longitude": "134.0591822",
    "tel": "087-899-8868",
    "address": "高松市伏石町2168-2",
    "access": "",
    "games": [
      "MILLIONET"
    ]
  },
  {
    "name": "ラウンドワン札幌白石本通店",
    "operation_time": "",
    "holiday": "",
    "latitude": "43.03673108",
    "longitude": "141.4328227",
    "tel": "011-865-8051",
    "address": "札幌市白石区本通-16-北1-50",
    "access": "",
    "games": [
      "MILLIONET"
    ]
  },
  {
    "name": "キャッツアイ新札幌店",
    "operation_time": "10:00～24:00",
    "holiday": "無し",
    "latitude": "43.04493545",
    "longitude": "141.4754191",
    "tel": "011-899-1500",
    "address": "札幌市厚別区厚別東5条1-2-10",
    "access": "JR、札幌市営地下鉄新札幌駅下車徒歩20分",
    "games": [
      "MILLIONET"
    ]
  },
  {
    "name": "アミパラ高知店",
    "operation_time": "10:00～24:00",
    "holiday": "無し",
    "latitude": "33.56792315",
    "longitude": "133.6344447",
    "tel": "088-863-4343",
    "address": "南国市篠原194-1",
    "access": "南国ICを降りて南に突き当たり、東へ1km",
    "games": [
      "MILLIONET"
    ]
  },
  {
    "name": "ラウンドワン旭川店",
    "operation_time": "",
    "holiday": "",
    "latitude": "43.78651521",
    "longitude": "142.397308",
    "tel": "0166-49-5071",
    "address": "旭川市永山3条1-4-7",
    "access": "",
    "games": [
      "MILLIONET"
    ]
  },
  {
    "name": "ゲームアイビス太子店",
    "operation_time": "10:00～24:00",
    "holiday": "無し",
    "latitude": "34.83203126",
    "longitude": "134.6001053",
    "tel": "0792-77-2320",
    "address": "揖保郡太子町太田2148-1",
    "access": "姫路バイパス太子ランプより相生方面へ車で5分",
    "games": [
      "MILLIONET"
    ]
  },
  {
    "name": "ラウンドワン姫路飾磨店",
    "operation_time": "",
    "holiday": "",
    "latitude": "34.79228629",
    "longitude": "134.6871127",
    "tel": "079-243-1830",
    "address": "姫路市飾磨区中島1-254",
    "access": "",
    "games": [
      "MILLIONET"
    ]
  },
  {
    "name": "アピナ姫路店",
    "operation_time": "",
    "holiday": "",
    "latitude": "34.82687",
    "longitude": "134.7151",
    "tel": "079-222-8811",
    "address": "姫路市東郷町1454-3姫路リオス2F",
    "access": "",
    "games": [
      "MILLIONET"
    ]
  },
  {
    "name": "ラウンドワン函館店",
    "operation_time": "",
    "holiday": "",
    "latitude": "41.82459206",
    "longitude": "140.7173548",
    "tel": "0138-49-8401",
    "address": "函館市西桔梗町848-11",
    "access": "",
    "games": [
      "MILLIONET"
    ]
  },
  {
    "name": "アミパラ加古川店",
    "operation_time": "10:00～24:00",
    "holiday": "無し",
    "latitude": "34.75139256",
    "longitude": "134.8287077",
    "tel": "079-456-0044",
    "address": "加古川市尾上町今福71-2",
    "access": "JR播但線 京口駅 徒歩20分",
    "games": [
      "MILLIONET"
    ]
  },
  {
    "name": "ホムスタ加古川店",
    "operation_time": "10:00～24:00",
    "holiday": "無し",
    "latitude": "34.74552902",
    "longitude": "134.8355115",
    "tel": "0794-56-2121",
    "address": "加古川市尾上町安田351-1メガコート",
    "access": "",
    "games": [
      "MILLIONET"
    ]
  },
  {
    "name": "ラウンドワン加古川店",
    "operation_time": "",
    "holiday": "",
    "latitude": "34.74708002",
    "longitude": "134.836935",
    "tel": "0794-29-2513",
    "address": "加古川市尾上町安田字小河原325番6号",
    "access": "",
    "games": [
      "MILLIONET"
    ]
  },
  {
    "name": "GiGOイオンモール苫小牧",
    "operation_time": "ゲームコーナー9:00～24:00 / メダルコーナー9:00～23:30",
    "holiday": "無し",
    "latitude": "42.65619751",
    "longitude": "141.6419704",
    "tel": "0144-52-1212",
    "address": "苫小牧市柳町3-1-20イオンモール苫小牧2F",
    "access": "JR苫小牧駅よりバス20分",
    "games": [
      "MILLIONET"
    ]
  },
  {
    "name": "アミューズメントパフェ パレパレ",
    "operation_time": "10:00～24:00",
    "holiday": "無し",
    "latitude": "34.08586633",
    "longitude": "134.5426759",
    "tel": "088-677-8991",
    "address": "徳島市南田宮2-2-46",
    "access": "国道11号線から田宮街道を西に車で5分",
    "games": [
      "MILLIONET"
    ]
  },
  {
    "name": "ホムスタ玉津店",
    "operation_time": "10:00～24:00",
    "holiday": "無し",
    "latitude": "34.67922481",
    "longitude": "134.9831791",
    "tel": "078-920-3337",
    "address": "神戸市西区丸塚2-9-18メガパレス2F",
    "access": "第二神名玉津IC下車車5分",
    "games": [
      "MILLIONET"
    ]
  },
  {
    "name": "ラウンドワン徳島･万代店",
    "operation_time": "",
    "holiday": "",
    "latitude": "34.064828",
    "longitude": "134.564699",
    "tel": "088-612-0025",
    "address": "徳島市万代町4-19-1",
    "access": "",
    "games": [
      "MILLIONET"
    ]
  },
  {
    "name": "GiGOスエヒロボウル徳島",
    "operation_time": "",
    "holiday": "",
    "latitude": "34.06129417",
    "longitude": "134.5737056",
    "tel": "088-654-1550",
    "address": "徳島市南末広町4-95-2スエヒロボウル1F",
    "access": "",
    "games": [
      "MILLIONET"
    ]
  },
  {
    "name": "アミパラ垂水店",
    "operation_time": "10:00～24:00",
    "holiday": "無し",
    "latitude": "34.66458",
    "longitude": "135.066782",
    "tel": "078-707-9111",
    "address": "神戸市垂水区名谷町字室山1400-18",
    "access": "",
    "games": [
      "MILLIONET"
    ]
  },
  {
    "name": "ラウンドワン三宮駅前店",
    "operation_time": "",
    "holiday": "",
    "latitude": "34.69403073",
    "longitude": "135.1973402",
    "tel": "078-252-7200",
    "address": "神戸市中央区小野柄通り6-1-17",
    "access": "",
    "games": [
      "MILLIONET"
    ]
  },
  {
    "name": "バイパスレジャーランド加賀店",
    "operation_time": "一部24時間営業",
    "holiday": "無し",
    "latitude": "36.32515503",
    "longitude": "136.4113746",
    "tel": "0761-74-8007",
    "address": "加賀市箱宮町ヲ1-1",
    "access": "国道8号線加賀産業道路終点近く",
    "games": [
      "MILLIONET"
    ]
  },
  {
    "name": "GiGOフェニックスプラザ摩耶",
    "operation_time": "",
    "holiday": "",
    "latitude": "34.70436231",
    "longitude": "135.2281065",
    "tel": "078-861-8281",
    "address": "神戸市灘区味泥町6-1フェニックスプラザ1F",
    "access": "",
    "games": [
      "MILLIONET"
    ]
  },
  {
    "name": "バイパスレジャーランド藤江新館",
    "operation_time": "",
    "holiday": "",
    "latitude": "36.58375651",
    "longitude": "136.6206642",
    "tel": "076-268-7518",
    "address": "金沢市藤江南2-105",
    "access": "",
    "games": [
      "MILLIONET"
    ]
  },
  {
    "name": "バイパスレジャーランド藤江本館",
    "operation_time": "一部24時間営業",
    "holiday": "無し",
    "latitude": "36.58397239",
    "longitude": "136.621523",
    "tel": "076-268-3798",
    "address": "金沢市藤江南2-41",
    "access": "国道8号線沿い藤江交差点近く",
    "games": [
      "MILLIONET"
    ]
  },
  {
    "name": "フクイレジャーランドワイプラザ店",
    "operation_time": "一部24時間営業",
    "holiday": "無し",
    "latitude": "36.08750805",
    "longitude": "136.2494211",
    "tel": "0776-57-0433",
    "address": "福井市新保北1-303ヤスサキワイプラザB棟2F",
    "access": "国道8号線沿い福井市内新保交差点近くワイプラザ内",
    "games": [
      "MILLIONET"
    ]
  },
  {
    "name": "福井レジャーランド板垣店",
    "operation_time": "",
    "holiday": "",
    "latitude": "36.042283",
    "longitude": "136.233748",
    "tel": "0776-33-5510",
    "address": "福井市下馬3-112",
    "access": "",
    "games": [
      "MILLIONET"
    ]
  },
  {
    "name": "ラウンドワン金沢店",
    "operation_time": "",
    "holiday": "",
    "latitude": "36.54211559",
    "longitude": "136.626054",
    "tel": "076-245-1850",
    "address": "金沢市横川6-120-1",
    "access": "",
    "games": [
      "MILLIONET"
    ]
  },
  {
    "name": "GiGOつかしん",
    "operation_time": "",
    "holiday": "",
    "latitude": "34.760868",
    "longitude": "135.418336",
    "tel": "06-6420-3621",
    "address": "尼崎市塚口本町4-8-1つかしん内",
    "access": "",
    "games": [
      "MILLIONET"
    ]
  },
  {
    "name": "ラウンドワン豊中店",
    "operation_time": "",
    "holiday": "",
    "latitude": "34.75733488",
    "longitude": "135.465555",
    "tel": "06-6865-2200",
    "address": "豊中市名神口1-1-1",
    "access": "",
    "games": [
      "MILLIONET"
    ]
  },
  {
    "name": "GiGO新三国アルゴ7",
    "operation_time": "",
    "holiday": "",
    "latitude": "34.73847361",
    "longitude": "135.4796532",
    "tel": "06-6332-9311",
    "address": "豊中市神州町1-15アルゴセブンビル2F",
    "access": "",
    "games": [
      "MILLIONET"
    ]
  },
  {
    "name": "ゲームSPOT207",
    "operation_time": "7:00～24:00",
    "holiday": "無し",
    "latitude": "36.73235328",
    "longitude": "137.0023356",
    "tel": "0766-26-2070",
    "address": "高岡市鐘紡町1655-3",
    "access": "JR高岡駅から車で15分",
    "games": [
      "MILLIONET"
    ]
  },
  {
    "name": "ラウンドワン東淀川店",
    "operation_time": "",
    "holiday": "",
    "latitude": "34.74289355",
    "longitude": "135.5255278",
    "tel": "06-6160-2221",
    "address": "大阪市東淀川区菅原7-14-29",
    "access": "",
    "games": [
      "MILLIONET"
    ]
  },
  {
    "name": "ラウンドワン梅田店",
    "operation_time": "",
    "holiday": "",
    "latitude": "34.70337769",
    "longitude": "135.5009178",
    "tel": "06-6312-6800",
    "address": "大阪市北区小松原町4-16",
    "access": "",
    "games": [
      "MILLIONET"
    ]
  },
  {
    "name": "サープラ京都あそびタウン",
    "operation_time": "",
    "holiday": "",
    "latitude": "35.01029561",
    "longitude": "135.741185",
    "tel": "075-813-2150",
    "address": "京都市中京区西ノ京栂尾町107BiVi二条内2F",
    "access": "",
    "games": [
      "MILLIONET"
    ]
  },
  {
    "name": "ゲームパニック堺",
    "operation_time": "10:00～23:45",
    "holiday": "無し",
    "latitude": "34.597817",
    "longitude": "135.447433",
    "tel": "072-224-8295",
    "address": "堺市堺区築港八幡町1-1堺浜シーサイド内堺浜えんため館",
    "access": "南海バス20系統「堺市内北回り」 堺駅西口→堺浜シーサイドステージ約17分 堺東駅→堺浜シーサイドステージ約25分",
    "games": [
      "MILLIONET"
    ]
  },
  {
    "name": "ラウンドワン千日前店",
    "operation_time": "",
    "holiday": "",
    "latitude": "34.667424",
    "longitude": "135.5026714",
    "tel": "06-4708-2600",
    "address": "大阪市中央区難波1-3-1",
    "access": "",
    "games": [
      "MILLIONET"
    ]
  },
  {
    "name": "難波ヒルズ",
    "operation_time": "10:15～23:00",
    "holiday": "無し",
    "latitude": "34.66626102",
    "longitude": "135.5018617",
    "tel": "090-3133-7638",
    "address": "大阪市中央区難波3-2-34",
    "access": "地下鉄御堂筋線難波駅下車徒歩5分",
    "games": [
      "MILLIONET"
    ]
  },
  {
    "name": "ラウンドワン高槻店",
    "operation_time": "",
    "holiday": "",
    "latitude": "34.83266921",
    "longitude": "135.6301782",
    "tel": "072-672-9933",
    "address": "高槻市辻子3-6-4",
    "access": "",
    "games": [
      "MILLIONET"
    ]
  },
  {
    "name": "ラウンドワン和歌山店",
    "operation_time": "",
    "holiday": "",
    "latitude": "34.19849168",
    "longitude": "135.1859428",
    "tel": "073-421-8210",
    "address": "和歌山市小雑賀739-3",
    "access": "",
    "games": [
      "MILLIONET"
    ]
  },
  {
    "name": "ラウンドワン京都河原町店",
    "operation_time": "",
    "holiday": "",
    "latitude": "35.00699573",
    "longitude": "135.7685149",
    "tel": "075-213-8400",
    "address": "京都市中京区河原町通り三条下ル山崎町250",
    "access": "",
    "games": [
      "MILLIONET"
    ]
  },
  {
    "name": "ラウンドワン守口店",
    "operation_time": "",
    "holiday": "",
    "latitude": "34.7562488",
    "longitude": "135.5886793",
    "tel": "06-6907-9270",
    "address": "守口市佐太東町2-6-14ジャガーグリーン2F",
    "access": "",
    "games": [
      "MILLIONET"
    ]
  },
  {
    "name": "GiGOあべのアポロ",
    "operation_time": "10:00～24:00",
    "holiday": "",
    "latitude": "34.646623",
    "longitude": "135.511677",
    "tel": "06-6647-0716",
    "address": "大阪市阿倍野区阿倍野筋1-5-31アポロビル3F･4F",
    "access": "JR 天王寺駅・近鉄あべの橋駅より徒歩3分 アポロビル 3F",
    "games": [
      "MILLIONET"
    ]
  },
  {
    "name": "ラウンドワン堺駅前店",
    "operation_time": "",
    "holiday": "",
    "latitude": "34.58340412",
    "longitude": "135.468425",
    "tel": "072-222-0120",
    "address": "堺市堺区戎島町4-44-3",
    "access": "",
    "games": [
      "MILLIONET"
    ]
  },
  {
    "name": "ラウンドワン岸和田店",
    "operation_time": "",
    "holiday": "",
    "latitude": "34.45649962",
    "longitude": "135.3885278",
    "tel": "072-429-1100",
    "address": "岸和田市八阪町2-11-1",
    "access": "",
    "games": [
      "MILLIONET"
    ]
  },
  {
    "name": "YAZ寝屋川店",
    "operation_time": "",
    "holiday": "",
    "latitude": "34.78044073",
    "longitude": "135.6193889",
    "tel": "072-830-7755",
    "address": "寝屋川市石津中町25-26",
    "access": "",
    "games": [
      "MILLIONET"
    ]
  },
  {
    "name": "ラウンドワン城東放出店",
    "operation_time": "",
    "holiday": "",
    "latitude": "34.69651235",
    "longitude": "135.559648",
    "tel": "06-6936-0100",
    "address": "大阪市城東区今福南3-4-38",
    "access": "",
    "games": [
      "MILLIONET"
    ]
  },
  {
    "name": "ラウンドワン京都伏見店",
    "operation_time": "",
    "holiday": "",
    "latitude": "34.93599659",
    "longitude": "135.746198",
    "tel": "075-622-9911",
    "address": "京都市伏見区下鳥羽平塚町131",
    "access": "",
    "games": [
      "MILLIONET"
    ]
  },
  {
    "name": "GiGO布施",
    "operation_time": "",
    "holiday": "",
    "latitude": "34.66416946",
    "longitude": "135.5628455",
    "tel": "06-6783-6999",
    "address": "東大阪市長堂1-1-1ロンモール布施内",
    "access": "",
    "games": [
      "MILLIONET"
    ]
  },
  {
    "name": "GiGOフレスポ東大阪",
    "operation_time": "",
    "holiday": "",
    "latitude": "34.690846",
    "longitude": "135.591293",
    "tel": "06-6748-8310",
    "address": "東大阪市稲田新町3-9-64",
    "access": "",
    "games": [
      "MILLIONET"
    ]
  },
  {
    "name": "GiGOビバモール寝屋川",
    "operation_time": "",
    "holiday": "",
    "latitude": "34.76573366",
    "longitude": "135.6505265",
    "tel": "072-824-3545",
    "address": "寝屋川市寝屋南2-22-2ビバモール寝屋川 モール棟2F",
    "access": "",
    "games": [
      "MILLIONET"
    ]
  },
  {
    "name": "アミパラ久御山店",
    "operation_time": "",
    "holiday": "",
    "latitude": "34.895478",
    "longitude": "135.747069",
    "tel": "075-754-7722",
    "address": "久世郡久御山町大字森大内337イオンタウン久御山内",
    "access": "",
    "games": [
      "MILLIONET"
    ]
  },
  {
    "name": "GiGO MOMOテラス京都伏見",
    "operation_time": "",
    "holiday": "",
    "latitude": "34.936959",
    "longitude": "135.795071",
    "tel": "075-603-3220",
    "address": "京都市伏見区桃山町山ノ下32京都SCビルAM棟2F",
    "access": "",
    "games": [
      "MILLIONET"
    ]
  },
  {
    "name": "ラウンドワンららぽーと和泉店",
    "operation_time": "",
    "holiday": "",
    "latitude": "34.435599",
    "longitude": "135.447876",
    "tel": "0725-51-2100",
    "address": "和泉市あゆみ野4-4-7ららぽーと和泉店 4F 42100",
    "access": "",
    "games": [
      "MILLIONET"
    ]
  },
  {
    "name": "アミパラ大東店",
    "operation_time": "",
    "holiday": "",
    "latitude": "34.7010172",
    "longitude": "135.6386857",
    "tel": "072-813-7600",
    "address": "大東市南新田2-3-5",
    "access": "",
    "games": [
      "MILLIONET"
    ]
  },
  {
    "name": "ラウンドワン堺中央環状店",
    "operation_time": "",
    "holiday": "",
    "latitude": "34.55707895",
    "longitude": "135.5362412",
    "tel": "072-253-9559",
    "address": "堺市東区石原町2-241",
    "access": "",
    "games": [
      "MILLIONET"
    ]
  },
  {
    "name": "アミパラ光明池店",
    "operation_time": "",
    "holiday": "",
    "latitude": "34.47172523",
    "longitude": "135.4765946",
    "tel": "0725-58-7230",
    "address": "和泉市室堂町824-36コムボックス光明池2F",
    "access": "",
    "games": [
      "MILLIONET"
    ]
  },
  {
    "name": "ラウンドワン東大阪店",
    "operation_time": "",
    "holiday": "",
    "latitude": "34.6531932",
    "longitude": "135.60637",
    "tel": "06-6224-1700",
    "address": "東大阪市若江南町1-2-12",
    "access": "",
    "games": [
      "MILLIONET"
    ]
  },
  {
    "name": "ラウンドワン浜大津アーカス店",
    "operation_time": "",
    "holiday": "",
    "latitude": "35.010557",
    "longitude": "135.866804",
    "tel": "077-526-8722",
    "address": "大津市浜町2-1浜大津アーカス4F",
    "access": "",
    "games": [
      "MILLIONET"
    ]
  },
  {
    "name": "トヤマレジャーランド呉羽店",
    "operation_time": "一部24時間営業",
    "holiday": "無し",
    "latitude": "36.71545083",
    "longitude": "137.1579046",
    "tel": "076-434-5336",
    "address": "富山市高木字貝塚2054",
    "access": "県道44号線沿い呉羽本町交差点を富山方面方向に車で3分",
    "games": [
      "MILLIONET"
    ]
  },
  {
    "name": "滋賀レジャーランド大津店",
    "operation_time": "",
    "holiday": "",
    "latitude": "35.003875",
    "longitude": "135.883431",
    "tel": "077-548-7851",
    "address": "大津市におの浜3-1-43",
    "access": "",
    "games": [
      "MILLIONET"
    ]
  },
  {
    "name": "ラウンドワン青森店",
    "operation_time": "",
    "holiday": "",
    "latitude": "40.79867718",
    "longitude": "140.7483213",
    "tel": "017-762-3591",
    "address": "青森市浜田3-1-1",
    "access": "",
    "games": [
      "MILLIONET"
    ]
  },
  {
    "name": "アミパラ草津店",
    "operation_time": "",
    "holiday": "",
    "latitude": "35.01928425",
    "longitude": "135.9424723",
    "tel": "077-569-4499",
    "address": "草津市木川町72",
    "access": "",
    "games": [
      "MILLIONET"
    ]
  },
  {
    "name": "富山レジャーランド掛尾店",
    "operation_time": "",
    "holiday": "",
    "latitude": "36.66605175",
    "longitude": "137.208892",
    "tel": "076-413-2606",
    "address": "富山市掛尾町360-1",
    "access": "",
    "games": [
      "MILLIONET"
    ]
  },
  {
    "name": "アピナ富山新庄店",
    "operation_time": "10:00～24:00",
    "holiday": "無し",
    "latitude": "36.69533117",
    "longitude": "137.2480753",
    "tel": "076-491-7700",
    "address": "富山市荒川3-2-12",
    "access": "",
    "games": [
      "MILLIONET"
    ]
  },
  {
    "name": "ラウンドワン奈良ミナーラ店",
    "operation_time": "",
    "holiday": "",
    "latitude": "34.685231",
    "longitude": "135.802224",
    "tel": "0742-32-3900",
    "address": "奈良市二条大路南1-3-1ミ･ナーラ5F",
    "access": "",
    "games": [
      "MILLIONET"
    ]
  },
  {
    "name": "アミューズメントCUE大和高田",
    "operation_time": "10:00～24:00",
    "holiday": "無し",
    "latitude": "34.49978101",
    "longitude": "135.7354379",
    "tel": "0745-25-3335",
    "address": "大和高田市東中2-11-16",
    "access": "国道166号線東宝交差点そば",
    "games": [
      "MILLIONET"
    ]
  },
  {
    "name": "GiGO帯広稲田",
    "operation_time": "平日・祝日10:00～24:00 / 土日8:00～24:00",
    "holiday": "無し",
    "latitude": "42.89057652",
    "longitude": "143.1965812",
    "tel": "080-7351-3976",
    "address": "帯広市稲田町南8線西12-1スズランボウル内",
    "access": "イトーヨーカドー帯広店隣り",
    "games": [
      "MILLIONET"
    ]
  },
  {
    "name": "アミパラ橿原店",
    "operation_time": "",
    "holiday": "",
    "latitude": "34.52935645",
    "longitude": "135.7966131",
    "tel": "0744-25-0550",
    "address": "橿原市十市町1222-1ツインゲート橿原1F",
    "access": "",
    "games": [
      "MILLIONET"
    ]
  },
  {
    "name": "ラウンドワン秋田店",
    "operation_time": "",
    "holiday": "",
    "latitude": "39.70235247",
    "longitude": "140.1092394",
    "tel": "018-896-6711",
    "address": "秋田市卸町1-1-2",
    "access": "",
    "games": [
      "MILLIONET"
    ]
  },
  {
    "name": "ラウンドワンモレラ岐阜店",
    "operation_time": "",
    "holiday": "",
    "latitude": "35.455121",
    "longitude": "136.672955",
    "tel": "058-323-6600",
    "address": "本巣市三橋1100",
    "access": "",
    "games": [
      "MILLIONET"
    ]
  },
  {
    "name": "GiGOアクアウォーク大垣",
    "operation_time": "",
    "holiday": "",
    "latitude": "35.36877084",
    "longitude": "136.6166376",
    "tel": "0584-83-8981",
    "address": "大垣市林町6-80-21アクアウォーク大垣2F",
    "access": "",
    "games": [
      "MILLIONET"
    ]
  },
  {
    "name": "GiGO名張",
    "operation_time": "",
    "holiday": "",
    "latitude": "34.62355779",
    "longitude": "136.1036705",
    "tel": "0595-62-1008",
    "address": "名張市希央台3-15",
    "access": "",
    "games": [
      "MILLIONET"
    ]
  },
  {
    "name": "岐阜レジャーランド穂積店",
    "operation_time": "7:00～24:00",
    "holiday": "無し",
    "latitude": "35.38432479",
    "longitude": "136.6846653",
    "tel": "058-326-1133",
    "address": "瑞穂市稲里630",
    "access": "国道21号線沿い瑞穂市野田新田交差点近く",
    "games": [
      "MILLIONET"
    ]
  },
  {
    "name": "ゲームファンタジアン柳津店",
    "operation_time": "一部24時間営業",
    "holiday": "無し",
    "latitude": "35.37596826",
    "longitude": "136.7145391",
    "tel": "058-279-0085",
    "address": "岐阜市柳津町上佐波西3-68",
    "access": "岐阜県ふれあい会館から南に4分",
    "games": [
      "MILLIONET"
    ]
  },
  {
    "name": "A.Cグランド",
    "operation_time": "9:00～24:00",
    "holiday": "無し",
    "latitude": "35.38308553",
    "longitude": "136.7461998",
    "tel": "058-275-0351",
    "address": "岐阜市茜部大川1-77",
    "access": "名鉄新岐阜駅15分",
    "games": [
      "MILLIONET"
    ]
  },
  {
    "name": "GiGOイオンモール木曽川",
    "operation_time": "",
    "holiday": "",
    "latitude": "35.35049922",
    "longitude": "136.7737852",
    "tel": "0586-84-2823",
    "address": "一宮市木曽川町黒田八ヶ池25-1イオンモール木曽川3F",
    "access": "",
    "games": [
      "MILLIONET"
    ]
  },
  {
    "name": "GiGOマーゴ関",
    "operation_time": "",
    "holiday": "",
    "latitude": "35.479716",
    "longitude": "136.900472",
    "tel": "0575-23-6617",
    "address": "関市倉知516マーゴシネマ館2F",
    "access": "",
    "games": [
      "MILLIONET"
    ]
  },
  {
    "name": "上越レジャーランボウル",
    "operation_time": "一部24時間営業",
    "holiday": "無し",
    "latitude": "37.16405087",
    "longitude": "138.2489336",
    "tel": "0255-31-2030",
    "address": "上越市下門前薬島827-2",
    "access": "国道8号線沿い高岡市内関川大橋そば",
    "games": [
      "MILLIONET"
    ]
  },
  {
    "name": "タイトーFステーション上越店",
    "operation_time": "",
    "holiday": "",
    "latitude": "37.148097",
    "longitude": "138.259034",
    "tel": "025-530-7115",
    "address": "上越市富岡3524J-maxシアター内1F",
    "access": "J-MAXシアター1F",
    "games": [
      "MILLIONET"
    ]
  },
  {
    "name": "アピナ鈴鹿店",
    "operation_time": "店舗に直接お問い合わせください",
    "holiday": "店舗に直接お問い合わせください",
    "latitude": "34.871989",
    "longitude": "136.527078",
    "tel": "059-375-3739",
    "address": "鈴鹿市庄野羽山4-20-1イオンタウン鈴鹿2F",
    "access": "イオンタウン鈴鹿2階",
    "games": [
      "MILLIONET"
    ]
  },
  {
    "name": "アピナ四日市店",
    "operation_time": "",
    "holiday": "",
    "latitude": "34.94000426",
    "longitude": "136.6070666",
    "tel": "059-349-5011",
    "address": "四日市市泊小柳町4-34",
    "access": "",
    "games": [
      "MILLIONET"
    ]
  },
  {
    "name": "ラウンドワン名古屋西春店",
    "operation_time": "",
    "holiday": "",
    "latitude": "35.25506282",
    "longitude": "136.8439405",
    "tel": "0568-26-4001",
    "address": "北名古屋市宇福寺神明15",
    "access": "",
    "games": [
      "MILLIONET"
    ]
  },
  {
    "name": "アミパラ鈴鹿店",
    "operation_time": "",
    "holiday": "",
    "latitude": "34.87499148",
    "longitude": "136.5708677",
    "tel": "059-381-6622",
    "address": "鈴鹿市西條町字東澤430-1",
    "access": "",
    "games": [
      "MILLIONET"
    ]
  },
  {
    "name": "ラウンドワンみえ川越IC店",
    "operation_time": "",
    "holiday": "",
    "latitude": "35.02319916",
    "longitude": "136.6836502",
    "tel": "059-361-2130",
    "address": "三重郡川越町大字南福崎851-1",
    "access": "",
    "games": [
      "MILLIONET"
    ]
  },
  {
    "name": "アミューズメントワールドメトロポリス小牧店",
    "operation_time": "平日10:00～23:50 土日祝日前 9:00～23:50",
    "holiday": "無し",
    "latitude": "35.2951722",
    "longitude": "136.905659",
    "tel": "0568-71-0005",
    "address": "小牧市村中新町33",
    "access": "名神高速小牧インターより南へ1km R41号間々本町交差点角",
    "games": [
      "MILLIONET"
    ]
  },
  {
    "name": "ラウンドワン新潟店",
    "operation_time": "",
    "holiday": "",
    "latitude": "37.88807436",
    "longitude": "139.0177537",
    "tel": "025-280-1322",
    "address": "新潟市中央区美咲町2-1-38",
    "access": "",
    "games": [
      "MILLIONET"
    ]
  },
  {
    "name": "メジャーロード黒埼店",
    "operation_time": "8:00～24:00",
    "holiday": "無し",
    "latitude": "37.8682122",
    "longitude": "139.0173084",
    "tel": "025-370-7300",
    "address": "新潟市西区山田3303",
    "access": "黒埼IC降りて国道8号を白根方面へ走りサントノーレ裏。",
    "games": [
      "MILLIONET"
    ]
  },
  {
    "name": "ラウンドワン津･高茶屋店",
    "operation_time": "",
    "holiday": "",
    "latitude": "34.6726828",
    "longitude": "136.5194663",
    "tel": "059-238-0011",
    "address": "津市高茶屋小森町277-8",
    "access": "",
    "games": [
      "MILLIONET"
    ]
  },
  {
    "name": "ラウンドワン中川一号線店",
    "operation_time": "",
    "holiday": "",
    "latitude": "35.12338322",
    "longitude": "136.8636484",
    "tel": "052-665-5353",
    "address": "名古屋市中川区法蔵町2-23",
    "access": "",
    "games": [
      "MILLIONET"
    ]
  },
  {
    "name": "キングジョイ",
    "operation_time": "9:00～24:00",
    "holiday": "無し",
    "latitude": "35.16797694",
    "longitude": "136.9050444",
    "tel": "052-241-9515",
    "address": "名古屋市中区栄3-3-32",
    "access": "地下鉄栄駅徒歩3分",
    "games": [
      "MILLIONET"
    ]
  },
  {
    "name": "ラウンドワンイーアス春日井店",
    "operation_time": "",
    "holiday": "",
    "latitude": "35.25898",
    "longitude": "136.98241",
    "tel": "0568-86-1600",
    "address": "春日井市六軒屋町東丘22区画番号3010",
    "access": "",
    "games": [
      "MILLIONET"
    ]
  },
  {
    "name": "ラウンドワン千種店",
    "operation_time": "",
    "holiday": "",
    "latitude": "35.16799971",
    "longitude": "136.9279985",
    "tel": "052-238-1615",
    "address": "名古屋市千種区新栄3-20-17タイホウ千種駅前南ビル8F",
    "access": "",
    "games": [
      "MILLIONET"
    ]
  },
  {
    "name": "名古屋レジャーランド内田橋店",
    "operation_time": "一部24時間営業",
    "holiday": "無し",
    "latitude": "35.1137072",
    "longitude": "136.9098069",
    "tel": "052-694-6051",
    "address": "名古屋市南区内田橋2-26-22",
    "access": "名鉄常滑線豊田本町駅近く",
    "games": [
      "MILLIONET"
    ]
  },
  {
    "name": "アピナ長岡店",
    "operation_time": "10:00～24:00",
    "holiday": "無し",
    "latitude": "37.45794202",
    "longitude": "138.8125194",
    "tel": "0258-22-5510",
    "address": "長岡市堺東町22",
    "access": "国道8号線長岡バイパス堺交差点近く",
    "games": [
      "MILLIONET"
    ]
  },
  {
    "name": "ラウンドワン鳴海店",
    "operation_time": "",
    "holiday": "",
    "latitude": "35.09913151",
    "longitude": "136.9528735",
    "tel": "052-899-0700",
    "address": "名古屋市緑区鳴海町字杜若28",
    "access": "",
    "games": [
      "MILLIONET"
    ]
  },
  {
    "name": "GiGO東名ボール",
    "operation_time": "",
    "holiday": "",
    "latitude": "35.209234",
    "longitude": "137.062873",
    "tel": "070-1459-2466",
    "address": "瀬戸市西原町2-114",
    "access": "",
    "games": [
      "MILLIONET"
    ]
  },
  {
    "name": "ゲームパニック大高",
    "operation_time": "9:00～23:45",
    "holiday": "無し",
    "latitude": "35.04850561",
    "longitude": "136.9496236",
    "tel": "052-625-5360",
    "address": "名古屋市緑区忠治山201グランドボウルB2F",
    "access": "国道23号線大高町共和IC側道グランドボウルB2階",
    "games": [
      "MILLIONET"
    ]
  },
  {
    "name": "GiGO長久手",
    "operation_time": "9:00～24:00",
    "holiday": "無し",
    "latitude": "35.17139252",
    "longitude": "137.045573",
    "tel": "0561-64-5205",
    "address": "長久手市武蔵塚705",
    "access": "",
    "games": [
      "MILLIONET"
    ]
  },
  {
    "name": "アピナ川中島店",
    "operation_time": "10:00～24:00",
    "holiday": "無し",
    "latitude": "36.597909",
    "longitude": "138.157802",
    "tel": "026-214-6699",
    "address": "長野市川中島町御厨967-1",
    "access": "77号線長野南郵便局隣",
    "games": [
      "MILLIONET"
    ]
  },
  {
    "name": "ラウンドワン長野店",
    "operation_time": "",
    "holiday": "",
    "latitude": "36.65105714",
    "longitude": "138.225192",
    "tel": "026-254-5801",
    "address": "長野市大字東和田827-6",
    "access": "",
    "games": [
      "MILLIONET"
    ]
  },
  {
    "name": "アピナ長野村山店",
    "operation_time": "10:00～24:00",
    "holiday": "無し",
    "latitude": "36.6682177",
    "longitude": "138.2633103",
    "tel": "0262-95-9911",
    "address": "長野市村山502-1アミューズメントプレイスアピナ",
    "access": "R18号アップルライン入口",
    "games": [
      "MILLIONET"
    ]
  },
  {
    "name": "GiGOイオンタウン刈谷",
    "operation_time": "",
    "holiday": "",
    "latitude": "35.03882703",
    "longitude": "137.0267449",
    "tel": "0566-36-4338",
    "address": "刈谷市東境町京和1",
    "access": "",
    "games": [
      "MILLIONET"
    ]
  },
  {
    "name": "ラウンドワン半田店",
    "operation_time": "",
    "holiday": "",
    "latitude": "34.88609688",
    "longitude": "136.9412056",
    "tel": "0569-25-7351",
    "address": "半田市瑞穂町6-7-8",
    "access": "",
    "games": [
      "MILLIONET"
    ]
  },
  {
    "name": "GiGOギャラリエアピタ知立",
    "operation_time": "",
    "holiday": "",
    "latitude": "34.999327",
    "longitude": "137.052828",
    "tel": "0566-83-8266",
    "address": "知立市長篠町大山18-1ギャラリエアピタ知立1F",
    "access": "",
    "games": [
      "MILLIONET"
    ]
  },
  {
    "name": "アピナ塩尻店",
    "operation_time": "10:00～24:00",
    "holiday": "無し",
    "latitude": "36.14140932",
    "longitude": "137.9536147",
    "tel": "026-351-5511",
    "address": "塩尻市広丘野村1794-1",
    "access": "国道19号線沿い野村交差点から塩尻方面",
    "games": [
      "MILLIONET"
    ]
  },
  {
    "name": "M'Sパーク豊田店",
    "operation_time": "一部24時間営業",
    "holiday": "",
    "latitude": "35.0565113",
    "longitude": "137.1404324",
    "tel": "0565-71-0027",
    "address": "豊田市寿町3-10-11",
    "access": "愛知環状鉄道三河豊田駅10分。名鉄三河線土橋駅より徒歩10分。",
    "games": [
      "MILLIONET"
    ]
  },
  {
    "name": "安城メトロポリス",
    "operation_time": "平日10:00～24:00、土日祝日9:00～24:00",
    "holiday": "無し",
    "latitude": "34.95485697",
    "longitude": "137.0975854",
    "tel": "0566-74-8238",
    "address": "安城市浜富町6-8",
    "access": "JR東海道本線安城駅より車で3分・徒歩10分",
    "games": [
      "MILLIONET"
    ]
  },
  {
    "name": "ラウンドワン盛岡店",
    "operation_time": "",
    "holiday": "",
    "latitude": "39.70035197",
    "longitude": "141.133077",
    "tel": "019-654-9011",
    "address": "盛岡市盛岡駅西通2-10-35",
    "access": "",
    "games": [
      "MILLIONET"
    ]
  },
  {
    "name": "GiGO北岡崎",
    "operation_time": "9:00～24:00",
    "holiday": "無し",
    "latitude": "34.97365547",
    "longitude": "137.1600268",
    "tel": "070-1393-5583",
    "address": "岡崎市錦町2-4",
    "access": "国道248号線沿い、愛知環状線北岡崎駅から徒歩3分",
    "games": [
      "MILLIONET"
    ]
  },
  {
    "name": "GiGO岡谷",
    "operation_time": "",
    "holiday": "",
    "latitude": "36.065152",
    "longitude": "138.05305",
    "tel": "0266-22-9191",
    "address": "岡谷市塚間町2-1-21",
    "access": "",
    "games": [
      "MILLIONET"
    ]
  },
  {
    "name": "ポート24幸田",
    "operation_time": "10:00～24:00",
    "holiday": "無休",
    "latitude": "34.89016302",
    "longitude": "137.1632649",
    "tel": "0564-63-6588",
    "address": "額田郡幸田町大字高力字沖原15カメリアガーデン幸田内",
    "access": "東名高速音羽蒲郡ICから車で30分",
    "games": [
      "MILLIONET"
    ]
  },
  {
    "name": "アピナ佐久インター店",
    "operation_time": "10:00～24:00",
    "holiday": "無し",
    "latitude": "36.284455",
    "longitude": "138.482344",
    "tel": "026-778-3399",
    "address": "佐久市岩村田北1-13-1",
    "access": "佐久インター近く",
    "games": [
      "MILLIONET"
    ]
  },
  {
    "name": "GiGO天童",
    "operation_time": "10:00～24:00",
    "holiday": "無し",
    "latitude": "38.34302924",
    "longitude": "140.3739732",
    "tel": "023-656-9370",
    "address": "天童市南町1-5-26",
    "access": "JR「天童駅」より車で10分。国道13号線を南下し国道沿い左側。",
    "games": [
      "MILLIONET"
    ]
  },
  {
    "name": "ラウンドワン豊橋店",
    "operation_time": "",
    "holiday": "",
    "latitude": "34.7239242",
    "longitude": "137.4323261",
    "tel": "0532-65-2212",
    "address": "豊橋市大岩町字岩田27-2",
    "access": "",
    "games": [
      "MILLIONET"
    ]
  },
  {
    "name": "群馬レジャーランド渋川店",
    "operation_time": "",
    "holiday": "",
    "latitude": "36.4742053",
    "longitude": "139.0154654",
    "tel": "0279-25-0718",
    "address": "渋川市八木原1364",
    "access": "",
    "games": [
      "MILLIONET"
    ]
  },
  {
    "name": "GiGO会津若松",
    "operation_time": "9:00～24:00",
    "holiday": "無し",
    "latitude": "37.51832577",
    "longitude": "139.9222191",
    "tel": "0242-37-0777",
    "address": "会津若松市町北町上荒久田字宮下142",
    "access": "磐越道会津若松IC側",
    "games": [
      "MILLIONET"
    ]
  },
  {
    "name": "群馬レジャーランド高崎駅東口店",
    "operation_time": "一部24時間営業",
    "holiday": "無し",
    "latitude": "36.32992086",
    "longitude": "139.0128661",
    "tel": "027-330-3002",
    "address": "高崎市江木町333-1高崎EXビル2F",
    "access": "JR高崎駅東口徒歩10分",
    "games": [
      "MILLIONET"
    ]
  },
  {
    "name": "ラウンドワン浜松店",
    "operation_time": "",
    "holiday": "",
    "latitude": "34.73795995",
    "longitude": "137.7638799",
    "tel": "053-461-1101",
    "address": "浜松市中央区天王町諏訪1981-17",
    "access": "",
    "games": [
      "MILLIONET"
    ]
  },
  {
    "name": "ラウンドワン前橋店",
    "operation_time": "",
    "holiday": "",
    "latitude": "36.36888377",
    "longitude": "139.1051864",
    "tel": "027-287-1501",
    "address": "前橋市天川大島町1101-1",
    "access": "",
    "games": [
      "MILLIONET"
    ]
  },
  {
    "name": "ゲームパニック甲府",
    "operation_time": "",
    "holiday": "",
    "latitude": "35.64182781",
    "longitude": "138.547239",
    "tel": "080-3350-2893",
    "address": "甲府市国母5-20-24",
    "access": "",
    "games": [
      "MILLIONET"
    ]
  },
  {
    "name": "群馬レジャーランド藤岡店",
    "operation_time": "一部24時間営業",
    "holiday": "",
    "latitude": "36.27426745",
    "longitude": "139.0718857",
    "tel": "0274-40-2371",
    "address": "藤岡市中2002-1",
    "access": "県道13号沿い、上信越道藤岡IC北 カーオプション店『ピット100』2階",
    "games": [
      "MILLIONET"
    ]
  },
  {
    "name": "GAME BANK",
    "operation_time": "9:00～24:00",
    "holiday": "無し",
    "latitude": "38.352801",
    "longitude": "140.877385",
    "tel": "022-776-5677",
    "address": "仙台市泉区大沢2-5-4",
    "access": "東北自動車道 泉インター直ぐ",
    "games": [
      "MILLIONET"
    ]
  },
  {
    "name": "ラウンドワンスタジアム仙台泉店",
    "operation_time": "",
    "holiday": "",
    "latitude": "38.35192551",
    "longitude": "140.8797545",
    "tel": "022-347-4471",
    "address": "仙台市泉区大沢2-12-4仙台泉インターシティ1F",
    "access": "",
    "games": [
      "MILLIONET"
    ]
  },
  {
    "name": "群馬レジャーランド伊勢崎店",
    "operation_time": "一部24時間営業",
    "holiday": "無し",
    "latitude": "36.31824274",
    "longitude": "139.1723592",
    "tel": "0270-40-5330",
    "address": "伊勢崎市連取町3066-1",
    "access": "伊勢崎市内県道2号線沿い伊勢崎オート近く",
    "games": [
      "MILLIONET"
    ]
  },
  {
    "name": "ラウンドワンさいたま･上里店",
    "operation_time": "",
    "holiday": "",
    "latitude": "36.259925",
    "longitude": "139.137383",
    "tel": "0495-35-2201",
    "address": "児玉郡上里町大字金久保字周川394-1",
    "access": "",
    "games": [
      "MILLIONET"
    ]
  },
  {
    "name": "GiGOスマーク伊勢崎",
    "operation_time": "",
    "holiday": "",
    "latitude": "36.339538",
    "longitude": "139.231968",
    "tel": "0270-62-3886",
    "address": "伊勢崎市西小保方町368スマーク伊勢崎3F302区画",
    "access": "",
    "games": [
      "MILLIONET"
    ]
  },
  {
    "name": "ラウンドワン仙台苦竹店",
    "operation_time": "",
    "holiday": "",
    "latitude": "38.26828399",
    "longitude": "140.9172614",
    "tel": "022-788-2581",
    "address": "仙台市宮城野区苦竹1-7-10",
    "access": "",
    "games": [
      "MILLIONET"
    ]
  },
  {
    "name": "GiGO利府",
    "operation_time": "10:00～24:00",
    "holiday": "無し",
    "latitude": "38.32801132",
    "longitude": "140.9756135",
    "tel": "080-7500-4898",
    "address": "宮城郡利府町加瀬字新前谷地55-1",
    "access": "三陸自動車道 利府中IC下車利府バイパス沿い車で5分",
    "games": [
      "MILLIONET"
    ]
  },
  {
    "name": "ラウンドワン福島店",
    "operation_time": "",
    "holiday": "",
    "latitude": "37.75259469",
    "longitude": "140.4562354",
    "tel": "024-525-4731",
    "address": "福島市太田町14-18",
    "access": "",
    "games": [
      "MILLIONET"
    ]
  },
  {
    "name": "GiGO福島南",
    "operation_time": "10:00～24:00",
    "holiday": "無し",
    "latitude": "37.72791083",
    "longitude": "140.4671033",
    "tel": "024-544-0280",
    "address": "福島市黒岩字中島7-2",
    "access": "高速福島西ICより車で15分。国道4号線を右折し「黒岩」交差点手前左側。",
    "games": [
      "MILLIONET"
    ]
  },
  {
    "name": "ゲームコーナー東部",
    "operation_time": "9:00～24:00",
    "holiday": "無し",
    "latitude": "38.25101621",
    "longitude": "140.9438974",
    "tel": "022-287-5880",
    "address": "仙台市若林区六丁の目中町26-60",
    "access": "六丁目の交差点より多賀城方面へ向かい車で5分。産業通り沿い。",
    "games": [
      "MILLIONET"
    ]
  },
  {
    "name": "GiGO仙台コロナワールド",
    "operation_time": "",
    "holiday": "",
    "latitude": "38.2600762",
    "longitude": "140.9686872",
    "tel": "070-1458-5354",
    "address": "仙台市宮城野区福室字田中前1-53-1 仙台コロナワールド内",
    "access": "",
    "games": [
      "MILLIONET"
    ]
  },
  {
    "name": "サープラ島田あそびタウン",
    "operation_time": "10:00-24:00",
    "holiday": "無し",
    "latitude": "34.83815977",
    "longitude": "138.1659736",
    "tel": "0547-34-2556",
    "address": "島田市中溝町2531",
    "access": "藤枝バイパス旗指IC5分TSUTAYA2F",
    "games": [
      "MILLIONET"
    ]
  },
  {
    "name": "群馬レジャーランド太田店",
    "operation_time": "一部24時間営業",
    "holiday": "無し",
    "latitude": "36.26802219",
    "longitude": "139.3761382",
    "tel": "0276-47-8030",
    "address": "太田市西矢島町162-2",
    "access": "",
    "games": [
      "MILLIONET"
    ]
  },
  {
    "name": "アピナ太田店",
    "operation_time": "10:00～24:00",
    "holiday": "無し",
    "latitude": "36.28282169",
    "longitude": "139.3983139",
    "tel": "0276-48-1489",
    "address": "太田市内ヶ島町907-1",
    "access": "太田駅より車で5分富士重工近く",
    "games": [
      "MILLIONET"
    ]
  },
  {
    "name": "タイトーFステーション郡山オリエントパーク店",
    "operation_time": "",
    "holiday": "",
    "latitude": "37.37465045",
    "longitude": "140.3487929",
    "tel": "024-946-8222",
    "address": "郡山市安積町荒井字大久保35-1",
    "access": "",
    "games": [
      "MILLIONET"
    ]
  },
  {
    "name": "ドラマ足利店",
    "operation_time": "10:00～24:00",
    "holiday": "無し",
    "latitude": "36.32220259",
    "longitude": "139.4503607",
    "tel": "0284-73-9559",
    "address": "足利市朝倉町244-1",
    "access": "東武伊勢崎線足利市駅より徒歩10分",
    "games": [
      "MILLIONET"
    ]
  },
  {
    "name": "プレイタウンパル富士吉田店",
    "operation_time": "10:00～24:00",
    "holiday": "無し",
    "latitude": "35.48301003",
    "longitude": "138.7797075",
    "tel": "0555-22-8668",
    "address": "富士吉田市新西原4-12-15",
    "access": "富士急ハイランドそば",
    "games": [
      "MILLIONET"
    ]
  },
  {
    "name": "ラウンドワン静岡･駿河店",
    "operation_time": "",
    "holiday": "",
    "latitude": "34.950991",
    "longitude": "138.360524",
    "tel": "054-201-1601",
    "address": "静岡市駿河区向手越1-10-1",
    "access": "",
    "games": [
      "MILLIONET"
    ]
  },
  {
    "name": "ラウンドワン郡山店",
    "operation_time": "",
    "holiday": "",
    "latitude": "37.40229903",
    "longitude": "140.3957065",
    "tel": "024-941-3191",
    "address": "郡山市向河原町4-55",
    "access": "",
    "games": [
      "MILLIONET"
    ]
  },
  {
    "name": "スーパーウェーブ静岡店",
    "operation_time": "",
    "holiday": "",
    "latitude": "35.01361",
    "longitude": "138.43421",
    "tel": "054-340-5888",
    "address": "静岡市清水区鳥坂860フレスポ静岡2F西",
    "access": "",
    "games": [
      "MILLIONET"
    ]
  },
  {
    "name": "GiGO西那須野",
    "operation_time": "",
    "holiday": "",
    "latitude": "36.895093",
    "longitude": "139.982317",
    "tel": "0287-37-3077",
    "address": "那須塩原市南郷屋2-106-27",
    "access": "",
    "games": [
      "MILLIONET"
    ]
  },
  {
    "name": "アピナ焼津店",
    "operation_time": "",
    "holiday": "",
    "latitude": "34.83371431",
    "longitude": "138.3059489",
    "tel": "054-623-8555",
    "address": "焼津市道原585",
    "access": "",
    "games": [
      "MILLIONET"
    ]
  },
  {
    "name": "サープラ富士あそびタウン",
    "operation_time": "10:00～24:00 土日祝9:00～24:00",
    "holiday": "無し",
    "latitude": "35.16272123",
    "longitude": "138.6694286",
    "tel": "0545-67-7733",
    "address": "富士市永田町2-94",
    "access": "東名高速富士I.C車で10分",
    "games": [
      "MILLIONET"
    ]
  },
  {
    "name": "namcoフェドラP&D佐野店",
    "operation_time": "10:00～23:00 土日祝9:00～23:00",
    "holiday": "無し",
    "latitude": "36.29729",
    "longitude": "139.605644",
    "tel": "0283-85-9518",
    "address": "佐野市高萩町1340",
    "access": "",
    "games": [
      "MILLIONET"
    ]
  },
  {
    "name": "ラウンドワン富士店",
    "operation_time": "",
    "holiday": "",
    "latitude": "35.15310644",
    "longitude": "138.6938016",
    "tel": "0545-51-3636",
    "address": "富士市八代町4-15",
    "access": "",
    "games": [
      "MILLIONET"
    ]
  },
  {
    "name": "ラウンドワンさいたま･鴻巣店",
    "operation_time": "",
    "holiday": "",
    "latitude": "36.08064011",
    "longitude": "139.4902201",
    "tel": "048-595-2001",
    "address": "鴻巣市箕田3163-7",
    "access": "",
    "games": [
      "MILLIONET"
    ]
  },
  {
    "name": "ラウンドワン宇都宮店",
    "operation_time": "",
    "holiday": "",
    "latitude": "36.54080987",
    "longitude": "139.8868656",
    "tel": "028-614-8171",
    "address": "宇都宮市江曽島町2072-1",
    "access": "",
    "games": [
      "MILLIONET"
    ]
  },
  {
    "name": "インターパークプラスワン 宇都宮店",
    "operation_time": "9:00～24:00",
    "holiday": "無し",
    "latitude": "36.48822111",
    "longitude": "139.9053211",
    "tel": "028-657-6789",
    "address": "宇都宮市インターパーク6-5-1",
    "access": "国道4号線、北関東自動車道、宇都宮上三川インターインター降りてすぐ",
    "games": [
      "MILLIONET"
    ]
  },
  {
    "name": "ラウンドワン入間店",
    "operation_time": "",
    "holiday": "",
    "latitude": "35.82812299",
    "longitude": "139.3755366",
    "tel": "042-960-1521",
    "address": "入間市小谷田3-7-25",
    "access": "",
    "games": [
      "MILLIONET"
    ]
  },
  {
    "name": "ドラマ瑞穂店",
    "operation_time": "10:00～24:00",
    "holiday": "無し",
    "latitude": "35.76337213",
    "longitude": "139.3568934",
    "tel": "042-556-6605",
    "address": "西多摩郡瑞穂町武蔵382-1",
    "access": "JR八高線「箱根ヶ崎駅」から武蔵村山市方面に徒歩25分",
    "games": [
      "MILLIONET"
    ]
  },
  {
    "name": "アピナ小山店",
    "operation_time": "10:00～24:00",
    "holiday": "無し",
    "latitude": "36.300419",
    "longitude": "139.809126",
    "tel": "0285-31-0050",
    "address": "小山市駅南町4-27-18",
    "access": "国道50号線沿い駅南町交差点",
    "games": [
      "MILLIONET"
    ]
  },
  {
    "name": "GiGO入間",
    "operation_time": "",
    "holiday": "",
    "latitude": "35.81911",
    "longitude": "139.418219",
    "tel": "070-1458-7167",
    "address": "入間市東藤沢2-18",
    "access": "",
    "games": [
      "MILLIONET"
    ]
  },
  {
    "name": "サープラ沼津あそびタウン",
    "operation_time": "10:00～24:00",
    "holiday": "無し",
    "latitude": "35.10266451",
    "longitude": "138.8598883",
    "tel": "055-926-7739",
    "address": "沼津市大手町1-1-5",
    "access": "JR沼津駅徒歩5分",
    "games": [
      "MILLIONET"
    ]
  },
  {
    "name": "GiGOイオンモールむさし村山",
    "operation_time": "",
    "holiday": "",
    "latitude": "35.74624596",
    "longitude": "139.3846956",
    "tel": "070-1458-3080",
    "address": "武蔵村山市榎1-1-3イオンモールむさし村山2F",
    "access": "",
    "games": [
      "MILLIONET"
    ]
  },
  {
    "name": "アピナ川越店",
    "operation_time": "10:00～24:00",
    "holiday": "無し",
    "latitude": "35.9037481",
    "longitude": "139.5155363",
    "tel": "049-230-1068",
    "address": "川越市泉町1-1",
    "access": "JR川越線南古谷駅徒歩3分",
    "games": [
      "MILLIONET"
    ]
  },
  {
    "name": "ラウンドワン武蔵村山店",
    "operation_time": "",
    "holiday": "",
    "latitude": "35.73563714",
    "longitude": "139.3826993",
    "tel": "042-520-3211",
    "address": "武蔵村山市伊奈平3-1-1",
    "access": "",
    "games": [
      "MILLIONET"
    ]
  },
  {
    "name": "ラウンドワンさいたま･栗橋店",
    "operation_time": "",
    "holiday": "",
    "latitude": "36.12348469",
    "longitude": "139.7152159",
    "tel": "0480-55-0831",
    "address": "久喜市小右衛門192-1",
    "access": "",
    "games": [
      "MILLIONET"
    ]
  },
  {
    "name": "ウェアハウス上尾店",
    "operation_time": "10:00～24:00",
    "holiday": "無し",
    "latitude": "35.98142891",
    "longitude": "139.5998843",
    "tel": "048-770-3332",
    "address": "上尾市二ツ宮1044",
    "access": "R17号より蓮田、伊奈方面車で3分",
    "games": [
      "MILLIONET"
    ]
  },
  {
    "name": "ラウンドワン上尾店",
    "operation_time": "",
    "holiday": "",
    "latitude": "35.98574121",
    "longitude": "139.6078308",
    "tel": "048-778-3411",
    "address": "上尾市大字平塚917-1",
    "access": "",
    "games": [
      "MILLIONET"
    ]
  },
  {
    "name": "シルクハット八王子",
    "operation_time": "10:00～24:45",
    "holiday": "",
    "latitude": "35.65636374",
    "longitude": "139.3384725",
    "tel": "",
    "address": "八王子市旭町2-5八王子ツインタワービル3F",
    "access": "JR八王子駅前",
    "games": [
      "MILLIONET"
    ]
  },
  {
    "name": "GiGOサントムーン柿田川",
    "operation_time": "",
    "holiday": "",
    "latitude": "35.109337",
    "longitude": "138.902823",
    "tel": "055-972-5430",
    "address": "駿東郡清水町玉川61-2サントムーン柿田川2F",
    "access": "",
    "games": [
      "MILLIONET"
    ]
  },
  {
    "name": "ドラマ八王子高倉店",
    "operation_time": "10:00～24:00",
    "holiday": "無し",
    "latitude": "35.66506526",
    "longitude": "139.3664795",
    "tel": "0426-45-7050",
    "address": "八王子市高倉町55-4",
    "access": "国道20号、八王子市高倉町「高倉町西」交差点を日野バイパス豊田方面右手",
    "games": [
      "MILLIONET"
    ]
  },
  {
    "name": "ラウンドワン所沢店",
    "operation_time": "",
    "holiday": "",
    "latitude": "35.78935214",
    "longitude": "139.4700049",
    "tel": "04-2940-8631",
    "address": "所沢市東町5-22TOCOTOCO SQUARE6F",
    "access": "",
    "games": [
      "MILLIONET"
    ]
  },
  {
    "name": "タイトーステーション所沢店",
    "operation_time": "09:00～24:00",
    "holiday": "無し",
    "latitude": "35.7881",
    "longitude": "139.47243",
    "tel": "04-2925-9071",
    "address": "所沢市日吉町3-7",
    "access": "所沢駅西口プロペ通りを徒歩3分",
    "games": [
      "MILLIONET"
    ]
  },
  {
    "name": "ウェアハウス三橋店",
    "operation_time": "一部24時間営業",
    "holiday": "無し",
    "latitude": "35.91589833",
    "longitude": "139.5959286",
    "tel": "048-795-8380",
    "address": "さいたま市西区三橋6-955-1",
    "access": "国道17号バイパス三橋六丁目交差点",
    "games": [
      "MILLIONET"
    ]
  },
  {
    "name": "インターワールド幸手店",
    "operation_time": "",
    "holiday": "",
    "latitude": "36.05714632",
    "longitude": "139.7144119",
    "tel": "0480-47-0540",
    "address": "幸手市上高野2142-1",
    "access": "",
    "games": [
      "MILLIONET"
    ]
  },
  {
    "name": "アピナ橋本店",
    "operation_time": "10:00～24:00",
    "holiday": "無し",
    "latitude": "35.597682",
    "longitude": "139.337035",
    "tel": "042-703-6033",
    "address": "相模原市緑区西橋本5-1-1ラ･フロール駐車場棟1F",
    "access": "橋本駅から徒歩10分 八王子バイパスから津久井街道へ繋がる側道に入ってすぐ",
    "games": [
      "MILLIONET"
    ]
  },
  {
    "name": "アドアーズ橋本店",
    "operation_time": "10:00～23:30",
    "holiday": "無し",
    "latitude": "35.59444342",
    "longitude": "139.3489184",
    "tel": "042-700-2310",
    "address": "相模原市緑区橋本3-3-1SING橋本2F",
    "access": "橋本MOVIX(映画館)の2F",
    "games": [
      "MILLIONET"
    ]
  },
  {
    "name": "ラウンドワン大宮店",
    "operation_time": "",
    "holiday": "",
    "latitude": "35.91078012",
    "longitude": "139.6254963",
    "tel": "048-658-5666",
    "address": "さいたま市大宮区宮町4-90-7",
    "access": "",
    "games": [
      "MILLIONET"
    ]
  },
  {
    "name": "GiGOイオンモール与野",
    "operation_time": "",
    "holiday": "",
    "latitude": "35.89086766",
    "longitude": "139.6150989",
    "tel": "048-852-6689",
    "address": "さいたま市中央区本町西5-2-9イオンモール与野3F",
    "access": "",
    "games": [
      "MILLIONET"
    ]
  },
  {
    "name": "GiGO相模原",
    "operation_time": "10:00～24:00",
    "holiday": "無し",
    "latitude": "35.57350902",
    "longitude": "139.3710322",
    "tel": "080-7465-6268",
    "address": "相模原市中央区中央2-1-5ムトス内",
    "access": "JR横浜線相模原駅徒歩15分国道16号線近く",
    "games": [
      "MILLIONET"
    ]
  },
  {
    "name": "GiGO府中",
    "operation_time": "",
    "holiday": "",
    "latitude": "35.68242",
    "longitude": "139.46002",
    "tel": "042-335-5468",
    "address": "府中市西原町1-6-2フレスポ府中2F",
    "access": "",
    "games": [
      "MILLIONET"
    ]
  },
  {
    "name": "Amusement&Game MAGHREB",
    "operation_time": "10:00～24:00",
    "holiday": "無し",
    "latitude": "35.624024",
    "longitude": "139.423196",
    "tel": "042-371-5556",
    "address": "多摩市落合1-39-2マグレブビル1F",
    "access": "京王線・小田急線 多摩センター駅 徒歩3分/多摩モノレール多摩センター駅 徒歩1分",
    "games": [
      "MILLIONET"
    ]
  },
  {
    "name": "ウェアハウス岩槻店",
    "operation_time": "7:00～23:45",
    "holiday": "無し",
    "latitude": "35.94092949",
    "longitude": "139.6859268",
    "tel": "048-758-8755",
    "address": "さいたま市岩槻区加倉3-3-63",
    "access": "岩槻IC降りて直ぐ",
    "games": [
      "MILLIONET"
    ]
  },
  {
    "name": "ラウンドワン府中本町駅前店",
    "operation_time": "",
    "holiday": "",
    "latitude": "35.667312",
    "longitude": "139.477387",
    "tel": "042-340-4901",
    "address": "府中市本町1-13-3カネタビル",
    "access": "",
    "games": [
      "MILLIONET"
    ]
  },
  {
    "name": "ラウンドワン朝霞店",
    "operation_time": "",
    "holiday": "",
    "latitude": "35.79026242",
    "longitude": "139.5796756",
    "tel": "048-450-1822",
    "address": "朝霞市膝折町2-16-10",
    "access": "",
    "games": [
      "MILLIONET"
    ]
  },
  {
    "name": "埼玉レジャーランド春日部店",
    "operation_time": "一部24時間",
    "holiday": "無し",
    "latitude": "35.95940469",
    "longitude": "139.7289621",
    "tel": "048-763-4061",
    "address": "春日部市大字増富字谷際163-1",
    "access": "国道16号線沿い春日部市増富地内",
    "games": [
      "MILLIONET"
    ]
  },
  {
    "name": "タイトーステーション小田原シティモール店",
    "operation_time": "10:00～24:00",
    "holiday": "無し",
    "latitude": "35.281376",
    "longitude": "139.193786",
    "tel": "0465-45-5052",
    "address": "小田原市前川120小田原シティーモールC棟2F",
    "access": "JR鴨宮駅より、徒歩約20分。",
    "games": [
      "MILLIONET"
    ]
  },
  {
    "name": "ギガステーション戸田店",
    "operation_time": "10:00～24:00",
    "holiday": "無し",
    "latitude": "35.83477805",
    "longitude": "139.6530213",
    "tel": "048-421-1201",
    "address": "戸田市美女木943-7",
    "access": "",
    "games": [
      "MILLIONET"
    ]
  },
  {
    "name": "神奈川レジャーランド厚木店",
    "operation_time": "一部24時間営業",
    "holiday": "無し",
    "latitude": "35.44802433",
    "longitude": "139.3431365",
    "tel": "050-1722-4336",
    "address": "厚木市戸室5-31-1",
    "access": "小田急本厚木駅よりバスにてアンリツ前バス停下車徒歩1分",
    "games": [
      "MILLIONET"
    ]
  },
  {
    "name": "ラウンドワンわらび店",
    "operation_time": "",
    "holiday": "",
    "latitude": "35.83078787",
    "longitude": "139.6742521",
    "tel": "048-447-8080",
    "address": "蕨市北町5-1-6",
    "access": "",
    "games": [
      "MILLIONET"
    ]
  },
  {
    "name": "ラウンドワン町田店",
    "operation_time": "",
    "holiday": "",
    "latitude": "35.54409488",
    "longitude": "139.4432407",
    "tel": "042-710-0091",
    "address": "町田市森野1-13-14",
    "access": "",
    "games": [
      "MILLIONET"
    ]
  },
  {
    "name": "イミグランデ本厚木店",
    "operation_time": "10:00～24:00",
    "holiday": "無し",
    "latitude": "35.43943108",
    "longitude": "139.3616156",
    "tel": "0462-24-9933",
    "address": "厚木市中町3-2-1",
    "access": "小田急「本厚木」駅徒歩3分",
    "games": [
      "MILLIONET"
    ]
  },
  {
    "name": "ラウンドワン吉祥寺店",
    "operation_time": "",
    "holiday": "",
    "latitude": "35.706276",
    "longitude": "139.580884",
    "tel": "0422-29-1051",
    "address": "武蔵野市吉祥寺本町1-11-22",
    "access": "",
    "games": [
      "MILLIONET"
    ]
  },
  {
    "name": "GiGO調布",
    "operation_time": "",
    "holiday": "",
    "latitude": "35.65098715",
    "longitude": "139.5442321",
    "tel": "070-1517-3693",
    "address": "調布市布田4-2-4",
    "access": "",
    "games": [
      "MILLIONET"
    ]
  },
  {
    "name": "ウェアハウス越谷店",
    "operation_time": "10:00～24:00",
    "holiday": "無し",
    "latitude": "35.91195206",
    "longitude": "139.7637557",
    "tel": "048-973-4311",
    "address": "越谷市大字南荻島841-1",
    "access": "越谷岩槻線沿い、国道4号から車で1分",
    "games": [
      "MILLIONET"
    ]
  },
  {
    "name": "アミューズメントFUNFUN越谷店",
    "operation_time": "",
    "holiday": "",
    "latitude": "35.912884",
    "longitude": "139.771184",
    "tel": "048-970-4490",
    "address": "越谷市大字南荻島2770-1",
    "access": "",
    "games": [
      "MILLIONET"
    ]
  },
  {
    "name": "タイトーステーション海老名ビナウォーク店",
    "operation_time": "10:00～24:00",
    "holiday": "無し",
    "latitude": "35.452455",
    "longitude": "139.395834",
    "tel": "046-292-5160",
    "address": "海老名市中央1-18-1ビナウォーク6番館2F",
    "access": "JR相模線、相鉄線、小田急線、海老名駅より徒歩5分",
    "games": [
      "MILLIONET"
    ]
  },
  {
    "name": "テクモピア座間店",
    "operation_time": "",
    "holiday": "",
    "latitude": "35.48001079",
    "longitude": "139.431891",
    "tel": "046-205-4719",
    "address": "座間市ひばりが丘4-11-48",
    "access": "",
    "games": [
      "MILLIONET"
    ]
  },
  {
    "name": "ラウンドワン板橋店",
    "operation_time": "",
    "holiday": "",
    "latitude": "35.77658",
    "longitude": "139.67879",
    "tel": "03-5922-3521",
    "address": "板橋区相生町16-13",
    "access": "",
    "games": [
      "MILLIONET"
    ]
  },
  {
    "name": "アピナ野田七光台店",
    "operation_time": "",
    "holiday": "",
    "latitude": "35.98235422",
    "longitude": "139.8501674",
    "tel": "0471-27-1137",
    "address": "野田市七光台4-2ロックタウン内",
    "access": "",
    "games": [
      "MILLIONET"
    ]
  },
  {
    "name": "イミグランデ大和店",
    "operation_time": "10:00～24:00",
    "holiday": "無し",
    "latitude": "35.49148588",
    "longitude": "139.4547647",
    "tel": "046-277-8571",
    "address": "大和市鶴間2-12-27",
    "access": "小田急鶴間駅徒歩5分",
    "games": [
      "MILLIONET"
    ]
  },
  {
    "name": "千葉レジャーランド野田店",
    "operation_time": "一部24時間営業",
    "holiday": "無し",
    "latitude": "35.97154747",
    "longitude": "139.8653487",
    "tel": "04-7120-3535",
    "address": "野田市吉春776-1",
    "access": "国道16号線沿い野田市吉春地内",
    "games": [
      "MILLIONET"
    ]
  },
  {
    "name": "ゲームシティ川口店",
    "operation_time": "10:00～23:50",
    "holiday": "無し",
    "latitude": "35.80263316",
    "longitude": "139.7255584",
    "tel": "048-250-3855",
    "address": "川口市栄町1-10-5",
    "access": "JR川口駅東口徒歩10分",
    "games": [
      "MILLIONET"
    ]
  },
  {
    "name": "ラウンドワンららぽーと湘南平塚店",
    "operation_time": "",
    "holiday": "",
    "latitude": "35.335825",
    "longitude": "139.354769",
    "tel": "0463-25-4051",
    "address": "平塚市天沼10-1ららぽーと湘南平塚店3F",
    "access": "",
    "games": [
      "MILLIONET"
    ]
  },
  {
    "name": "GiGO川口",
    "operation_time": "",
    "holiday": "",
    "latitude": "35.79475047",
    "longitude": "139.7475357",
    "tel": "048-226-1191",
    "address": "川口市東領家2-2-10",
    "access": "",
    "games": [
      "MILLIONET"
    ]
  },
  {
    "name": "ウェアハウス入谷店",
    "operation_time": "10:00～24:00",
    "holiday": "無し",
    "latitude": "35.80112943",
    "longitude": "139.760997",
    "tel": "03-3856-5833",
    "address": "足立区入谷7-8-11",
    "access": "足立ICから車で3分",
    "games": [
      "MILLIONET"
    ]
  },
  {
    "name": "ラウンドワン池袋店",
    "operation_time": "",
    "holiday": "",
    "latitude": "35.730175",
    "longitude": "139.714846",
    "tel": "03-5928-0221",
    "address": "豊島区東池袋1-14-1池袋スクエア",
    "access": "",
    "games": [
      "MILLIONET"
    ]
  },
  {
    "name": "アドアーズサンシャイン店",
    "operation_time": "10:00～23:45",
    "holiday": "無し",
    "latitude": "35.72996953",
    "longitude": "139.714918",
    "tel": "03-3971-9601",
    "address": "豊島区東池袋1-14-4シネマサンシャイン1-3F",
    "access": "シネマサンシャインビル内",
    "games": [
      "MILLIONET"
    ]
  },
  {
    "name": "タイトーステーションBIGBOX高田馬場",
    "operation_time": "10:00～24:00",
    "holiday": "無し",
    "latitude": "35.712933",
    "longitude": "139.70419",
    "tel": "03-5272-9855",
    "address": "新宿区高田馬場1-35-3BIGBOX6F",
    "access": "西武新宿線・高田馬場駅より徒歩1分",
    "games": [
      "MILLIONET"
    ]
  },
  {
    "name": "タイトーステーション溝の口店",
    "operation_time": "",
    "holiday": "",
    "latitude": "35.600042",
    "longitude": "139.61245",
    "tel": "044-328-9262",
    "address": "川崎市高津区溝口1-11-8",
    "access": "",
    "games": [
      "MILLIONET"
    ]
  },
  {
    "name": "ラウンドワン草加店",
    "operation_time": "",
    "holiday": "",
    "latitude": "35.81240056",
    "longitude": "139.7878993",
    "tel": "048-920-3701",
    "address": "草加市谷塚上町204-1",
    "access": "",
    "games": [
      "MILLIONET"
    ]
  },
  {
    "name": "サープラ横浜あそびタウン",
    "operation_time": "9:00～24:00",
    "holiday": "無し",
    "latitude": "35.55234069",
    "longitude": "139.579585",
    "tel": "045-914-7386",
    "address": "横浜市都筑区中川中央1-25ノースポートモール6F",
    "access": "横浜市営地下鉄センター北駅ノースポートモール6F",
    "games": [
      "MILLIONET"
    ]
  },
  {
    "name": "タイトーステーション新宿南口ゲームワールド店",
    "operation_time": "10:00～25:00",
    "holiday": "無し",
    "latitude": "35.689926",
    "longitude": "139.702372",
    "tel": "03-3226-0395",
    "address": "新宿区新宿3-35-8",
    "access": "JR・新宿駅より徒歩1分",
    "games": [
      "MILLIONET"
    ]
  },
  {
    "name": "ウェアハウス草加店",
    "operation_time": "一部24時間",
    "holiday": "無し",
    "latitude": "35.82979825",
    "longitude": "139.8207329",
    "tel": "048-930-5261",
    "address": "八潮市南後谷507",
    "access": "草加産業道路沿い",
    "games": [
      "MILLIONET"
    ]
  },
  {
    "name": "ラウンドワンららぽーと新三郷店",
    "operation_time": "",
    "holiday": "",
    "latitude": "35.859813",
    "longitude": "139.865774",
    "tel": "048-950-7501",
    "address": "三郷市新三郷ららシティ3-1-1ららぽーと新三郷 2F",
    "access": "",
    "games": [
      "MILLIONET"
    ]
  },
  {
    "name": "ドラマ港北インター店",
    "operation_time": "10:00～24:00",
    "holiday": "無し",
    "latitude": "35.51925659",
    "longitude": "139.5847927",
    "tel": "045-474-6604",
    "address": "横浜市都筑区東方町321-6",
    "access": "第三京浜港北IC右側交差点左折約500M",
    "games": [
      "MILLIONET"
    ]
  },
  {
    "name": "タイトーステーション渋谷店",
    "operation_time": "10:00～24:00",
    "holiday": "無し",
    "latitude": "35.659983",
    "longitude": "139.70204",
    "tel": "03-5467-6565",
    "address": "渋谷区渋谷1-24-12渋谷東映プラザB1F",
    "access": "JR渋谷駅・宮益坂口より徒歩1分",
    "games": [
      "MILLIONET"
    ]
  },
  {
    "name": "ゲームパニック三郷",
    "operation_time": "",
    "holiday": "",
    "latitude": "35.84215546",
    "longitude": "139.8548102",
    "tel": "048-953-8295",
    "address": "三郷市ピアラシティ1-1-200",
    "access": "",
    "games": [
      "MILLIONET"
    ]
  },
  {
    "name": "ドラマ藤沢店",
    "operation_time": "10:00～24:00",
    "holiday": "無し",
    "latitude": "35.35751243",
    "longitude": "139.4682681",
    "tel": "0466-82-0328",
    "address": "藤沢市本藤沢5-6-8",
    "access": "小田急江ノ島線善行駅より徒歩15分",
    "games": [
      "MILLIONET"
    ]
  },
  {
    "name": "サープラ八潮あそびタウン",
    "operation_time": "9:00～24:00",
    "holiday": "無し",
    "latitude": "35.80837561",
    "longitude": "139.8437875",
    "tel": "048-994-5377",
    "address": "八潮市大瀬1-1-3フレスポ八潮3F",
    "access": "つくばエクスプレス・八潮駅隣接フレスポ八潮3F",
    "games": [
      "MILLIONET"
    ]
  },
  {
    "name": "GiGO勿来",
    "operation_time": "",
    "holiday": "",
    "latitude": "36.88914294",
    "longitude": "140.7845719",
    "tel": "0246-65-6000",
    "address": "いわき市勿来町四沢字鍵田13",
    "access": "",
    "games": [
      "MILLIONET"
    ]
  },
  {
    "name": "ラウンドワン横浜綱島店",
    "operation_time": "",
    "holiday": "",
    "latitude": "35.53198182",
    "longitude": "139.6371126",
    "tel": "045-533-6151",
    "address": "横浜市港北区樽町2-6-40T-PLATZ",
    "access": "",
    "games": [
      "MILLIONET"
    ]
  },
  {
    "name": "東京レジャーランド亀有店",
    "operation_time": "",
    "holiday": "",
    "latitude": "35.765462",
    "longitude": "139.84798",
    "tel": "03-5680-8893",
    "address": "葛飾区亀有3-21-2",
    "access": "",
    "games": [
      "MILLIONET"
    ]
  },
  {
    "name": "スーパーウェーブ柏店",
    "operation_time": "9:00～24:00",
    "holiday": "無し",
    "latitude": "35.88165286",
    "longitude": "139.9615303",
    "tel": "04-7144-8366",
    "address": "柏市十余二249-5MEM内",
    "access": "国道16号線沿い マルハンエンタテインメントモール内",
    "games": [
      "MILLIONET"
    ]
  },
  {
    "name": "ラウンドワン横浜駅西口店",
    "operation_time": "",
    "holiday": "",
    "latitude": "35.46393717",
    "longitude": "139.6180549",
    "tel": "045-412-0880",
    "address": "横浜市西区南幸2-8-16",
    "access": "",
    "games": [
      "MILLIONET"
    ]
  },
  {
    "name": "タイトーFステーションオリナス錦糸町店",
    "operation_time": "10:00～23:45",
    "holiday": "無し",
    "latitude": "35.700721",
    "longitude": "139.816024",
    "tel": "03-5610-7376",
    "address": "墨田区太平4-1-2オリナスB1F",
    "access": "JR総武線錦糸町駅北口から徒歩5分",
    "games": [
      "MILLIONET"
    ]
  },
  {
    "name": "シルクハット大船",
    "operation_time": "9:00～23:45",
    "holiday": "無し",
    "latitude": "35.35325232",
    "longitude": "139.5325488",
    "tel": "",
    "address": "鎌倉市大船1-24大船駅前ビル1-3F",
    "access": "JR大船駅徒歩1分",
    "games": [
      "MILLIONET"
    ]
  },
  {
    "name": "シルクハット蒲田西口",
    "operation_time": "10:00～24:45",
    "holiday": "",
    "latitude": "35.56301591",
    "longitude": "139.7158447",
    "tel": "",
    "address": "大田区西蒲田7-2-3第二醍醐ビルB1-2F",
    "access": "",
    "games": [
      "MILLIONET"
    ]
  },
  {
    "name": "タイトーステーションBIGFUN平和島店",
    "operation_time": "",
    "holiday": "",
    "latitude": "35.586122",
    "longitude": "139.740355",
    "tel": "03-5762-7446",
    "address": "大田区平和島1-1-1BIGFUN平和島3F",
    "access": "",
    "games": [
      "MILLIONET"
    ]
  },
  {
    "name": "ジアス上大岡店",
    "operation_time": "10:00～24:00",
    "holiday": "無し",
    "latitude": "35.40665354",
    "longitude": "139.5960833",
    "tel": "045-847-4780",
    "address": "横浜市港南区上大岡西2-1-28赤い風船ビル2F",
    "access": "京浜急行「上大岡駅」下車徒歩3分、横浜市営地下鉄「上大岡駅」下車徒歩1分赤い風船モールパート1 1階",
    "games": [
      "MILLIONET"
    ]
  },
  {
    "name": "ラウンドワンダイバーシティ東京プラザ店",
    "operation_time": "",
    "holiday": "",
    "latitude": "35.62521",
    "longitude": "139.775732",
    "tel": "03-3527-8491",
    "address": "江東区青海1-1-10ダイバーシティ東京6F-6100",
    "access": "",
    "games": [
      "MILLIONET"
    ]
  },
  {
    "name": "シルクハット川崎ダイス",
    "operation_time": "9:00～24:45",
    "holiday": "無し",
    "latitude": "35.5314121",
    "longitude": "139.7002166",
    "tel": "",
    "address": "川崎市川崎区駅前本町8ダイスビルB2F",
    "access": "JR川崎駅アゼリア地下街と直結、京急川崎駅中央口徒歩1分",
    "games": [
      "MILLIONET"
    ]
  },
  {
    "name": "シルクハット伊勢佐木町",
    "operation_time": "9:00～23:45",
    "holiday": "無し",
    "latitude": "35.44281185",
    "longitude": "139.629987",
    "tel": "",
    "address": "横浜市中区伊勢佐木町3-96日活会館ビル3F",
    "access": "JR関内駅北口より徒歩7分・京急線日ノ出町より徒歩6分・横浜市営地下鉄ブルーライン伊勢佐木長者町駅より徒歩4分",
    "games": [
      "MILLIONET"
    ]
  },
  {
    "name": "ラウンドワン南砂店",
    "operation_time": "",
    "holiday": "",
    "latitude": "35.67184786",
    "longitude": "139.8361845",
    "tel": "03-5617-6911",
    "address": "江東区南砂6-7-15トピレックプラザ4F",
    "access": "",
    "games": [
      "MILLIONET"
    ]
  },
  {
    "name": "ラウンドワン川崎大師店",
    "operation_time": "",
    "holiday": "",
    "latitude": "35.53846653",
    "longitude": "139.741634",
    "tel": "044-270-1541",
    "address": "川崎市川崎区殿町1-5-1",
    "access": "",
    "games": [
      "MILLIONET"
    ]
  },
  {
    "name": "ゲームパニックつくば",
    "operation_time": "",
    "holiday": "",
    "latitude": "36.04632758",
    "longitude": "140.1679958",
    "tel": "080-3350-1839",
    "address": "土浦市中村東1-1-1",
    "access": "",
    "games": [
      "MILLIONET"
    ]
  },
  {
    "name": "GiGO石岡",
    "operation_time": "",
    "holiday": "",
    "latitude": "36.198702",
    "longitude": "140.303303",
    "tel": "0299-26-8336",
    "address": "石岡市東大橋中峯1976-1",
    "access": "",
    "games": [
      "MILLIONET"
    ]
  },
  {
    "name": "GiGO水戸南",
    "operation_time": "",
    "holiday": "",
    "latitude": "36.350325",
    "longitude": "140.443003",
    "tel": "029-244-1045",
    "address": "水戸市千波町2017-1",
    "access": "",
    "games": [
      "MILLIONET"
    ]
  },
  {
    "name": "ラウンドワンアリオ柏店",
    "operation_time": "",
    "holiday": "",
    "latitude": "35.832403",
    "longitude": "140.012023",
    "tel": "04-7190-1201",
    "address": "柏市大島田1-6-1セブンパークアリオ柏 1070",
    "access": "",
    "games": [
      "MILLIONET"
    ]
  },
  {
    "name": "大慶園",
    "operation_time": "一部24時間営業",
    "holiday": "無し",
    "latitude": "35.76304297",
    "longitude": "139.96933",
    "tel": "047-337-5001",
    "address": "市川市大町359",
    "access": "JR市川大野駅下車 市川植物園行きバス乗車 市川斎場前下車徒歩10分・北総線大町駅から車5分",
    "games": [
      "MILLIONET"
    ]
  },
  {
    "name": "ラウンドワン市川鬼高店",
    "operation_time": "",
    "holiday": "",
    "latitude": "35.711239",
    "longitude": "139.927465",
    "tel": "047-320-3801",
    "address": "市川市鬼高4-1-3",
    "access": "",
    "games": [
      "MILLIONET"
    ]
  },
  {
    "name": "タイトーFステーション市川妙典店",
    "operation_time": "施設の営業時間に準じる",
    "holiday": "施設の営業日に準じる",
    "latitude": "35.69246485",
    "longitude": "139.9267286",
    "tel": "047-318-3933",
    "address": "市川市妙典4-1-1イオン市川妙典店2番街2F",
    "access": "",
    "games": [
      "MILLIONET"
    ]
  },
  {
    "name": "GiGOイオン新浦安ｼｮｯﾋﾟﾝｸﾞｾﾝﾀｰ",
    "operation_time": "9:00～24:00",
    "holiday": "無し",
    "latitude": "35.64896456",
    "longitude": "139.9148303",
    "tel": "070-1201-3891",
    "address": "浦安市入船1-4-1イオン新浦安4F",
    "access": "JR京葉線新浦安駅より徒歩5分 ダイエーショッパーズプラザ4F",
    "games": [
      "MILLIONET"
    ]
  },
  {
    "name": "アミューズメントエース津田沼",
    "operation_time": "9:00～24:00",
    "holiday": "無し",
    "latitude": "35.69228053",
    "longitude": "140.0201572",
    "tel": "047-475-8918",
    "address": "船橋市前原西2-15-1ファミービル1-3F",
    "access": "JR「津田沼駅」下車北口より徒歩1分",
    "games": [
      "MILLIONET"
    ]
  },
  {
    "name": "シルクハット津田沼",
    "operation_time": "9:00～23:45",
    "holiday": "無し",
    "latitude": "35.69040687",
    "longitude": "140.0221583",
    "tel": "",
    "address": "習志野市津田沼1-2-1十三ビルB1F",
    "access": "JR津田沼駅、京成新津田沼駅徒歩1分",
    "games": [
      "MILLIONET"
    ]
  },
  {
    "name": "GiGOひたちなか",
    "operation_time": "",
    "holiday": "",
    "latitude": "36.34756197",
    "longitude": "140.5803556",
    "tel": "070-1449-2941",
    "address": "ひたちなか市田中後40-11",
    "access": "",
    "games": [
      "MILLIONET"
    ]
  },
  {
    "name": "ラッキーバッティングドーム",
    "operation_time": "9:00～23:50",
    "holiday": "無し",
    "latitude": "35.72444576",
    "longitude": "140.0674286",
    "tel": "047-458-8208",
    "address": "八千代市大和田新田1088",
    "access": "東葉高速鉄道八千代緑が丘駅徒歩10分",
    "games": [
      "MILLIONET"
    ]
  },
  {
    "name": "ラウンドワン習志野店",
    "operation_time": "",
    "holiday": "",
    "latitude": "35.660295",
    "longitude": "140.022576",
    "tel": "047-408-1901",
    "address": "習志野市芝園1-4-5",
    "access": "",
    "games": [
      "MILLIONET"
    ]
  },
  {
    "name": "アピナ印西店",
    "operation_time": "",
    "holiday": "",
    "latitude": "35.803009",
    "longitude": "140.162496",
    "tel": "0476-48-5841",
    "address": "印西市原1-2ビッグホップガーデンモール印西2F",
    "access": "",
    "games": [
      "MILLIONET"
    ]
  },
  {
    "name": "ラッキー佐倉店",
    "operation_time": "10:00～23:45",
    "holiday": "無し",
    "latitude": "35.71839979",
    "longitude": "140.1362206",
    "tel": "043-460-5165",
    "address": "佐倉市井野1475",
    "access": "京成線勝田台駅下車徒歩10分 国道296号沿い",
    "games": [
      "MILLIONET"
    ]
  },
  {
    "name": "スポーツウェーブ鉄腕24稲毛長沼店",
    "operation_time": "一部24時間営業",
    "holiday": "無し",
    "latitude": "35.66179317",
    "longitude": "140.1264239",
    "tel": "043-215-5560",
    "address": "千葉市稲毛区長沼原町697",
    "access": "東関東自動車道 千葉北ICから約5分 千葉総合運動場そば",
    "games": [
      "MILLIONET"
    ]
  },
  {
    "name": "パレパレ稲毛長沼店",
    "operation_time": "9:00～24:00",
    "holiday": "無し",
    "latitude": "35.65753267",
    "longitude": "140.129187",
    "tel": "043-304-7878",
    "address": "千葉市稲毛区長沼原町731-25フレスポ稲毛A2棟-4",
    "access": "JR稲毛駅より京成バス山王町行き、ヴィルフォーレ下車2分",
    "games": [
      "MILLIONET"
    ]
  },
  {
    "name": "GiGOフェスティバルウォーク蘇我",
    "operation_time": "",
    "holiday": "",
    "latitude": "35.592701",
    "longitude": "140.117827",
    "tel": "043-266-9012",
    "address": "千葉市中央区川崎町51-1ハーバーシティ蘇我",
    "access": "",
    "games": [
      "MILLIONET"
    ]
  },
  {
    "name": "スポーツウェーブ鉄腕24浜野店",
    "operation_time": "一部24時間営業",
    "holiday": "無し",
    "latitude": "35.55423187",
    "longitude": "140.1264305",
    "tel": "043-300-8033",
    "address": "千葉市中央区浜野町1025-59",
    "access": "館山自動車道蘇我ICより車で8分",
    "games": [
      "MILLIONET"
    ]
  },
  {
    "name": "ラウンドワン市原店",
    "operation_time": "",
    "holiday": "",
    "latitude": "35.54749256",
    "longitude": "140.1233239",
    "tel": "0436-44-8801",
    "address": "市原市八幡北町3-5-1",
    "access": "",
    "games": [
      "MILLIONET"
    ]
  },
  {
    "name": "ゲームチャリオット辰巳店",
    "operation_time": "10:00～24:00",
    "holiday": "無し",
    "latitude": "35.52471801",
    "longitude": "140.121946",
    "tel": "0436-41-9211",
    "address": "市原市市原500-1",
    "access": "館山自動車道蘇我ICより車で10分、国道297号線沿い",
    "games": [
      "MILLIONET"
    ]
  },
  {
    "name": "千葉レジャーランド成東店",
    "operation_time": "一部24時間営業",
    "holiday": "無し",
    "latitude": "35.58828462",
    "longitude": "140.3904243",
    "tel": "047-580-1777",
    "address": "山武市姫島111-1",
    "access": "国道126号線成東町姫島地内ローソン奥",
    "games": [
      "MILLIONET"
    ]
  }
]