[
  {
    "name": "ラウンドワン福岡天神店",
    "operation_time": "",
    "holiday": "",
    "latitude": "33.58960223",
    "longitude": "130.3968402",
    "tel": "092-720-8101",
    "address": "福岡市中央区天神2-6-12",
    "access": "",
    "games": [
      "桃太郎電鉄ワールド ～地球もメダルもまわってる！～"
    ]
  },
  {
    "name": "楽市街道箱崎店3F",
    "operation_time": "10:00～24:00",
    "holiday": "無し",
    "latitude": "33.62410817",
    "longitude": "130.4195897",
    "tel": "092-642-0761",
    "address": "福岡市東区箱崎5-1-8楽市街道箱崎店内3F",
    "access": "3号線沿い九州大学そば",
    "games": [
      "桃太郎電鉄ワールド ～地球もメダルもまわってる！～"
    ]
  },
  {
    "name": "ラウンドワン博多半道橋店",
    "operation_time": "",
    "holiday": "",
    "latitude": "33.58394157",
    "longitude": "130.4382666",
    "tel": "092-475-6611",
    "address": "福岡市博多区半道橋2-2-8",
    "access": "",
    "games": [
      "桃太郎電鉄ワールド ～地球もメダルもまわってる！～"
    ]
  },
  {
    "name": "楽市楽座210トリアス店",
    "operation_time": "10:00～24:00",
    "holiday": "無し",
    "latitude": "33.65282452",
    "longitude": "130.4920223",
    "tel": "092-976-3421",
    "address": "糟屋郡久山町大字山田990",
    "access": "久山町ショッピングモールトリアス敷地内",
    "games": [
      "桃太郎電鉄ワールド ～地球もメダルもまわってる！～"
    ]
  },
  {
    "name": "楽市楽座イオンモール筑紫野店",
    "operation_time": "10:00～21:00",
    "holiday": "無し",
    "latitude": "33.48099618",
    "longitude": "130.5267351",
    "tel": "092-929-6220",
    "address": "筑紫野市大字立明寺434-1イオンモール筑紫野店3F",
    "access": "JR鹿児島本線「天拝山駅」近く",
    "games": [
      "桃太郎電鉄ワールド ～地球もメダルもまわってる！～"
    ]
  },
  {
    "name": "ラウンドワン小倉店",
    "operation_time": "",
    "holiday": "",
    "latitude": "33.89742877",
    "longitude": "130.8598475",
    "tel": "093-562-8805",
    "address": "北九州市小倉北区西港町15-65",
    "access": "",
    "games": [
      "桃太郎電鉄ワールド ～地球もメダルもまわってる！～"
    ]
  },
  {
    "name": "楽市街道くるめ店",
    "operation_time": "10:00～24:00",
    "holiday": "無し",
    "latitude": "33.31964228",
    "longitude": "130.5426663",
    "tel": "0942-41-1450",
    "address": "久留米市新合川2-7-10久留米アミューズメントビル内",
    "access": "久留米ICから車で5分国道210号線沿い",
    "games": [
      "桃太郎電鉄ワールド ～地球もメダルもまわってる！～"
    ]
  },
  {
    "name": "パスカワールドグリーンランド",
    "operation_time": "10:00～翌3:00",
    "holiday": "無し",
    "latitude": "32.98790587",
    "longitude": "130.4711246",
    "tel": "0968-69-3001",
    "address": "荒尾市本井手1574-54",
    "access": "三井グリーンランドウルトラマンランド横",
    "games": [
      "桃太郎電鉄ワールド ～地球もメダルもまわってる！～"
    ]
  },
  {
    "name": "ラウンドワン熊本店",
    "operation_time": "",
    "holiday": "",
    "latitude": "32.78499883",
    "longitude": "130.6775647",
    "tel": "096-325-7200",
    "address": "熊本市西区春日7-25-15",
    "access": "",
    "games": [
      "桃太郎電鉄ワールド ～地球もメダルもまわってる！～"
    ]
  },
  {
    "name": "パスカワールド宇土店",
    "operation_time": "日曜～木曜 10:00～23:00  金曜・土曜 10:00～24:00",
    "holiday": "無し",
    "latitude": "32.68271108",
    "longitude": "130.6679513",
    "tel": "0964-22-5311",
    "address": "宇土市善道寺町綾織95",
    "access": "松橋ICより車で10分、宇土シティーショッピングセンター内",
    "games": [
      "桃太郎電鉄ワールド ～地球もメダルもまわってる！～"
    ]
  },
  {
    "name": "ラウンドワン沖縄･宜野湾店",
    "operation_time": "",
    "holiday": "",
    "latitude": "26.27580261",
    "longitude": "127.7310389",
    "tel": "098-870-2110",
    "address": "宜野湾市真志喜3-28-8",
    "access": "",
    "games": [
      "桃太郎電鉄ワールド ～地球もメダルもまわってる！～"
    ]
  },
  {
    "name": "ラウンドワン沖縄･南風原店",
    "operation_time": "",
    "holiday": "",
    "latitude": "26.19509176",
    "longitude": "127.7210653",
    "tel": "098-940-6670",
    "address": "島尻郡南風原町字兼城下茂原552",
    "access": "",
    "games": [
      "桃太郎電鉄ワールド ～地球もメダルもまわってる！～"
    ]
  },
  {
    "name": "ラウンドワン鹿児島宇宿店",
    "operation_time": "",
    "holiday": "",
    "latitude": "31.54388304",
    "longitude": "130.5427759",
    "tel": "099-284-0655",
    "address": "鹿児島市宇宿2-2-2",
    "access": "",
    "games": [
      "桃太郎電鉄ワールド ～地球もメダルもまわってる！～"
    ]
  },
  {
    "name": "アミパラ広島店",
    "operation_time": "10:00～24:00",
    "holiday": "無し",
    "latitude": "34.39350431",
    "longitude": "132.4360428",
    "tel": "082-297-7135",
    "address": "広島市西区西観音町3-17",
    "access": "平和大通り沿い、西区区役所から東へすぐ",
    "games": [
      "桃太郎電鉄ワールド ～地球もメダルもまわってる！～"
    ]
  },
  {
    "name": "ラウンドワン広島店",
    "operation_time": "",
    "holiday": "",
    "latitude": "34.39365895",
    "longitude": "132.4600423",
    "tel": "082-545-8910",
    "address": "広島市中区立町3-11",
    "access": "",
    "games": [
      "桃太郎電鉄ワールド ～地球もメダルもまわってる！～"
    ]
  },
  {
    "name": "ラウンドワン宮崎店",
    "operation_time": "",
    "holiday": "",
    "latitude": "31.89458335",
    "longitude": "131.4170876",
    "tel": "0985-63-1210",
    "address": "宮崎市中村東3-4-60",
    "access": "",
    "games": [
      "桃太郎電鉄ワールド ～地球もメダルもまわってる！～"
    ]
  },
  {
    "name": "アミパラ倉敷店",
    "operation_time": "10:00～24:00",
    "holiday": "無し",
    "latitude": "34.58364137",
    "longitude": "133.7712207",
    "tel": "086-430-2111",
    "address": "倉敷市西中新田624-1アミパラボウル1F",
    "access": "倉敷市役所前、アミパラボウル1F",
    "games": [
      "桃太郎電鉄ワールド ～地球もメダルもまわってる！～"
    ]
  },
  {
    "name": "ラウンドワン岡山妹尾店",
    "operation_time": "",
    "holiday": "",
    "latitude": "34.62318926",
    "longitude": "133.8694608",
    "tel": "086-282-8851",
    "address": "岡山市南区妹尾3413-1",
    "access": "",
    "games": [
      "桃太郎電鉄ワールド ～地球もメダルもまわってる！～"
    ]
  },
  {
    "name": "アミパラ岡山店",
    "operation_time": "10:00～24:00",
    "holiday": "無し",
    "latitude": "34.63615978",
    "longitude": "133.919988",
    "tel": "086-235-3332",
    "address": "岡山市北区青江1-13-8",
    "access": "2号線バイパス・青江交差点から北へすぐ",
    "games": [
      "桃太郎電鉄ワールド ～地球もメダルもまわってる！～"
    ]
  },
  {
    "name": "ラウンドワン札幌北21条店",
    "operation_time": "",
    "holiday": "",
    "latitude": "43.08681907",
    "longitude": "141.3495671",
    "tel": "011-733-8801",
    "address": "札幌市東区北21条東1-1-21",
    "access": "",
    "games": [
      "桃太郎電鉄ワールド ～地球もメダルもまわってる！～"
    ]
  },
  {
    "name": "ラウンドワン札幌すすきの店",
    "operation_time": "",
    "holiday": "",
    "latitude": "43.05431311",
    "longitude": "141.3540587",
    "tel": "011-520-1022",
    "address": "札幌市中央区南五条西3-6-1札幌東宝公楽ビル",
    "access": "",
    "games": [
      "桃太郎電鉄ワールド ～地球もメダルもまわってる！～"
    ]
  },
  {
    "name": "ラウンドワン高松店",
    "operation_time": "",
    "holiday": "",
    "latitude": "34.33898638",
    "longitude": "134.0669994",
    "tel": "087-812-6115",
    "address": "高松市松島町2-7-43",
    "access": "",
    "games": [
      "桃太郎電鉄ワールド ～地球もメダルもまわってる！～"
    ]
  },
  {
    "name": "ラウンドワン札幌白石本通店",
    "operation_time": "",
    "holiday": "",
    "latitude": "43.03673108",
    "longitude": "141.4328227",
    "tel": "011-865-8051",
    "address": "札幌市白石区本通-16-北1-50",
    "access": "",
    "games": [
      "桃太郎電鉄ワールド ～地球もメダルもまわってる！～"
    ]
  },
  {
    "name": "ラウンドワン旭川店",
    "operation_time": "",
    "holiday": "",
    "latitude": "43.78651521",
    "longitude": "142.397308",
    "tel": "0166-49-5071",
    "address": "旭川市永山3条1-4-7",
    "access": "",
    "games": [
      "桃太郎電鉄ワールド ～地球もメダルもまわってる！～"
    ]
  },
  {
    "name": "ラウンドワン姫路飾磨店",
    "operation_time": "",
    "holiday": "",
    "latitude": "34.79228629",
    "longitude": "134.6871127",
    "tel": "079-243-1830",
    "address": "姫路市飾磨区中島1-254",
    "access": "",
    "games": [
      "桃太郎電鉄ワールド ～地球もメダルもまわってる！～"
    ]
  },
  {
    "name": "アピナ姫路店",
    "operation_time": "",
    "holiday": "",
    "latitude": "34.82687",
    "longitude": "134.7151",
    "tel": "079-222-8811",
    "address": "姫路市東郷町1454-3姫路リオス2F",
    "access": "",
    "games": [
      "桃太郎電鉄ワールド ～地球もメダルもまわってる！～"
    ]
  },
  {
    "name": "ラウンドワン函館店",
    "operation_time": "",
    "holiday": "",
    "latitude": "41.82459206",
    "longitude": "140.7173548",
    "tel": "0138-49-8401",
    "address": "函館市西桔梗町848-11",
    "access": "",
    "games": [
      "桃太郎電鉄ワールド ～地球もメダルもまわってる！～"
    ]
  },
  {
    "name": "ホムスタ玉津店",
    "operation_time": "10:00～24:00",
    "holiday": "無し",
    "latitude": "34.67922481",
    "longitude": "134.9831791",
    "tel": "078-920-3337",
    "address": "神戸市西区丸塚2-9-18メガパレス2F",
    "access": "第二神名玉津IC下車車5分",
    "games": [
      "桃太郎電鉄ワールド ～地球もメダルもまわってる！～"
    ]
  },
  {
    "name": "ラウンドワン三宮駅前店",
    "operation_time": "",
    "holiday": "",
    "latitude": "34.69403073",
    "longitude": "135.1973402",
    "tel": "078-252-7200",
    "address": "神戸市中央区小野柄通り6-1-17",
    "access": "",
    "games": [
      "桃太郎電鉄ワールド ～地球もメダルもまわってる！～"
    ]
  },
  {
    "name": "ラウンドワン金沢店",
    "operation_time": "",
    "holiday": "",
    "latitude": "36.54211559",
    "longitude": "136.626054",
    "tel": "076-245-1850",
    "address": "金沢市横川6-120-1",
    "access": "",
    "games": [
      "桃太郎電鉄ワールド ～地球もメダルもまわってる！～"
    ]
  },
  {
    "name": "ラウンドワン豊中店",
    "operation_time": "",
    "holiday": "",
    "latitude": "34.75733488",
    "longitude": "135.465555",
    "tel": "06-6865-2200",
    "address": "豊中市名神口1-1-1",
    "access": "",
    "games": [
      "桃太郎電鉄ワールド ～地球もメダルもまわってる！～"
    ]
  },
  {
    "name": "ラウンドワン梅田店",
    "operation_time": "",
    "holiday": "",
    "latitude": "34.70337769",
    "longitude": "135.5009178",
    "tel": "06-6312-6800",
    "address": "大阪市北区小松原町4-16",
    "access": "",
    "games": [
      "桃太郎電鉄ワールド ～地球もメダルもまわってる！～"
    ]
  },
  {
    "name": "ラウンドワン千日前店",
    "operation_time": "",
    "holiday": "",
    "latitude": "34.667424",
    "longitude": "135.5026714",
    "tel": "06-4708-2600",
    "address": "大阪市中央区難波1-3-1",
    "access": "",
    "games": [
      "桃太郎電鉄ワールド ～地球もメダルもまわってる！～"
    ]
  },
  {
    "name": "ラウンドワン高槻店",
    "operation_time": "",
    "holiday": "",
    "latitude": "34.83266921",
    "longitude": "135.6301782",
    "tel": "072-672-9933",
    "address": "高槻市辻子3-6-4",
    "access": "",
    "games": [
      "桃太郎電鉄ワールド ～地球もメダルもまわってる！～"
    ]
  },
  {
    "name": "ラウンドワン京都河原町店",
    "operation_time": "",
    "holiday": "",
    "latitude": "35.00699573",
    "longitude": "135.7685149",
    "tel": "075-213-8400",
    "address": "京都市中京区河原町通り三条下ル山崎町250",
    "access": "",
    "games": [
      "桃太郎電鉄ワールド ～地球もメダルもまわってる！～"
    ]
  },
  {
    "name": "ラウンドワン守口店",
    "operation_time": "",
    "holiday": "",
    "latitude": "34.7562488",
    "longitude": "135.5886793",
    "tel": "06-6907-9270",
    "address": "守口市佐太東町2-6-14ジャガーグリーン2F",
    "access": "",
    "games": [
      "桃太郎電鉄ワールド ～地球もメダルもまわってる！～"
    ]
  },
  {
    "name": "ラウンドワン堺駅前店",
    "operation_time": "",
    "holiday": "",
    "latitude": "34.58340412",
    "longitude": "135.468425",
    "tel": "072-222-0120",
    "address": "堺市堺区戎島町4-44-3",
    "access": "",
    "games": [
      "桃太郎電鉄ワールド ～地球もメダルもまわってる！～"
    ]
  },
  {
    "name": "ラウンドワン岸和田店",
    "operation_time": "",
    "holiday": "",
    "latitude": "34.45649962",
    "longitude": "135.3885278",
    "tel": "072-429-1100",
    "address": "岸和田市八阪町2-11-1",
    "access": "",
    "games": [
      "桃太郎電鉄ワールド ～地球もメダルもまわってる！～"
    ]
  },
  {
    "name": "ラウンドワン城東放出店",
    "operation_time": "",
    "holiday": "",
    "latitude": "34.69651235",
    "longitude": "135.559648",
    "tel": "06-6936-0100",
    "address": "大阪市城東区今福南3-4-38",
    "access": "",
    "games": [
      "桃太郎電鉄ワールド ～地球もメダルもまわってる！～"
    ]
  },
  {
    "name": "ラウンドワン京都伏見店",
    "operation_time": "",
    "holiday": "",
    "latitude": "34.93599659",
    "longitude": "135.746198",
    "tel": "075-622-9911",
    "address": "京都市伏見区下鳥羽平塚町131",
    "access": "",
    "games": [
      "桃太郎電鉄ワールド ～地球もメダルもまわってる！～"
    ]
  },
  {
    "name": "アミパラ久御山店",
    "operation_time": "",
    "holiday": "",
    "latitude": "34.895478",
    "longitude": "135.747069",
    "tel": "075-754-7722",
    "address": "久世郡久御山町大字森大内337イオンタウン久御山内",
    "access": "",
    "games": [
      "桃太郎電鉄ワールド ～地球もメダルもまわってる！～"
    ]
  },
  {
    "name": "ラウンドワンららぽーと和泉店",
    "operation_time": "",
    "holiday": "",
    "latitude": "34.435599",
    "longitude": "135.447876",
    "tel": "0725-51-2100",
    "address": "和泉市あゆみ野4-4-7ららぽーと和泉店 4F 42100",
    "access": "",
    "games": [
      "桃太郎電鉄ワールド ～地球もメダルもまわってる！～"
    ]
  },
  {
    "name": "ラウンドワン堺中央環状店",
    "operation_time": "",
    "holiday": "",
    "latitude": "34.55707895",
    "longitude": "135.5362412",
    "tel": "072-253-9559",
    "address": "堺市東区石原町2-241",
    "access": "",
    "games": [
      "桃太郎電鉄ワールド ～地球もメダルもまわってる！～"
    ]
  },
  {
    "name": "ラウンドワン青森店",
    "operation_time": "",
    "holiday": "",
    "latitude": "40.79867718",
    "longitude": "140.7483213",
    "tel": "017-762-3591",
    "address": "青森市浜田3-1-1",
    "access": "",
    "games": [
      "桃太郎電鉄ワールド ～地球もメダルもまわってる！～"
    ]
  },
  {
    "name": "アピナ富山新庄店",
    "operation_time": "10:00～24:00",
    "holiday": "無し",
    "latitude": "36.69533117",
    "longitude": "137.2480753",
    "tel": "076-491-7700",
    "address": "富山市荒川3-2-12",
    "access": "",
    "games": [
      "桃太郎電鉄ワールド ～地球もメダルもまわってる！～"
    ]
  },
  {
    "name": "ラウンドワン奈良ミナーラ店",
    "operation_time": "",
    "holiday": "",
    "latitude": "34.685231",
    "longitude": "135.802224",
    "tel": "0742-32-3900",
    "address": "奈良市二条大路南1-3-1ミ･ナーラ5F",
    "access": "",
    "games": [
      "桃太郎電鉄ワールド ～地球もメダルもまわってる！～"
    ]
  },
  {
    "name": "楽市楽座イオンモール大和郡山店",
    "operation_time": "10:00～21:00",
    "holiday": "無し",
    "latitude": "34.6510396",
    "longitude": "135.8022702",
    "tel": "0743-58-5660",
    "address": "大和郡山市下三橋町741-333イオンモール大和郡山店3F",
    "access": "イオンモール大和郡山店内3F",
    "games": [
      "桃太郎電鉄ワールド ～地球もメダルもまわってる！～"
    ]
  },
  {
    "name": "ラウンドワンモレラ岐阜店",
    "operation_time": "",
    "holiday": "",
    "latitude": "35.455121",
    "longitude": "136.672955",
    "tel": "058-323-6600",
    "address": "本巣市三橋1100",
    "access": "",
    "games": [
      "桃太郎電鉄ワールド ～地球もメダルもまわってる！～"
    ]
  },
  {
    "name": "A.Cグランド",
    "operation_time": "9:00～24:00",
    "holiday": "無し",
    "latitude": "35.38308553",
    "longitude": "136.7461998",
    "tel": "058-275-0351",
    "address": "岐阜市茜部大川1-77",
    "access": "名鉄新岐阜駅15分",
    "games": [
      "桃太郎電鉄ワールド ～地球もメダルもまわってる！～"
    ]
  },
  {
    "name": "アピナ上越インター店",
    "operation_time": "10:00～24:00",
    "holiday": "無し",
    "latitude": "37.15427822",
    "longitude": "138.2556225",
    "tel": "025-520-7013",
    "address": "上越市富岡3439",
    "access": "リージョンプラザ近くかに池交差点",
    "games": [
      "桃太郎電鉄ワールド ～地球もメダルもまわってる！～"
    ]
  },
  {
    "name": "アピナ鈴鹿店",
    "operation_time": "店舗に直接お問い合わせください",
    "holiday": "店舗に直接お問い合わせください",
    "latitude": "34.871989",
    "longitude": "136.527078",
    "tel": "059-375-3739",
    "address": "鈴鹿市庄野羽山4-20-1イオンタウン鈴鹿2F",
    "access": "イオンタウン鈴鹿2階",
    "games": [
      "桃太郎電鉄ワールド ～地球もメダルもまわってる！～"
    ]
  },
  {
    "name": "アピナ四日市店",
    "operation_time": "",
    "holiday": "",
    "latitude": "34.94000426",
    "longitude": "136.6070666",
    "tel": "059-349-5011",
    "address": "四日市市泊小柳町4-34",
    "access": "",
    "games": [
      "桃太郎電鉄ワールド ～地球もメダルもまわってる！～"
    ]
  },
  {
    "name": "ラウンドワン名古屋西春店",
    "operation_time": "",
    "holiday": "",
    "latitude": "35.25506282",
    "longitude": "136.8439405",
    "tel": "0568-26-4001",
    "address": "北名古屋市宇福寺神明15",
    "access": "",
    "games": [
      "桃太郎電鉄ワールド ～地球もメダルもまわってる！～"
    ]
  },
  {
    "name": "ラウンドワンみえ川越IC店",
    "operation_time": "",
    "holiday": "",
    "latitude": "35.02319916",
    "longitude": "136.6836502",
    "tel": "059-361-2130",
    "address": "三重郡川越町大字南福崎851-1",
    "access": "",
    "games": [
      "桃太郎電鉄ワールド ～地球もメダルもまわってる！～"
    ]
  },
  {
    "name": "ラウンドワン新潟店",
    "operation_time": "",
    "holiday": "",
    "latitude": "37.88807436",
    "longitude": "139.0177537",
    "tel": "025-280-1322",
    "address": "新潟市中央区美咲町2-1-38",
    "access": "",
    "games": [
      "桃太郎電鉄ワールド ～地球もメダルもまわってる！～"
    ]
  },
  {
    "name": "ラウンドワン中川一号線店",
    "operation_time": "",
    "holiday": "",
    "latitude": "35.12338322",
    "longitude": "136.8636484",
    "tel": "052-665-5353",
    "address": "名古屋市中川区法蔵町2-23",
    "access": "",
    "games": [
      "桃太郎電鉄ワールド ～地球もメダルもまわってる！～"
    ]
  },
  {
    "name": "キングジョイ",
    "operation_time": "9:00～24:00",
    "holiday": "無し",
    "latitude": "35.16797694",
    "longitude": "136.9050444",
    "tel": "052-241-9515",
    "address": "名古屋市中区栄3-3-32",
    "access": "地下鉄栄駅徒歩3分",
    "games": [
      "桃太郎電鉄ワールド ～地球もメダルもまわってる！～"
    ]
  },
  {
    "name": "ラウンドワンイーアス春日井店",
    "operation_time": "",
    "holiday": "",
    "latitude": "35.25898",
    "longitude": "136.98241",
    "tel": "0568-86-1600",
    "address": "春日井市六軒屋町東丘22区画番号3010",
    "access": "",
    "games": [
      "桃太郎電鉄ワールド ～地球もメダルもまわってる！～"
    ]
  },
  {
    "name": "ラウンドワン千種店",
    "operation_time": "",
    "holiday": "",
    "latitude": "35.16799971",
    "longitude": "136.9279985",
    "tel": "052-238-1615",
    "address": "名古屋市千種区新栄3-20-17タイホウ千種駅前南ビル8F",
    "access": "",
    "games": [
      "桃太郎電鉄ワールド ～地球もメダルもまわってる！～"
    ]
  },
  {
    "name": "アピナ長岡店",
    "operation_time": "10:00～24:00",
    "holiday": "無し",
    "latitude": "37.45794202",
    "longitude": "138.8125194",
    "tel": "0258-22-5510",
    "address": "長岡市堺東町22",
    "access": "国道8号線長岡バイパス堺交差点近く",
    "games": [
      "桃太郎電鉄ワールド ～地球もメダルもまわってる！～"
    ]
  },
  {
    "name": "ラウンドワン鳴海店",
    "operation_time": "",
    "holiday": "",
    "latitude": "35.09913151",
    "longitude": "136.9528735",
    "tel": "052-899-0700",
    "address": "名古屋市緑区鳴海町字杜若28",
    "access": "",
    "games": [
      "桃太郎電鉄ワールド ～地球もメダルもまわってる！～"
    ]
  },
  {
    "name": "ゲームパニック大高",
    "operation_time": "9:00～23:45",
    "holiday": "無し",
    "latitude": "35.04850561",
    "longitude": "136.9496236",
    "tel": "052-625-5360",
    "address": "名古屋市緑区忠治山201グランドボウルB2F",
    "access": "国道23号線大高町共和IC側道グランドボウルB2階",
    "games": [
      "桃太郎電鉄ワールド ～地球もメダルもまわってる！～"
    ]
  },
  {
    "name": "ラウンドワン長野店",
    "operation_time": "",
    "holiday": "",
    "latitude": "36.65105714",
    "longitude": "138.225192",
    "tel": "026-254-5801",
    "address": "長野市大字東和田827-6",
    "access": "",
    "games": [
      "桃太郎電鉄ワールド ～地球もメダルもまわってる！～"
    ]
  },
  {
    "name": "アピナ長野村山店",
    "operation_time": "10:00～24:00",
    "holiday": "無し",
    "latitude": "36.6682177",
    "longitude": "138.2633103",
    "tel": "0262-95-9911",
    "address": "長野市村山502-1アミューズメントプレイスアピナ",
    "access": "R18号アップルライン入口",
    "games": [
      "桃太郎電鉄ワールド ～地球もメダルもまわってる！～"
    ]
  },
  {
    "name": "ラウンドワン半田店",
    "operation_time": "",
    "holiday": "",
    "latitude": "34.88609688",
    "longitude": "136.9412056",
    "tel": "0569-25-7351",
    "address": "半田市瑞穂町6-7-8",
    "access": "",
    "games": [
      "桃太郎電鉄ワールド ～地球もメダルもまわってる！～"
    ]
  },
  {
    "name": "アピナ上田店",
    "operation_time": "",
    "holiday": "",
    "latitude": "36.416102",
    "longitude": "138.223307",
    "tel": "0268-75-8055",
    "address": "上田市秋和359-1",
    "access": "",
    "games": [
      "桃太郎電鉄ワールド ～地球もメダルもまわってる！～"
    ]
  },
  {
    "name": "ラウンドワン盛岡店",
    "operation_time": "",
    "holiday": "",
    "latitude": "39.70035197",
    "longitude": "141.133077",
    "tel": "019-654-9011",
    "address": "盛岡市盛岡駅西通2-10-35",
    "access": "",
    "games": [
      "桃太郎電鉄ワールド ～地球もメダルもまわってる！～"
    ]
  },
  {
    "name": "GiGO北岡崎",
    "operation_time": "9:00～24:00",
    "holiday": "無し",
    "latitude": "34.97365547",
    "longitude": "137.1600268",
    "tel": "070-1393-5583",
    "address": "岡崎市錦町2-4",
    "access": "国道248号線沿い、愛知環状線北岡崎駅から徒歩3分",
    "games": [
      "桃太郎電鉄ワールド ～地球もメダルもまわってる！～"
    ]
  },
  {
    "name": "ラウンドワン豊橋店",
    "operation_time": "",
    "holiday": "",
    "latitude": "34.7239242",
    "longitude": "137.4323261",
    "tel": "0532-65-2212",
    "address": "豊橋市大岩町字岩田27-2",
    "access": "",
    "games": [
      "桃太郎電鉄ワールド ～地球もメダルもまわってる！～"
    ]
  },
  {
    "name": "ラウンドワン浜松店",
    "operation_time": "",
    "holiday": "",
    "latitude": "34.73795995",
    "longitude": "137.7638799",
    "tel": "053-461-1101",
    "address": "浜松市中央区天王町諏訪1981-17",
    "access": "",
    "games": [
      "桃太郎電鉄ワールド ～地球もメダルもまわってる！～"
    ]
  },
  {
    "name": "ラウンドワン前橋店",
    "operation_time": "",
    "holiday": "",
    "latitude": "36.36888377",
    "longitude": "139.1051864",
    "tel": "027-287-1501",
    "address": "前橋市天川大島町1101-1",
    "access": "",
    "games": [
      "桃太郎電鉄ワールド ～地球もメダルもまわってる！～"
    ]
  },
  {
    "name": "ラウンドワンスタジアム仙台泉店",
    "operation_time": "",
    "holiday": "",
    "latitude": "38.35192551",
    "longitude": "140.8797545",
    "tel": "022-347-4471",
    "address": "仙台市泉区大沢2-12-4仙台泉インターシティ1F",
    "access": "",
    "games": [
      "桃太郎電鉄ワールド ～地球もメダルもまわってる！～"
    ]
  },
  {
    "name": "ラウンドワンさいたま･上里店",
    "operation_time": "",
    "holiday": "",
    "latitude": "36.259925",
    "longitude": "139.137383",
    "tel": "0495-35-2201",
    "address": "児玉郡上里町大字金久保字周川394-1",
    "access": "",
    "games": [
      "桃太郎電鉄ワールド ～地球もメダルもまわってる！～"
    ]
  },
  {
    "name": "ラウンドワン静岡･駿河店",
    "operation_time": "",
    "holiday": "",
    "latitude": "34.950991",
    "longitude": "138.360524",
    "tel": "054-201-1601",
    "address": "静岡市駿河区向手越1-10-1",
    "access": "",
    "games": [
      "桃太郎電鉄ワールド ～地球もメダルもまわってる！～"
    ]
  },
  {
    "name": "ラウンドワン富士店",
    "operation_time": "",
    "holiday": "",
    "latitude": "35.15310644",
    "longitude": "138.6938016",
    "tel": "0545-51-3636",
    "address": "富士市八代町4-15",
    "access": "",
    "games": [
      "桃太郎電鉄ワールド ～地球もメダルもまわってる！～"
    ]
  },
  {
    "name": "ラウンドワンさいたま･鴻巣店",
    "operation_time": "",
    "holiday": "",
    "latitude": "36.08064011",
    "longitude": "139.4902201",
    "tel": "048-595-2001",
    "address": "鴻巣市箕田3163-7",
    "access": "",
    "games": [
      "桃太郎電鉄ワールド ～地球もメダルもまわってる！～"
    ]
  },
  {
    "name": "ラウンドワン宇都宮店",
    "operation_time": "",
    "holiday": "",
    "latitude": "36.54080987",
    "longitude": "139.8868656",
    "tel": "028-614-8171",
    "address": "宇都宮市江曽島町2072-1",
    "access": "",
    "games": [
      "桃太郎電鉄ワールド ～地球もメダルもまわってる！～"
    ]
  },
  {
    "name": "ラウンドワン入間店",
    "operation_time": "",
    "holiday": "",
    "latitude": "35.82812299",
    "longitude": "139.3755366",
    "tel": "042-960-1521",
    "address": "入間市小谷田3-7-25",
    "access": "",
    "games": [
      "桃太郎電鉄ワールド ～地球もメダルもまわってる！～"
    ]
  },
  {
    "name": "アピナ川越店",
    "operation_time": "10:00～24:00",
    "holiday": "無し",
    "latitude": "35.9037481",
    "longitude": "139.5155363",
    "tel": "049-230-1068",
    "address": "川越市泉町1-1",
    "access": "JR川越線南古谷駅徒歩3分",
    "games": [
      "桃太郎電鉄ワールド ～地球もメダルもまわってる！～"
    ]
  },
  {
    "name": "ラウンドワン武蔵村山店",
    "operation_time": "",
    "holiday": "",
    "latitude": "35.73563714",
    "longitude": "139.3826993",
    "tel": "042-520-3211",
    "address": "武蔵村山市伊奈平3-1-1",
    "access": "",
    "games": [
      "桃太郎電鉄ワールド ～地球もメダルもまわってる！～"
    ]
  },
  {
    "name": "ラウンドワン上尾店",
    "operation_time": "",
    "holiday": "",
    "latitude": "35.98574121",
    "longitude": "139.6078308",
    "tel": "048-778-3411",
    "address": "上尾市大字平塚917-1",
    "access": "",
    "games": [
      "桃太郎電鉄ワールド ～地球もメダルもまわってる！～"
    ]
  },
  {
    "name": "ラウンドワン所沢店",
    "operation_time": "",
    "holiday": "",
    "latitude": "35.78935214",
    "longitude": "139.4700049",
    "tel": "04-2940-8631",
    "address": "所沢市東町5-22TOCOTOCO SQUARE6F",
    "access": "",
    "games": [
      "桃太郎電鉄ワールド ～地球もメダルもまわってる！～"
    ]
  },
  {
    "name": "アピナ橋本店",
    "operation_time": "10:00～24:00",
    "holiday": "無し",
    "latitude": "35.597682",
    "longitude": "139.337035",
    "tel": "042-703-6033",
    "address": "相模原市緑区西橋本5-1-1ラ･フロール駐車場棟1F",
    "access": "橋本駅から徒歩10分 八王子バイパスから津久井街道へ繋がる側道に入ってすぐ",
    "games": [
      "桃太郎電鉄ワールド ～地球もメダルもまわってる！～"
    ]
  },
  {
    "name": "ラウンドワン大宮店",
    "operation_time": "",
    "holiday": "",
    "latitude": "35.91078012",
    "longitude": "139.6254963",
    "tel": "048-658-5666",
    "address": "さいたま市大宮区宮町4-90-7",
    "access": "",
    "games": [
      "桃太郎電鉄ワールド ～地球もメダルもまわってる！～"
    ]
  },
  {
    "name": "ラウンドワン府中本町駅前店",
    "operation_time": "",
    "holiday": "",
    "latitude": "35.667312",
    "longitude": "139.477387",
    "tel": "042-340-4901",
    "address": "府中市本町1-13-3カネタビル",
    "access": "",
    "games": [
      "桃太郎電鉄ワールド ～地球もメダルもまわってる！～"
    ]
  },
  {
    "name": "ラウンドワン朝霞店",
    "operation_time": "",
    "holiday": "",
    "latitude": "35.79026242",
    "longitude": "139.5796756",
    "tel": "048-450-1822",
    "address": "朝霞市膝折町2-16-10",
    "access": "",
    "games": [
      "桃太郎電鉄ワールド ～地球もメダルもまわってる！～"
    ]
  },
  {
    "name": "神奈川レジャーランド厚木店",
    "operation_time": "一部24時間営業",
    "holiday": "無し",
    "latitude": "35.44802433",
    "longitude": "139.3431365",
    "tel": "050-1722-4336",
    "address": "厚木市戸室5-31-1",
    "access": "小田急本厚木駅よりバスにてアンリツ前バス停下車徒歩1分",
    "games": [
      "桃太郎電鉄ワールド ～地球もメダルもまわってる！～"
    ]
  },
  {
    "name": "ラウンドワン町田店",
    "operation_time": "",
    "holiday": "",
    "latitude": "35.54409488",
    "longitude": "139.4432407",
    "tel": "042-710-0091",
    "address": "町田市森野1-13-14",
    "access": "",
    "games": [
      "桃太郎電鉄ワールド ～地球もメダルもまわってる！～"
    ]
  },
  {
    "name": "ラウンドワン吉祥寺店",
    "operation_time": "",
    "holiday": "",
    "latitude": "35.706276",
    "longitude": "139.580884",
    "tel": "0422-29-1051",
    "address": "武蔵野市吉祥寺本町1-11-22",
    "access": "",
    "games": [
      "桃太郎電鉄ワールド ～地球もメダルもまわってる！～"
    ]
  },
  {
    "name": "GiGO調布",
    "operation_time": "",
    "holiday": "",
    "latitude": "35.65098715",
    "longitude": "139.5442321",
    "tel": "070-1517-3693",
    "address": "調布市布田4-2-4",
    "access": "",
    "games": [
      "桃太郎電鉄ワールド ～地球もメダルもまわってる！～"
    ]
  },
  {
    "name": "ラウンドワン板橋店",
    "operation_time": "",
    "holiday": "",
    "latitude": "35.77658",
    "longitude": "139.67879",
    "tel": "03-5922-3521",
    "address": "板橋区相生町16-13",
    "access": "",
    "games": [
      "桃太郎電鉄ワールド ～地球もメダルもまわってる！～"
    ]
  },
  {
    "name": "ラウンドワンららぽーと湘南平塚店",
    "operation_time": "",
    "holiday": "",
    "latitude": "35.335825",
    "longitude": "139.354769",
    "tel": "0463-25-4051",
    "address": "平塚市天沼10-1ららぽーと湘南平塚店3F",
    "access": "",
    "games": [
      "桃太郎電鉄ワールド ～地球もメダルもまわってる！～"
    ]
  },
  {
    "name": "ラウンドワン池袋店",
    "operation_time": "",
    "holiday": "",
    "latitude": "35.730175",
    "longitude": "139.714846",
    "tel": "03-5928-0221",
    "address": "豊島区東池袋1-14-1池袋スクエア",
    "access": "",
    "games": [
      "桃太郎電鉄ワールド ～地球もメダルもまわってる！～"
    ]
  },
  {
    "name": "タイトーステーション溝の口店",
    "operation_time": "",
    "holiday": "",
    "latitude": "35.600042",
    "longitude": "139.61245",
    "tel": "044-328-9262",
    "address": "川崎市高津区溝口1-11-8",
    "access": "",
    "games": [
      "桃太郎電鉄ワールド ～地球もメダルもまわってる！～"
    ]
  },
  {
    "name": "ラウンドワン草加店",
    "operation_time": "",
    "holiday": "",
    "latitude": "35.81240056",
    "longitude": "139.7878993",
    "tel": "048-920-3701",
    "address": "草加市谷塚上町204-1",
    "access": "",
    "games": [
      "桃太郎電鉄ワールド ～地球もメダルもまわってる！～"
    ]
  },
  {
    "name": "ラウンドワンららぽーと新三郷店",
    "operation_time": "",
    "holiday": "",
    "latitude": "35.859813",
    "longitude": "139.865774",
    "tel": "048-950-7501",
    "address": "三郷市新三郷ららシティ3-1-1ららぽーと新三郷 2F",
    "access": "",
    "games": [
      "桃太郎電鉄ワールド ～地球もメダルもまわってる！～"
    ]
  },
  {
    "name": "ドラマ藤沢店",
    "operation_time": "10:00～24:00",
    "holiday": "無し",
    "latitude": "35.35751243",
    "longitude": "139.4682681",
    "tel": "0466-82-0328",
    "address": "藤沢市本藤沢5-6-8",
    "access": "小田急江ノ島線善行駅より徒歩15分",
    "games": [
      "桃太郎電鉄ワールド ～地球もメダルもまわってる！～"
    ]
  },
  {
    "name": "ラウンドワン横浜綱島店",
    "operation_time": "",
    "holiday": "",
    "latitude": "35.53198182",
    "longitude": "139.6371126",
    "tel": "045-533-6151",
    "address": "横浜市港北区樽町2-6-40T-PLATZ",
    "access": "",
    "games": [
      "桃太郎電鉄ワールド ～地球もメダルもまわってる！～"
    ]
  },
  {
    "name": "アドアーズ浅草店",
    "operation_time": "10:00～23:30",
    "holiday": "無し",
    "latitude": "35.71319542",
    "longitude": "139.7934854",
    "tel": "03-5830-4380",
    "address": "台東区浅草1-42-4ヒューリック浅草一丁目B1-1F",
    "access": "六区商店街フットサルコート前",
    "games": [
      "桃太郎電鉄ワールド ～地球もメダルもまわってる！～"
    ]
  },
  {
    "name": "ラウンドワン横浜駅西口店",
    "operation_time": "",
    "holiday": "",
    "latitude": "35.46393717",
    "longitude": "139.6180549",
    "tel": "045-412-0880",
    "address": "横浜市西区南幸2-8-16",
    "access": "",
    "games": [
      "桃太郎電鉄ワールド ～地球もメダルもまわってる！～"
    ]
  },
  {
    "name": "タイトーFステーションオリナス錦糸町店",
    "operation_time": "10:00～23:45",
    "holiday": "無し",
    "latitude": "35.700721",
    "longitude": "139.816024",
    "tel": "03-5610-7376",
    "address": "墨田区太平4-1-2オリナスB1F",
    "access": "JR総武線錦糸町駅北口から徒歩5分",
    "games": [
      "桃太郎電鉄ワールド ～地球もメダルもまわってる！～"
    ]
  },
  {
    "name": "ラウンドワンダイバーシティ東京プラザ店",
    "operation_time": "",
    "holiday": "",
    "latitude": "35.62521",
    "longitude": "139.775732",
    "tel": "03-3527-8491",
    "address": "江東区青海1-1-10ダイバーシティ東京6F-6100",
    "access": "",
    "games": [
      "桃太郎電鉄ワールド ～地球もメダルもまわってる！～"
    ]
  },
  {
    "name": "シルクハット川崎ダイス",
    "operation_time": "9:00～24:45",
    "holiday": "無し",
    "latitude": "35.5314121",
    "longitude": "139.7002166",
    "tel": "",
    "address": "川崎市川崎区駅前本町8ダイスビルB2F",
    "access": "JR川崎駅アゼリア地下街と直結、京急川崎駅中央口徒歩1分",
    "games": [
      "桃太郎電鉄ワールド ～地球もメダルもまわってる！～"
    ]
  },
  {
    "name": "シルクハット伊勢佐木町",
    "operation_time": "9:00～23:45",
    "holiday": "無し",
    "latitude": "35.44281185",
    "longitude": "139.629987",
    "tel": "",
    "address": "横浜市中区伊勢佐木町3-96日活会館ビル3F",
    "access": "JR関内駅北口より徒歩7分・京急線日ノ出町より徒歩6分・横浜市営地下鉄ブルーライン伊勢佐木長者町駅より徒歩4分",
    "games": [
      "桃太郎電鉄ワールド ～地球もメダルもまわってる！～"
    ]
  },
  {
    "name": "ラウンドワン南砂店",
    "operation_time": "",
    "holiday": "",
    "latitude": "35.67184786",
    "longitude": "139.8361845",
    "tel": "03-5617-6911",
    "address": "江東区南砂6-7-15トピレックプラザ4F",
    "access": "",
    "games": [
      "桃太郎電鉄ワールド ～地球もメダルもまわってる！～"
    ]
  },
  {
    "name": "ラウンドワン川崎大師店",
    "operation_time": "",
    "holiday": "",
    "latitude": "35.53846653",
    "longitude": "139.741634",
    "tel": "044-270-1541",
    "address": "川崎市川崎区殿町1-5-1",
    "access": "",
    "games": [
      "桃太郎電鉄ワールド ～地球もメダルもまわってる！～"
    ]
  },
  {
    "name": "ラウンドワンアリオ柏店",
    "operation_time": "",
    "holiday": "",
    "latitude": "35.832403",
    "longitude": "140.012023",
    "tel": "04-7190-1201",
    "address": "柏市大島田1-6-1セブンパークアリオ柏 1070",
    "access": "",
    "games": [
      "桃太郎電鉄ワールド ～地球もメダルもまわってる！～"
    ]
  },
  {
    "name": "ラウンドワン市川鬼高店",
    "operation_time": "",
    "holiday": "",
    "latitude": "35.711239",
    "longitude": "139.927465",
    "tel": "047-320-3801",
    "address": "市川市鬼高4-1-3",
    "access": "",
    "games": [
      "桃太郎電鉄ワールド ～地球もメダルもまわってる！～"
    ]
  },
  {
    "name": "アドアーズ船橋店",
    "operation_time": "10:00～23:45",
    "holiday": "",
    "latitude": "35.700449",
    "longitude": "139.984231",
    "tel": "047-411-3337",
    "address": "船橋市本町1-31-26セブン船橋B1-3F",
    "access": "",
    "games": [
      "桃太郎電鉄ワールド ～地球もメダルもまわってる！～"
    ]
  },
  {
    "name": "スポーツウェーブ鉄腕24浜野店",
    "operation_time": "一部24時間営業",
    "holiday": "無し",
    "latitude": "35.55423187",
    "longitude": "140.1264305",
    "tel": "043-300-8033",
    "address": "千葉市中央区浜野町1025-59",
    "access": "館山自動車道蘇我ICより車で8分",
    "games": [
      "桃太郎電鉄ワールド ～地球もメダルもまわってる！～"
    ]
  },
  {
    "name": "ラウンドワン市原店",
    "operation_time": "",
    "holiday": "",
    "latitude": "35.54749256",
    "longitude": "140.1233239",
    "tel": "0436-44-8801",
    "address": "市原市八幡北町3-5-1",
    "access": "",
    "games": [
      "桃太郎電鉄ワールド ～地球もメダルもまわってる！～"
    ]
  }
]