[
  {
    "name": "アミパラ佐世保店",
    "operation_time": "10:00～24:00",
    "holiday": "無し",
    "latitude": "33.15005741",
    "longitude": "129.7804145",
    "tel": "0956-34-8880",
    "address": "佐世保市大塔町18-15",
    "access": "JR大塔駅徒歩3分",
    "games": [
      "桃太郎電鉄 ～メダルゲームも定番！～"
    ]
  },
  {
    "name": "楽市楽座イオンモール福岡伊都店",
    "operation_time": "10:00～22:00",
    "holiday": "施設の営業日に準じる",
    "latitude": "33.577027",
    "longitude": "130.256399",
    "tel": "092-805-8900",
    "address": "福岡市西区北原1-3-1イオン伊都ショッピンクセンター別館",
    "access": "JR筑肥線 九大学研都市駅 南口すぐ",
    "games": [
      "桃太郎電鉄 ～メダルゲームも定番！～"
    ]
  },
  {
    "name": "パスカランド福重店",
    "operation_time": "",
    "holiday": "",
    "latitude": "33.567254",
    "longitude": "130.314875",
    "tel": "092-407-1802",
    "address": "福岡市西区拾六町1-7-1MEGAドンキホーテ福重3F",
    "access": "",
    "games": [
      "桃太郎電鉄 ～メダルゲームも定番！～"
    ]
  },
  {
    "name": "namcoゆめタウン夢彩都店",
    "operation_time": "",
    "holiday": "",
    "latitude": "32.746267",
    "longitude": "129.869355",
    "tel": "095-832-6315",
    "address": "長崎市元船町10-1夢彩都4F",
    "access": "",
    "games": [
      "桃太郎電鉄 ～メダルゲームも定番！～"
    ]
  },
  {
    "name": "楽市楽座イオンモール福津店",
    "operation_time": "10:00～21:30",
    "holiday": "イオンモール福津店に準ずる",
    "latitude": "33.753264",
    "longitude": "130.493481",
    "tel": "0940-38-5131",
    "address": "福津市日蒔野6-16-1イオンモール福津店3F",
    "access": "イオンモール福津店3階",
    "games": [
      "桃太郎電鉄 ～メダルゲームも定番！～"
    ]
  },
  {
    "name": "タイトーステーション福岡天神店",
    "operation_time": "10:00～翌1:00",
    "holiday": "無し",
    "latitude": "33.5896519",
    "longitude": "130.3962521",
    "tel": "092-737-5500",
    "address": "福岡市中央区天神2-6-35サザンクロスビル",
    "access": "西鉄福岡駅北口より徒歩2分",
    "games": [
      "桃太郎電鉄 ～メダルゲームも定番！～"
    ]
  },
  {
    "name": "ラウンドワン福岡天神店",
    "operation_time": "",
    "holiday": "",
    "latitude": "33.58960223",
    "longitude": "130.3968402",
    "tel": "092-720-8101",
    "address": "福岡市中央区天神2-6-12",
    "access": "",
    "games": [
      "桃太郎電鉄 ～メダルゲームも定番！～"
    ]
  },
  {
    "name": "パスカランド博多店",
    "operation_time": "",
    "holiday": "",
    "latitude": "33.61129",
    "longitude": "130.41146",
    "tel": "092-409-2622",
    "address": "福岡市東区東浜1-1-1ゆめタウン博多店2F",
    "access": "",
    "games": [
      "桃太郎電鉄 ～メダルゲームも定番！～"
    ]
  },
  {
    "name": "楽市街道箱崎店3F",
    "operation_time": "10:00～24:00",
    "holiday": "無し",
    "latitude": "33.62410817",
    "longitude": "130.4195897",
    "tel": "092-642-0761",
    "address": "福岡市東区箱崎5-1-8楽市街道箱崎店内3F",
    "access": "3号線沿い九州大学そば",
    "games": [
      "桃太郎電鉄 ～メダルゲームも定番！～"
    ]
  },
  {
    "name": "ラウンドワン博多半道橋店",
    "operation_time": "",
    "holiday": "",
    "latitude": "33.58394157",
    "longitude": "130.4382666",
    "tel": "092-475-6611",
    "address": "福岡市博多区半道橋2-2-8",
    "access": "",
    "games": [
      "桃太郎電鉄 ～メダルゲームも定番！～"
    ]
  },
  {
    "name": "楽市楽座303佐賀大和店",
    "operation_time": "10:00～24:00",
    "holiday": "無し",
    "latitude": "33.30153597",
    "longitude": "130.2808759",
    "tel": "0952-62-8606",
    "address": "佐賀市大和町尼寺2965",
    "access": "佐賀大和ICより車で5分",
    "games": [
      "桃太郎電鉄 ～メダルゲームも定番！～"
    ]
  },
  {
    "name": "楽市楽座210トリアス店",
    "operation_time": "10:00～24:00",
    "holiday": "無し",
    "latitude": "33.65282452",
    "longitude": "130.4920223",
    "tel": "092-976-3421",
    "address": "糟屋郡久山町大字山田990",
    "access": "久山町ショッピングモールトリアス敷地内",
    "games": [
      "桃太郎電鉄 ～メダルゲームも定番！～"
    ]
  },
  {
    "name": "楽市楽座イオンモール福岡店",
    "operation_time": "10:00～21:00",
    "holiday": "無し",
    "latitude": "33.596509",
    "longitude": "130.4803196",
    "tel": "092-939-7233",
    "address": "糟屋郡粕屋町大字酒殿字老ノ木192-1 イオンモール福岡店2F",
    "access": "福岡空港から車で10分ダイヤモンドシティルクレ内2階",
    "games": [
      "桃太郎電鉄 ～メダルゲームも定番！～"
    ]
  },
  {
    "name": "ラウンドワン佐賀店",
    "operation_time": "",
    "holiday": "",
    "latitude": "33.27533631",
    "longitude": "130.3015536",
    "tel": "0952-36-7070",
    "address": "佐賀市兵庫北4-2-1",
    "access": "",
    "games": [
      "桃太郎電鉄 ～メダルゲームも定番！～"
    ]
  },
  {
    "name": "ラウンドワン大野城店",
    "operation_time": "",
    "holiday": "",
    "latitude": "33.54646948",
    "longitude": "130.4822214",
    "tel": "092-504-7411",
    "address": "大野城市御笠川1-18-16",
    "access": "",
    "games": [
      "桃太郎電鉄 ～メダルゲームも定番！～"
    ]
  },
  {
    "name": "楽市楽座諫早店",
    "operation_time": "10:00～24:00",
    "holiday": "無し",
    "latitude": "32.8336036",
    "longitude": "130.0758921",
    "tel": "0957-21-0031",
    "address": "諫早市長野町1086-17",
    "access": "57号線沿い諫早ICより車で10分",
    "games": [
      "桃太郎電鉄 ～メダルゲームも定番！～"
    ]
  },
  {
    "name": "パスカランド黒崎店",
    "operation_time": "",
    "holiday": "",
    "latitude": "33.86053",
    "longitude": "130.760618",
    "tel": "093-644-1188",
    "address": "北九州市八幡西区西曲里町3-1イオンタウン黒崎店1F",
    "access": "",
    "games": [
      "桃太郎電鉄 ～メダルゲームも定番！～"
    ]
  },
  {
    "name": "パスカランド大川店",
    "operation_time": "",
    "holiday": "",
    "latitude": "33.2031959",
    "longitude": "130.3877838",
    "tel": "0944-85-9588",
    "address": "大川市上巻430-1ゆめタウン大川店内",
    "access": "",
    "games": [
      "桃太郎電鉄 ～メダルゲームも定番！～"
    ]
  },
  {
    "name": "パスカランド鳥栖店",
    "operation_time": "",
    "holiday": "",
    "latitude": "33.37599234",
    "longitude": "130.5178656",
    "tel": "0942-85-7441",
    "address": "鳥栖市本鳥栖町537-1フレスポ鳥栖店2F",
    "access": "",
    "games": [
      "桃太郎電鉄 ～メダルゲームも定番！～"
    ]
  },
  {
    "name": "G-STAGE飯塚",
    "operation_time": "10:00～24:00",
    "holiday": "無し",
    "latitude": "33.636493",
    "longitude": "130.676011",
    "tel": "050-3539-3593",
    "address": "飯塚市枝国680-2",
    "access": "",
    "games": [
      "桃太郎電鉄 ～メダルゲームも定番！～"
    ]
  },
  {
    "name": "ラウンドワン小倉店",
    "operation_time": "",
    "holiday": "",
    "latitude": "33.89742877",
    "longitude": "130.8598475",
    "tel": "093-562-8805",
    "address": "北九州市小倉北区西港町15-65",
    "access": "",
    "games": [
      "桃太郎電鉄 ～メダルゲームも定番！～"
    ]
  },
  {
    "name": "小倉メトロポリス店",
    "operation_time": "平日:10:00～23:50 土日祝前日9:00～23:50",
    "holiday": "無し",
    "latitude": "33.89633237",
    "longitude": "130.8596114",
    "tel": "093-581-5684",
    "address": "北九州市小倉北区西港町27-5",
    "access": "JR小倉駅 車で10分",
    "games": [
      "桃太郎電鉄 ～メダルゲームも定番！～"
    ]
  },
  {
    "name": "楽市街道くるめ店",
    "operation_time": "10:00～24:00",
    "holiday": "無し",
    "latitude": "33.31964228",
    "longitude": "130.5426663",
    "tel": "0942-41-1450",
    "address": "久留米市新合川2-7-10久留米アミューズメントビル内",
    "access": "久留米ICから車で5分国道210号線沿い",
    "games": [
      "桃太郎電鉄 ～メダルゲームも定番！～"
    ]
  },
  {
    "name": "楽市楽座砂津店",
    "operation_time": "10:00～24:00",
    "holiday": "無し",
    "latitude": "33.88338123",
    "longitude": "130.8887517",
    "tel": "093-531-2236",
    "address": "北九州市小倉北区砂津3-1-1チャチャタウン小倉B棟3F",
    "access": "小倉駅近くチャチャタウン内",
    "games": [
      "桃太郎電鉄 ～メダルゲームも定番！～"
    ]
  },
  {
    "name": "アミパラ下関長府店",
    "operation_time": "10:00～24:00",
    "holiday": "無し",
    "latitude": "34.02547781",
    "longitude": "131.0073811",
    "tel": "083-248-5008",
    "address": "下関市長府才川1-42-48",
    "access": "JR長府駅徒歩12分",
    "games": [
      "桃太郎電鉄 ～メダルゲームも定番！～"
    ]
  },
  {
    "name": "G-pala小倉店",
    "operation_time": "",
    "holiday": "",
    "latitude": "33.83945824",
    "longitude": "130.9109857",
    "tel": "093-953-7405",
    "address": "北九州市小倉南区上葛原1-14-1",
    "access": "",
    "games": [
      "桃太郎電鉄 ～メダルゲームも定番！～"
    ]
  },
  {
    "name": "パスカランド大牟田店",
    "operation_time": "",
    "holiday": "",
    "latitude": "33.03683635",
    "longitude": "130.4546913",
    "tel": "0944-85-8701",
    "address": "大牟田市旭町2-28-1ゆめタウン大牟田店内2F",
    "access": "",
    "games": [
      "桃太郎電鉄 ～メダルゲームも定番！～"
    ]
  },
  {
    "name": "パスカワールドグリーンランド",
    "operation_time": "10:00～翌3:00",
    "holiday": "無し",
    "latitude": "32.98790587",
    "longitude": "130.4711246",
    "tel": "0968-69-3001",
    "address": "荒尾市本井手1574-54",
    "access": "三井グリーンランドウルトラマンランド横",
    "games": [
      "桃太郎電鉄 ～メダルゲームも定番！～"
    ]
  },
  {
    "name": "ピノキオランド本渡店",
    "operation_time": "",
    "holiday": "",
    "latitude": "32.45824761",
    "longitude": "130.1882769",
    "tel": "0969-23-1866",
    "address": "天草市船之尾町279-6SCタイヨーリンドマール店3F",
    "access": "",
    "games": [
      "桃太郎電鉄 ～メダルゲームも定番！～"
    ]
  },
  {
    "name": "楽市楽座行橋店",
    "operation_time": "10:00～24:00",
    "holiday": "",
    "latitude": "33.717125",
    "longitude": "130.971633",
    "tel": "0930-25-3450",
    "address": "行橋市西泉6-1-1コスタ行橋アミューズ棟2F",
    "access": "",
    "games": [
      "桃太郎電鉄 ～メダルゲームも定番！～"
    ]
  },
  {
    "name": "namcoフジグラン宇部店",
    "operation_time": "",
    "holiday": "",
    "latitude": "33.93066",
    "longitude": "131.257132",
    "tel": "0836-37-0172",
    "address": "宇部市明神町3-1-1フジグラン宇部2F",
    "access": "",
    "games": [
      "桃太郎電鉄 ～メダルゲームも定番！～"
    ]
  },
  {
    "name": "パスカランド日田店",
    "operation_time": "",
    "holiday": "",
    "latitude": "33.31201428",
    "longitude": "130.9248917",
    "tel": "0973-28-5525",
    "address": "日田市大字庄手648-71イオンタウン日田店内",
    "access": "",
    "games": [
      "桃太郎電鉄 ～メダルゲームも定番！～"
    ]
  },
  {
    "name": "ふぁんたじーらんどてくもぴあ阿知須店",
    "operation_time": "",
    "holiday": "",
    "latitude": "34.00906338",
    "longitude": "131.3515301",
    "tel": "0836-43-9939",
    "address": "山口市阿知須4825-1サンパークあじす2F",
    "access": "",
    "games": [
      "桃太郎電鉄 ～メダルゲームも定番！～"
    ]
  },
  {
    "name": "ラウンドワン熊本店",
    "operation_time": "",
    "holiday": "",
    "latitude": "32.78499883",
    "longitude": "130.6775647",
    "tel": "096-325-7200",
    "address": "熊本市西区春日7-25-15",
    "access": "",
    "games": [
      "桃太郎電鉄 ～メダルゲームも定番！～"
    ]
  },
  {
    "name": "namcoワンダーシティ南熊本店",
    "operation_time": "",
    "holiday": "",
    "latitude": "32.78695703",
    "longitude": "130.7146907",
    "tel": "096-375-1131",
    "address": "熊本市中央区九品寺6-9-1",
    "access": "",
    "games": [
      "桃太郎電鉄 ～メダルゲームも定番！～"
    ]
  },
  {
    "name": "トライセン中津店",
    "operation_time": "10:00～24:00",
    "holiday": "無し",
    "latitude": "33.58950451",
    "longitude": "131.2110968",
    "tel": "0979-85-0688",
    "address": "中津市下池永67-3",
    "access": "",
    "games": [
      "桃太郎電鉄 ～メダルゲームも定番！～"
    ]
  },
  {
    "name": "パスカワールド宇土店",
    "operation_time": "日曜～木曜 10:00～23:00  金曜・土曜 10:00～24:00",
    "holiday": "無し",
    "latitude": "32.68271108",
    "longitude": "130.6679513",
    "tel": "0964-22-5311",
    "address": "宇土市善道寺町綾織95",
    "access": "松橋ICより車で10分、宇土シティーショッピングセンター内",
    "games": [
      "桃太郎電鉄 ～メダルゲームも定番！～"
    ]
  },
  {
    "name": "パスカランドはません店",
    "operation_time": "",
    "holiday": "",
    "latitude": "32.77117658",
    "longitude": "130.7272317",
    "tel": "096-370-2355",
    "address": "熊本市南区田井島1-2-1ゆめタウンはません店3F",
    "access": "",
    "games": [
      "桃太郎電鉄 ～メダルゲームも定番！～"
    ]
  },
  {
    "name": "パスカランド長嶺店",
    "operation_time": "",
    "holiday": "",
    "latitude": "32.811421",
    "longitude": "130.76182",
    "tel": "096-282-8662",
    "address": "熊本市東区長嶺西1-5-1シュロアモール長嶺内",
    "access": "",
    "games": [
      "桃太郎電鉄 ～メダルゲームも定番！～"
    ]
  },
  {
    "name": "楽市楽座熊本インター店",
    "operation_time": "10:00～22:00",
    "holiday": "無し",
    "latitude": "32.83803525",
    "longitude": "130.7777718",
    "tel": "096-388-7330",
    "address": "熊本市東区石原1-1-112ミスターマックス熊本インター店",
    "access": "熊本インター下車国道57号線阿蘇方面へ5分程度",
    "games": [
      "桃太郎電鉄 ～メダルゲームも定番！～"
    ]
  },
  {
    "name": "楽市楽座イオンモール熊本店",
    "operation_time": "10:00～22:00",
    "holiday": "無し",
    "latitude": "32.73778035",
    "longitude": "130.743711",
    "tel": "096-237-3883",
    "address": "上益城郡嘉島町大字上島字長池2232 イオンモール熊本2F",
    "access": "",
    "games": [
      "桃太郎電鉄 ～メダルゲームも定番！～"
    ]
  },
  {
    "name": "アミパラ周南久米店",
    "operation_time": "",
    "holiday": "",
    "latitude": "34.03737576",
    "longitude": "131.8441913",
    "tel": "083-436-1234",
    "address": "周南市久米中央5-6-1イオンタウン周南久米内",
    "access": "",
    "games": [
      "桃太郎電鉄 ～メダルゲームも定番！～"
    ]
  },
  {
    "name": "アミュージアム周南店",
    "operation_time": "10:00～23:00",
    "holiday": "無し",
    "latitude": "34.01848693",
    "longitude": "131.8630744",
    "tel": "0833-44-3290",
    "address": "下松市中央町21-3ゆめタウン下松3F",
    "access": "JR下松駅から車で10分。THEMALL周南食遊館3階。",
    "games": [
      "桃太郎電鉄 ～メダルゲームも定番！～"
    ]
  },
  {
    "name": "namco那覇メインプレイス店",
    "operation_time": "",
    "holiday": "",
    "latitude": "26.22562681",
    "longitude": "127.6945097",
    "tel": "098-951-3361",
    "address": "那覇市おもろまち4-4サンエー那覇メインプレイス内2F",
    "access": "",
    "games": [
      "桃太郎電鉄 ～メダルゲームも定番！～"
    ]
  },
  {
    "name": "ラウンドワン沖縄･宜野湾店",
    "operation_time": "",
    "holiday": "",
    "latitude": "26.27580261",
    "longitude": "127.7310389",
    "tel": "098-870-2110",
    "address": "宜野湾市真志喜3-28-8",
    "access": "",
    "games": [
      "桃太郎電鉄 ～メダルゲームも定番！～"
    ]
  },
  {
    "name": "GiGO北谷",
    "operation_time": "",
    "holiday": "",
    "latitude": "26.317045",
    "longitude": "127.755636",
    "tel": "098-936-6741",
    "address": "中頭郡北谷町美浜9-8",
    "access": "",
    "games": [
      "桃太郎電鉄 ～メダルゲームも定番！～"
    ]
  },
  {
    "name": "ラウンドワン沖縄･南風原店",
    "operation_time": "",
    "holiday": "",
    "latitude": "26.19509176",
    "longitude": "127.7210653",
    "tel": "098-940-6670",
    "address": "島尻郡南風原町字兼城下茂原552",
    "access": "",
    "games": [
      "桃太郎電鉄 ～メダルゲームも定番！～"
    ]
  },
  {
    "name": "楽市楽座イオンモール沖縄ライカム店",
    "operation_time": "10:00～23:00",
    "holiday": "",
    "latitude": "26.315223",
    "longitude": "127.794331",
    "tel": "098-923-5525",
    "address": "中頭郡北中城村字ライカム1イオンモール沖縄ライカム店4032",
    "access": "",
    "games": [
      "桃太郎電鉄 ～メダルゲームも定番！～"
    ]
  },
  {
    "name": "タイトーステーションアミュプラザ鹿児島店",
    "operation_time": "",
    "holiday": "",
    "latitude": "31.58455357",
    "longitude": "130.5426014",
    "tel": "099-812-7250",
    "address": "鹿児島市中央町1-1アミュプラザ鹿児島6F",
    "access": "",
    "games": [
      "桃太郎電鉄 ～メダルゲームも定番！～"
    ]
  },
  {
    "name": "namcoイオン具志川店",
    "operation_time": "",
    "holiday": "",
    "latitude": "26.338384",
    "longitude": "127.844754",
    "tel": "098-983-6040",
    "address": "うるま市字前原幸崎原303イオン具志川SC2F",
    "access": "",
    "games": [
      "桃太郎電鉄 ～メダルゲームも定番！～"
    ]
  },
  {
    "name": "ラウンドワン鹿児島宇宿店",
    "operation_time": "",
    "holiday": "",
    "latitude": "31.54388304",
    "longitude": "130.5427759",
    "tel": "099-284-0655",
    "address": "鹿児島市宇宿2-2-2",
    "access": "",
    "games": [
      "桃太郎電鉄 ～メダルゲームも定番！～"
    ]
  },
  {
    "name": "サープラ鹿児島あそびタウン",
    "operation_time": "9:00～24:00",
    "holiday": "無し",
    "latitude": "31.57003616",
    "longitude": "130.565823",
    "tel": "099-213-0223",
    "address": "鹿児島市与次郎1-11-1 2F",
    "access": "フレスポジャングルパーク鹿児島店2F",
    "games": [
      "桃太郎電鉄 ～メダルゲームも定番！～"
    ]
  },
  {
    "name": "ラウンドワン大分店",
    "operation_time": "",
    "holiday": "",
    "latitude": "33.24885259",
    "longitude": "131.6402543",
    "tel": "097-573-2800",
    "address": "大分市萩原2-13-17",
    "access": "",
    "games": [
      "桃太郎電鉄 ～メダルゲームも定番！～"
    ]
  },
  {
    "name": "namcoゆめタウン廿日市店",
    "operation_time": "",
    "holiday": "",
    "latitude": "34.34558224",
    "longitude": "132.3362102",
    "tel": "0829-30-8156",
    "address": "廿日市市下平良2-2-1-3F",
    "access": "",
    "games": [
      "桃太郎電鉄 ～メダルゲームも定番！～"
    ]
  },
  {
    "name": "アミパラ松江店",
    "operation_time": "",
    "holiday": "",
    "latitude": "35.463684",
    "longitude": "133.074132",
    "tel": "0852-67-1700",
    "address": "松江市東朝日町203-1",
    "access": "",
    "games": [
      "桃太郎電鉄 ～メダルゲームも定番！～"
    ]
  },
  {
    "name": "アミパラ広島店",
    "operation_time": "10:00～24:00",
    "holiday": "無し",
    "latitude": "34.39350431",
    "longitude": "132.4360428",
    "tel": "082-297-7135",
    "address": "広島市西区西観音町3-17",
    "access": "平和大通り沿い、西区区役所から東へすぐ",
    "games": [
      "桃太郎電鉄 ～メダルゲームも定番！～"
    ]
  },
  {
    "name": "ラウンドワン広島店",
    "operation_time": "",
    "holiday": "",
    "latitude": "34.39365895",
    "longitude": "132.4600423",
    "tel": "082-545-8910",
    "address": "広島市中区立町3-11",
    "access": "",
    "games": [
      "桃太郎電鉄 ～メダルゲームも定番！～"
    ]
  },
  {
    "name": "アミパラフォレオ広島東店",
    "operation_time": "",
    "holiday": "",
    "latitude": "34.407515",
    "longitude": "132.504176",
    "tel": "082-562-2211",
    "address": "広島市東区温品1-3-2フォレオ広島東1F",
    "access": "",
    "games": [
      "桃太郎電鉄 ～メダルゲームも定番！～"
    ]
  },
  {
    "name": "namcoイオンモール広島府中店",
    "operation_time": "",
    "holiday": "",
    "latitude": "34.3938113",
    "longitude": "132.4973532",
    "tel": "082-284-5891",
    "address": "安芸郡府中町大須2-1-1イオンモール広島府中3F",
    "access": "",
    "games": [
      "桃太郎電鉄 ～メダルゲームも定番！～"
    ]
  },
  {
    "name": "アミパラがいな店",
    "operation_time": "10:00 ～ 24:00",
    "holiday": "無し",
    "latitude": "35.43797411",
    "longitude": "133.3392651",
    "tel": "0859-39-1800",
    "address": "米子市日ノ出町1-8-13",
    "access": "米子しんまち天満屋から南西へ300m",
    "games": [
      "桃太郎電鉄 ～メダルゲームも定番！～"
    ]
  },
  {
    "name": "アミパラ日吉津店",
    "operation_time": "10:00～24:00",
    "holiday": "無し",
    "latitude": "35.44581571",
    "longitude": "133.3869124",
    "tel": "0859-37-1959",
    "address": "西伯郡日吉津村日吉津1160-1イオン日吉津SC西館2F",
    "access": "米子道米子ICより北へ車で5分 イオン日吉津ショッピングセンター西館1階",
    "games": [
      "桃太郎電鉄 ～メダルゲームも定番！～"
    ]
  },
  {
    "name": "パスカランドかのや店",
    "operation_time": "",
    "holiday": "",
    "latitude": "31.37864717",
    "longitude": "130.8562163",
    "tel": "0994-36-4000",
    "address": "鹿屋市白崎町4-1イオンかのや店3F",
    "access": "",
    "games": [
      "桃太郎電鉄 ～メダルゲームも定番！～"
    ]
  },
  {
    "name": "アミパラここじゃ店",
    "operation_time": "10:00～24:00",
    "holiday": "無し",
    "latitude": "34.40752689",
    "longitude": "132.7155261",
    "tel": "082-424-4747",
    "address": "東広島市西条町下見6-10-19山手電気内",
    "access": "広島大学前の交差点より西へすぐ。山手電気内",
    "games": [
      "桃太郎電鉄 ～メダルゲームも定番！～"
    ]
  },
  {
    "name": "ピノキオランド西都店",
    "operation_time": "",
    "holiday": "",
    "latitude": "32.10605553",
    "longitude": "131.4043028",
    "tel": "0983-43-5037",
    "address": "西都市小野崎町1-76西都ショッピングセンターパオ2F",
    "access": "",
    "games": [
      "桃太郎電鉄 ～メダルゲームも定番！～"
    ]
  },
  {
    "name": "ラウンドワン宮崎店",
    "operation_time": "",
    "holiday": "",
    "latitude": "31.89458335",
    "longitude": "131.4170876",
    "tel": "0985-63-1210",
    "address": "宮崎市中村東3-4-60",
    "access": "",
    "games": [
      "桃太郎電鉄 ～メダルゲームも定番！～"
    ]
  },
  {
    "name": "楽市楽座イオンモール宮崎店",
    "operation_time": "9:00～22:00",
    "holiday": "",
    "latitude": "31.92272139",
    "longitude": "131.4562427",
    "tel": "0985-23-8281",
    "address": "宮崎市新別府町江口862-1イオンモール宮崎店2F",
    "access": "",
    "games": [
      "桃太郎電鉄 ～メダルゲームも定番！～"
    ]
  },
  {
    "name": "ラウンドワン松山店",
    "operation_time": "",
    "holiday": "",
    "latitude": "33.8664873",
    "longitude": "132.751593",
    "tel": "089-911-5511",
    "address": "松山市東長戸1-3-10",
    "access": "",
    "games": [
      "桃太郎電鉄 ～メダルゲームも定番！～"
    ]
  },
  {
    "name": "アミパラ松山店",
    "operation_time": "10:00～24:00",
    "holiday": "無し",
    "latitude": "33.833875",
    "longitude": "132.744981",
    "tel": "089-913-5533",
    "address": "松山市生石町655-1",
    "access": "JR松山駅から南西1km 国道196号線沿い",
    "games": [
      "桃太郎電鉄 ～メダルゲームも定番！～"
    ]
  },
  {
    "name": "ピノキオランド日南店",
    "operation_time": "",
    "holiday": "",
    "latitude": "31.58690347",
    "longitude": "131.4014007",
    "tel": "0987-23-8299",
    "address": "日南市材木町1",
    "access": "",
    "games": [
      "桃太郎電鉄 ～メダルゲームも定番！～"
    ]
  },
  {
    "name": "アミパラ東尾道店",
    "operation_time": "",
    "holiday": "",
    "latitude": "34.43048495",
    "longitude": "133.2315964",
    "tel": "0848-36-5715",
    "address": "尾道市高須町5688",
    "access": "",
    "games": [
      "桃太郎電鉄 ～メダルゲームも定番！～"
    ]
  },
  {
    "name": "アミパラ神辺店",
    "operation_time": "10:00～24:00",
    "holiday": "無し",
    "latitude": "34.54578493",
    "longitude": "133.3586159",
    "tel": "084-963-3555",
    "address": "福山市神辺町大字新道上字1-2-1",
    "access": "フジグラン神辺店向かい",
    "games": [
      "桃太郎電鉄 ～メダルゲームも定番！～"
    ]
  },
  {
    "name": "あみぱらんど福山店",
    "operation_time": "10:00～24:00",
    "holiday": "無し",
    "latitude": "34.48795195",
    "longitude": "133.3784594",
    "tel": "0849-25-6188",
    "address": "福山市三吉町南2-8-24",
    "access": "国道2号線沿い、福山警察署から東へすぐ",
    "games": [
      "桃太郎電鉄 ～メダルゲームも定番！～"
    ]
  },
  {
    "name": "ラウンドワン福山店",
    "operation_time": "",
    "holiday": "",
    "latitude": "34.489155",
    "longitude": "133.3925782",
    "tel": "084-973-9891",
    "address": "福山市明神町1-9-28",
    "access": "",
    "games": [
      "桃太郎電鉄 ～メダルゲームも定番！～"
    ]
  },
  {
    "name": "福山メトロポリス",
    "operation_time": "10:00～23:50",
    "holiday": "無し",
    "latitude": "34.46583759",
    "longitude": "133.407424",
    "tel": "084-981-5095",
    "address": "福山市一文字町24-1",
    "access": "JR東福山駅より車で10分",
    "games": [
      "桃太郎電鉄 ～メダルゲームも定番！～"
    ]
  },
  {
    "name": "namcoイオンモール鳥取北店",
    "operation_time": "",
    "holiday": "",
    "latitude": "35.52370392",
    "longitude": "134.2010577",
    "tel": "0857-30-0400",
    "address": "鳥取市晩稲348イオンモール鳥取北2F",
    "access": "",
    "games": [
      "桃太郎電鉄 ～メダルゲームも定番！～"
    ]
  },
  {
    "name": "アミパラ津山店",
    "operation_time": "9:00～22:00",
    "holiday": "無し",
    "latitude": "35.06470307",
    "longitude": "134.0455074",
    "tel": "0868-21-8071",
    "address": "津山市河辺1000-1イオン津山SC内2F",
    "access": "中国自動車道津山IC下車正面 イオン津山ショッピングセンター内2F",
    "games": [
      "桃太郎電鉄 ～メダルゲームも定番！～"
    ]
  },
  {
    "name": "アミパラ倉敷店",
    "operation_time": "10:00～24:00",
    "holiday": "無し",
    "latitude": "34.58364137",
    "longitude": "133.7712207",
    "tel": "086-430-2111",
    "address": "倉敷市西中新田624-1アミパラボウル1F",
    "access": "倉敷市役所前、アミパラボウル1F",
    "games": [
      "桃太郎電鉄 ～メダルゲームも定番！～"
    ]
  },
  {
    "name": "ラウンドワン岡山妹尾店",
    "operation_time": "",
    "holiday": "",
    "latitude": "34.62318926",
    "longitude": "133.8694608",
    "tel": "086-282-8851",
    "address": "岡山市南区妹尾3413-1",
    "access": "",
    "games": [
      "桃太郎電鉄 ～メダルゲームも定番！～"
    ]
  },
  {
    "name": "アミパラテクノランド店",
    "operation_time": "10:00～24:00",
    "holiday": "",
    "latitude": "34.679221",
    "longitude": "133.927419",
    "tel": "086-225-3377",
    "address": "岡山市北区大和町1-7-12",
    "access": "法界院駅から徒歩10分",
    "games": [
      "桃太郎電鉄 ～メダルゲームも定番！～"
    ]
  },
  {
    "name": "GiGOイオンモール岡山",
    "operation_time": "",
    "holiday": "",
    "latitude": "34.66214987",
    "longitude": "133.9177027",
    "tel": "086-227-7681",
    "address": "岡山市北区下石井1-2-1イオンモール岡山6F",
    "access": "",
    "games": [
      "桃太郎電鉄 ～メダルゲームも定番！～"
    ]
  },
  {
    "name": "アミパラ岡山店",
    "operation_time": "10:00～24:00",
    "holiday": "無し",
    "latitude": "34.63615978",
    "longitude": "133.919988",
    "tel": "086-235-3332",
    "address": "岡山市北区青江1-13-8",
    "access": "2号線バイパス・青江交差点から北へすぐ",
    "games": [
      "桃太郎電鉄 ～メダルゲームも定番！～"
    ]
  },
  {
    "name": "ウェアハウス四万十店",
    "operation_time": "9:00～22:00",
    "holiday": "無し",
    "latitude": "32.98710457",
    "longitude": "132.9393438",
    "tel": "0880-31-0152",
    "address": "四万十市右山五月町8-13アピアさつき2F",
    "access": "",
    "games": [
      "桃太郎電鉄 ～メダルゲームも定番！～"
    ]
  },
  {
    "name": "アミパラ丸亀店",
    "operation_time": "10:00～24:00",
    "holiday": "無し",
    "latitude": "34.28466398",
    "longitude": "133.8209638",
    "tel": "0877-24-6666",
    "address": "丸亀市飯野町西分字川縁甲584-1ハローズ棟",
    "access": "坂出ICから5分国道11号線沿い ニトリ隣",
    "games": [
      "桃太郎電鉄 ～メダルゲームも定番！～"
    ]
  },
  {
    "name": "GiGOイオン札幌手稲駅前SC",
    "operation_time": "ゲームコーナー9:00～26:00 / メダルコーナー9:00～24:00",
    "holiday": "無し",
    "latitude": "43.12045749",
    "longitude": "141.2452406",
    "tel": "080-7127-7065",
    "address": "札幌市手稲区前田1条11-3F",
    "access": "西友手稲店3F",
    "games": [
      "桃太郎電鉄 ～メダルゲームも定番！～"
    ]
  },
  {
    "name": "キャッツアイ新川店",
    "operation_time": "10:00～24:00",
    "holiday": "無し",
    "latitude": "43.10077961",
    "longitude": "141.3102954",
    "tel": "011-766-2828",
    "address": "札幌市北区新川2条7-1-7",
    "access": "札樽自動車道新川IC前",
    "games": [
      "桃太郎電鉄 ～メダルゲームも定番！～"
    ]
  },
  {
    "name": "アドアーズ札幌北42条店",
    "operation_time": "10:00～23:00",
    "holiday": "無し",
    "latitude": "43.11197882",
    "longitude": "141.3551118",
    "tel": "011-748-7530",
    "address": "札幌市東区北42条東7-1-1嶋ビル2F",
    "access": "丘珠空港通 ドン・キホーテ2F",
    "games": [
      "桃太郎電鉄 ～メダルゲームも定番！～"
    ]
  },
  {
    "name": "ラウンドワン札幌北21条店",
    "operation_time": "",
    "holiday": "",
    "latitude": "43.08681907",
    "longitude": "141.3495671",
    "tel": "011-733-8801",
    "address": "札幌市東区北21条東1-1-21",
    "access": "",
    "games": [
      "桃太郎電鉄 ～メダルゲームも定番！～"
    ]
  },
  {
    "name": "ラウンドワン札幌すすきの店",
    "operation_time": "",
    "holiday": "",
    "latitude": "43.05431311",
    "longitude": "141.3540587",
    "tel": "011-520-1022",
    "address": "札幌市中央区南五条西3-6-1札幌東宝公楽ビル",
    "access": "",
    "games": [
      "桃太郎電鉄 ～メダルゲームも定番！～"
    ]
  },
  {
    "name": "ラウンドワン高松店",
    "operation_time": "",
    "holiday": "",
    "latitude": "34.33898638",
    "longitude": "134.0669994",
    "tel": "087-812-6115",
    "address": "高松市松島町2-7-43",
    "access": "",
    "games": [
      "桃太郎電鉄 ～メダルゲームも定番！～"
    ]
  },
  {
    "name": "ラウンドワン高知店",
    "operation_time": "",
    "holiday": "",
    "latitude": "33.55793713",
    "longitude": "133.554676",
    "tel": "088-804-3070",
    "address": "高知市南宝永町4-12",
    "access": "",
    "games": [
      "桃太郎電鉄 ～メダルゲームも定番！～"
    ]
  },
  {
    "name": "アミパラ高松店",
    "operation_time": "",
    "holiday": "",
    "latitude": "34.30701859",
    "longitude": "134.0591822",
    "tel": "087-899-8868",
    "address": "高松市伏石町2168-2",
    "access": "",
    "games": [
      "桃太郎電鉄 ～メダルゲームも定番！～"
    ]
  },
  {
    "name": "アミュージアム高松店",
    "operation_time": "10:00～24:00",
    "holiday": "無し",
    "latitude": "34.30772106",
    "longitude": "134.0602944",
    "tel": "087-869-2128",
    "address": "高松市伏石町2144-9",
    "access": "JR高松駅から車で20分。高松中央ICから車で5分。レインボーロードとバイパスの交差点",
    "games": [
      "桃太郎電鉄 ～メダルゲームも定番！～"
    ]
  },
  {
    "name": "ラウンドワン札幌白石本通店",
    "operation_time": "",
    "holiday": "",
    "latitude": "43.03673108",
    "longitude": "141.4328227",
    "tel": "011-865-8051",
    "address": "札幌市白石区本通-16-北1-50",
    "access": "",
    "games": [
      "桃太郎電鉄 ～メダルゲームも定番！～"
    ]
  },
  {
    "name": "キャッツアイ新札幌店",
    "operation_time": "10:00～24:00",
    "holiday": "無し",
    "latitude": "43.04493545",
    "longitude": "141.4754191",
    "tel": "011-899-1500",
    "address": "札幌市厚別区厚別東5条1-2-10",
    "access": "JR、札幌市営地下鉄新札幌駅下車徒歩20分",
    "games": [
      "桃太郎電鉄 ～メダルゲームも定番！～"
    ]
  },
  {
    "name": "キャッツアイ清田店",
    "operation_time": "10:00～24:00",
    "holiday": "無し",
    "latitude": "43.00286736",
    "longitude": "141.4364379",
    "tel": "011-884-2828",
    "address": "札幌市清田区清田1条1-20-1",
    "access": "国道36号線、札幌ドームより車5分",
    "games": [
      "桃太郎電鉄 ～メダルゲームも定番！～"
    ]
  },
  {
    "name": "アミパラ高知店",
    "operation_time": "10:00～24:00",
    "holiday": "無し",
    "latitude": "33.56792315",
    "longitude": "133.6344447",
    "tel": "088-863-4343",
    "address": "南国市篠原194-1",
    "access": "南国ICを降りて南に突き当たり、東へ1km",
    "games": [
      "桃太郎電鉄 ～メダルゲームも定番！～"
    ]
  },
  {
    "name": "ラウンドワン旭川店",
    "operation_time": "",
    "holiday": "",
    "latitude": "43.78651521",
    "longitude": "142.397308",
    "tel": "0166-49-5071",
    "address": "旭川市永山3条1-4-7",
    "access": "",
    "games": [
      "桃太郎電鉄 ～メダルゲームも定番！～"
    ]
  },
  {
    "name": "ラウンドワン姫路飾磨店",
    "operation_time": "",
    "holiday": "",
    "latitude": "34.79228629",
    "longitude": "134.6871127",
    "tel": "079-243-1830",
    "address": "姫路市飾磨区中島1-254",
    "access": "",
    "games": [
      "桃太郎電鉄 ～メダルゲームも定番！～"
    ]
  },
  {
    "name": "アピナ姫路店",
    "operation_time": "",
    "holiday": "",
    "latitude": "34.82687",
    "longitude": "134.7151",
    "tel": "079-222-8811",
    "address": "姫路市東郷町1454-3姫路リオス2F",
    "access": "",
    "games": [
      "桃太郎電鉄 ～メダルゲームも定番！～"
    ]
  },
  {
    "name": "ラウンドワン函館店",
    "operation_time": "",
    "holiday": "",
    "latitude": "41.82459206",
    "longitude": "140.7173548",
    "tel": "0138-49-8401",
    "address": "函館市西桔梗町848-11",
    "access": "",
    "games": [
      "桃太郎電鉄 ～メダルゲームも定番！～"
    ]
  },
  {
    "name": "アミパラ加古川店",
    "operation_time": "10:00～24:00",
    "holiday": "無し",
    "latitude": "34.75139256",
    "longitude": "134.8287077",
    "tel": "079-456-0044",
    "address": "加古川市尾上町今福71-2",
    "access": "JR播但線 京口駅 徒歩20分",
    "games": [
      "桃太郎電鉄 ～メダルゲームも定番！～"
    ]
  },
  {
    "name": "ホムスタ加古川店",
    "operation_time": "10:00～24:00",
    "holiday": "無し",
    "latitude": "34.74552902",
    "longitude": "134.8355115",
    "tel": "0794-56-2121",
    "address": "加古川市尾上町安田351-1メガコート",
    "access": "",
    "games": [
      "桃太郎電鉄 ～メダルゲームも定番！～"
    ]
  },
  {
    "name": "ラウンドワン加古川店",
    "operation_time": "",
    "holiday": "",
    "latitude": "34.74708002",
    "longitude": "134.836935",
    "tel": "0794-29-2513",
    "address": "加古川市尾上町安田字小河原325番6号",
    "access": "",
    "games": [
      "桃太郎電鉄 ～メダルゲームも定番！～"
    ]
  },
  {
    "name": "GiGOイオンモール苫小牧",
    "operation_time": "ゲームコーナー9:00～24:00 / メダルコーナー9:00～23:30",
    "holiday": "無し",
    "latitude": "42.65619751",
    "longitude": "141.6419704",
    "tel": "0144-52-1212",
    "address": "苫小牧市柳町3-1-20イオンモール苫小牧2F",
    "access": "JR苫小牧駅よりバス20分",
    "games": [
      "桃太郎電鉄 ～メダルゲームも定番！～"
    ]
  },
  {
    "name": "ホムスタ玉津店",
    "operation_time": "10:00～24:00",
    "holiday": "無し",
    "latitude": "34.67922481",
    "longitude": "134.9831791",
    "tel": "078-920-3337",
    "address": "神戸市西区丸塚2-9-18メガパレス2F",
    "access": "第二神名玉津IC下車車5分",
    "games": [
      "桃太郎電鉄 ～メダルゲームも定番！～"
    ]
  },
  {
    "name": "ラウンドワン徳島･万代店",
    "operation_time": "",
    "holiday": "",
    "latitude": "34.064828",
    "longitude": "134.564699",
    "tel": "088-612-0025",
    "address": "徳島市万代町4-19-1",
    "access": "",
    "games": [
      "桃太郎電鉄 ～メダルゲームも定番！～"
    ]
  },
  {
    "name": "GiGOスエヒロボウル徳島",
    "operation_time": "",
    "holiday": "",
    "latitude": "34.06129417",
    "longitude": "134.5737056",
    "tel": "088-654-1550",
    "address": "徳島市南末広町4-95-2スエヒロボウル1F",
    "access": "",
    "games": [
      "桃太郎電鉄 ～メダルゲームも定番！～"
    ]
  },
  {
    "name": "アミパラ伊川谷店",
    "operation_time": "",
    "holiday": "",
    "latitude": "34.67051125",
    "longitude": "135.024939",
    "tel": "078-940-9838",
    "address": "神戸市西区池上3-2-3",
    "access": "",
    "games": [
      "桃太郎電鉄 ～メダルゲームも定番！～"
    ]
  },
  {
    "name": "楽市楽座イオンモール神戸北店",
    "operation_time": "10:00～21:00",
    "holiday": "無し",
    "latitude": "34.861083",
    "longitude": "135.194782",
    "tel": "078-983-3355",
    "address": "神戸市北区上津台8-1-1イオンモール神戸北店3F",
    "access": "イオンモール神戸北店内",
    "games": [
      "桃太郎電鉄 ～メダルゲームも定番！～"
    ]
  },
  {
    "name": "アミパラ垂水店",
    "operation_time": "10:00～24:00",
    "holiday": "無し",
    "latitude": "34.66458",
    "longitude": "135.066782",
    "tel": "078-707-9111",
    "address": "神戸市垂水区名谷町字室山1400-18",
    "access": "",
    "games": [
      "桃太郎電鉄 ～メダルゲームも定番！～"
    ]
  },
  {
    "name": "ラウンドワン三宮駅前店",
    "operation_time": "",
    "holiday": "",
    "latitude": "34.69403073",
    "longitude": "135.1973402",
    "tel": "078-252-7200",
    "address": "神戸市中央区小野柄通り6-1-17",
    "access": "",
    "games": [
      "桃太郎電鉄 ～メダルゲームも定番！～"
    ]
  },
  {
    "name": "金沢メトロポリス",
    "operation_time": "",
    "holiday": "",
    "latitude": "36.6011252",
    "longitude": "136.6140038",
    "tel": "076-266-5780",
    "address": "金沢市無量寺4-121-1金沢コロナワールド",
    "access": "",
    "games": [
      "桃太郎電鉄 ～メダルゲームも定番！～"
    ]
  },
  {
    "name": "namcoイオンモールかほく店",
    "operation_time": "",
    "holiday": "",
    "latitude": "36.70946",
    "longitude": "136.7034",
    "tel": "076-289-6101",
    "address": "かほく市内日角タ25イオンモールかほく2F",
    "access": "",
    "games": [
      "桃太郎電鉄 ～メダルゲームも定番！～"
    ]
  },
  {
    "name": "バイパスレジャーランド加賀店",
    "operation_time": "一部24時間営業",
    "holiday": "無し",
    "latitude": "36.32515503",
    "longitude": "136.4113746",
    "tel": "0761-74-8007",
    "address": "加賀市箱宮町ヲ1-1",
    "access": "国道8号線加賀産業道路終点近く",
    "games": [
      "桃太郎電鉄 ～メダルゲームも定番！～"
    ]
  },
  {
    "name": "楽市楽座イオンモール新小松店",
    "operation_time": "10:00～21:00",
    "holiday": "",
    "latitude": "36.395504",
    "longitude": "136.467571",
    "tel": "0761-58-2728",
    "address": "小松市清六町315イオンモール新小松店2F",
    "access": "",
    "games": [
      "桃太郎電鉄 ～メダルゲームも定番！～"
    ]
  },
  {
    "name": "GiGOフェニックスプラザ摩耶",
    "operation_time": "",
    "holiday": "",
    "latitude": "34.70436231",
    "longitude": "135.2281065",
    "tel": "078-861-8281",
    "address": "神戸市灘区味泥町6-1フェニックスプラザ1F",
    "access": "",
    "games": [
      "桃太郎電鉄 ～メダルゲームも定番！～"
    ]
  },
  {
    "name": "バイパスレジャーランド藤江本館",
    "operation_time": "一部24時間営業",
    "holiday": "無し",
    "latitude": "36.58397239",
    "longitude": "136.621523",
    "tel": "076-268-3798",
    "address": "金沢市藤江南2-41",
    "access": "国道8号線沿い藤江交差点近く",
    "games": [
      "桃太郎電鉄 ～メダルゲームも定番！～"
    ]
  },
  {
    "name": "フクイレジャーランドワイプラザ店",
    "operation_time": "一部24時間営業",
    "holiday": "無し",
    "latitude": "36.08750805",
    "longitude": "136.2494211",
    "tel": "0776-57-0433",
    "address": "福井市新保北1-303ヤスサキワイプラザB棟2F",
    "access": "国道8号線沿い福井市内新保交差点近くワイプラザ内",
    "games": [
      "桃太郎電鉄 ～メダルゲームも定番！～"
    ]
  },
  {
    "name": "福井レジャーランド板垣店",
    "operation_time": "",
    "holiday": "",
    "latitude": "36.042283",
    "longitude": "136.233748",
    "tel": "0776-33-5510",
    "address": "福井市下馬3-112",
    "access": "",
    "games": [
      "桃太郎電鉄 ～メダルゲームも定番！～"
    ]
  },
  {
    "name": "ラウンドワン金沢店",
    "operation_time": "",
    "holiday": "",
    "latitude": "36.54211559",
    "longitude": "136.626054",
    "tel": "076-245-1850",
    "address": "金沢市横川6-120-1",
    "access": "",
    "games": [
      "桃太郎電鉄 ～メダルゲームも定番！～"
    ]
  },
  {
    "name": "テクモピア伊丹店",
    "operation_time": "",
    "holiday": "",
    "latitude": "34.780612",
    "longitude": "135.424889",
    "tel": "072-771-1096",
    "address": "伊丹市藤ノ木1-1-1イオンモール伊丹3F",
    "access": "",
    "games": [
      "桃太郎電鉄 ～メダルゲームも定番！～"
    ]
  },
  {
    "name": "GiGOつかしん",
    "operation_time": "",
    "holiday": "",
    "latitude": "34.760868",
    "longitude": "135.418336",
    "tel": "06-6420-3621",
    "address": "尼崎市塚口本町4-8-1つかしん内",
    "access": "",
    "games": [
      "桃太郎電鉄 ～メダルゲームも定番！～"
    ]
  },
  {
    "name": "タイトーステーション尼崎つかしん店",
    "operation_time": "10:00～21:00",
    "holiday": "無し",
    "latitude": "34.761872",
    "longitude": "135.419929",
    "tel": "06-6429-8871",
    "address": "尼崎市塚口本町4-8-1SCつかしん内東町北館3F",
    "access": "・阪急伊丹線「稲野」(阪急神戸線「塚口」駅で乗りかえ)より約300m ・JR宝塚線「猪名寺」駅より約400m",
    "games": [
      "桃太郎電鉄 ～メダルゲームも定番！～"
    ]
  },
  {
    "name": "ラウンドワン豊中店",
    "operation_time": "",
    "holiday": "",
    "latitude": "34.75733488",
    "longitude": "135.465555",
    "tel": "06-6865-2200",
    "address": "豊中市名神口1-1-1",
    "access": "",
    "games": [
      "桃太郎電鉄 ～メダルゲームも定番！～"
    ]
  },
  {
    "name": "ゲームSPOT207",
    "operation_time": "7:00～24:00",
    "holiday": "無し",
    "latitude": "36.73235328",
    "longitude": "137.0023356",
    "tel": "0766-26-2070",
    "address": "高岡市鐘紡町1655-3",
    "access": "JR高岡駅から車で15分",
    "games": [
      "桃太郎電鉄 ～メダルゲームも定番！～"
    ]
  },
  {
    "name": "ラウンドワン東淀川店",
    "operation_time": "",
    "holiday": "",
    "latitude": "34.74289355",
    "longitude": "135.5255278",
    "tel": "06-6160-2221",
    "address": "大阪市東淀川区菅原7-14-29",
    "access": "",
    "games": [
      "桃太郎電鉄 ～メダルゲームも定番！～"
    ]
  },
  {
    "name": "namco梅田店",
    "operation_time": "",
    "holiday": "",
    "latitude": "34.70278573",
    "longitude": "135.5003716",
    "tel": "06-6313-0778",
    "address": "大阪市北区小松原町3-3OSビル2F",
    "access": "",
    "games": [
      "桃太郎電鉄 ～メダルゲームも定番！～"
    ]
  },
  {
    "name": "ラウンドワン梅田店",
    "operation_time": "",
    "holiday": "",
    "latitude": "34.70337769",
    "longitude": "135.5009178",
    "tel": "06-6312-6800",
    "address": "大阪市北区小松原町4-16",
    "access": "",
    "games": [
      "桃太郎電鉄 ～メダルゲームも定番！～"
    ]
  },
  {
    "name": "楽市楽座イオンモール京都桂川店",
    "operation_time": "10:00～22:00",
    "holiday": "施設の営業日に準じる",
    "latitude": "34.965223",
    "longitude": "135.706451",
    "tel": "075-874-3455",
    "address": "京都市南区久世高田町376-1イオンモール京都桂川店3F",
    "access": "JR京都線 桂川駅 直結",
    "games": [
      "桃太郎電鉄 ～メダルゲームも定番！～"
    ]
  },
  {
    "name": "ゲームパニック堺",
    "operation_time": "10:00～23:45",
    "holiday": "無し",
    "latitude": "34.597817",
    "longitude": "135.447433",
    "tel": "072-224-8295",
    "address": "堺市堺区築港八幡町1-1堺浜シーサイド内堺浜えんため館",
    "access": "南海バス20系統「堺市内北回り」 堺駅西口→堺浜シーサイドステージ約17分 堺東駅→堺浜シーサイドステージ約25分",
    "games": [
      "桃太郎電鉄 ～メダルゲームも定番！～"
    ]
  },
  {
    "name": "ラウンドワン千日前店",
    "operation_time": "",
    "holiday": "",
    "latitude": "34.667424",
    "longitude": "135.5026714",
    "tel": "06-4708-2600",
    "address": "大阪市中央区難波1-3-1",
    "access": "",
    "games": [
      "桃太郎電鉄 ～メダルゲームも定番！～"
    ]
  },
  {
    "name": "namcoマグスミノエ店",
    "operation_time": "",
    "holiday": "",
    "latitude": "34.6100368",
    "longitude": "135.4682536",
    "tel": "06-6682-6856",
    "address": "大阪市住之江区泉1-1-82マグスミノエ1F",
    "access": "",
    "games": [
      "桃太郎電鉄 ～メダルゲームも定番！～"
    ]
  },
  {
    "name": "ラウンドワン高槻店",
    "operation_time": "",
    "holiday": "",
    "latitude": "34.83266921",
    "longitude": "135.6301782",
    "tel": "072-672-9933",
    "address": "高槻市辻子3-6-4",
    "access": "",
    "games": [
      "桃太郎電鉄 ～メダルゲームも定番！～"
    ]
  },
  {
    "name": "ラウンドワン和歌山店",
    "operation_time": "",
    "holiday": "",
    "latitude": "34.19849168",
    "longitude": "135.1859428",
    "tel": "073-421-8210",
    "address": "和歌山市小雑賀739-3",
    "access": "",
    "games": [
      "桃太郎電鉄 ～メダルゲームも定番！～"
    ]
  },
  {
    "name": "バンダイナムコCrossStoreイオンモール大日1号",
    "operation_time": "",
    "holiday": "",
    "latitude": "34.74847879",
    "longitude": "135.5800193",
    "tel": "06-4252-8777",
    "address": "守口市大日東町1-18イオンモール大日4F",
    "access": "",
    "games": [
      "桃太郎電鉄 ～メダルゲームも定番！～"
    ]
  },
  {
    "name": "ラウンドワン京都河原町店",
    "operation_time": "",
    "holiday": "",
    "latitude": "35.00699573",
    "longitude": "135.7685149",
    "tel": "075-213-8400",
    "address": "京都市中京区河原町通り三条下ル山崎町250",
    "access": "",
    "games": [
      "桃太郎電鉄 ～メダルゲームも定番！～"
    ]
  },
  {
    "name": "ラウンドワン守口店",
    "operation_time": "",
    "holiday": "",
    "latitude": "34.7562488",
    "longitude": "135.5886793",
    "tel": "06-6907-9270",
    "address": "守口市佐太東町2-6-14ジャガーグリーン2F",
    "access": "",
    "games": [
      "桃太郎電鉄 ～メダルゲームも定番！～"
    ]
  },
  {
    "name": "GiGOあべのアポロ",
    "operation_time": "10:00～24:00",
    "holiday": "",
    "latitude": "34.646623",
    "longitude": "135.511677",
    "tel": "06-6647-0716",
    "address": "大阪市阿倍野区阿倍野筋1-5-31アポロビル3F･4F",
    "access": "JR 天王寺駅・近鉄あべの橋駅より徒歩3分 アポロビル 3F",
    "games": [
      "桃太郎電鉄 ～メダルゲームも定番！～"
    ]
  },
  {
    "name": "GiGOイオンモール日根野",
    "operation_time": "",
    "holiday": "",
    "latitude": "34.393093",
    "longitude": "135.333584",
    "tel": "080-7363-8474",
    "address": "泉佐野市日根野2496-1イオンモール日根野2F",
    "access": "",
    "games": [
      "桃太郎電鉄 ～メダルゲームも定番！～"
    ]
  },
  {
    "name": "ラウンドワン堺駅前店",
    "operation_time": "",
    "holiday": "",
    "latitude": "34.58340412",
    "longitude": "135.468425",
    "tel": "072-222-0120",
    "address": "堺市堺区戎島町4-44-3",
    "access": "",
    "games": [
      "桃太郎電鉄 ～メダルゲームも定番！～"
    ]
  },
  {
    "name": "ラウンドワン岸和田店",
    "operation_time": "",
    "holiday": "",
    "latitude": "34.45649962",
    "longitude": "135.3885278",
    "tel": "072-429-1100",
    "address": "岸和田市八阪町2-11-1",
    "access": "",
    "games": [
      "桃太郎電鉄 ～メダルゲームも定番！～"
    ]
  },
  {
    "name": "YAZ寝屋川店",
    "operation_time": "",
    "holiday": "",
    "latitude": "34.78044073",
    "longitude": "135.6193889",
    "tel": "072-830-7755",
    "address": "寝屋川市石津中町25-26",
    "access": "",
    "games": [
      "桃太郎電鉄 ～メダルゲームも定番！～"
    ]
  },
  {
    "name": "ラウンドワン城東放出店",
    "operation_time": "",
    "holiday": "",
    "latitude": "34.69651235",
    "longitude": "135.559648",
    "tel": "06-6936-0100",
    "address": "大阪市城東区今福南3-4-38",
    "access": "",
    "games": [
      "桃太郎電鉄 ～メダルゲームも定番！～"
    ]
  },
  {
    "name": "ラウンドワン京都伏見店",
    "operation_time": "",
    "holiday": "",
    "latitude": "34.93599659",
    "longitude": "135.746198",
    "tel": "075-622-9911",
    "address": "京都市伏見区下鳥羽平塚町131",
    "access": "",
    "games": [
      "桃太郎電鉄 ～メダルゲームも定番！～"
    ]
  },
  {
    "name": "namcoアリオ鳳店",
    "operation_time": "",
    "holiday": "",
    "latitude": "34.524777",
    "longitude": "135.4571665",
    "tel": "072-273-9200",
    "address": "堺市西区鳳南町3-199-12アリオ鳳アリオモール3F3280",
    "access": "",
    "games": [
      "桃太郎電鉄 ～メダルゲームも定番！～"
    ]
  },
  {
    "name": "GiGO布施",
    "operation_time": "",
    "holiday": "",
    "latitude": "34.66416946",
    "longitude": "135.5628455",
    "tel": "06-6783-6999",
    "address": "東大阪市長堂1-1-1ロンモール布施内",
    "access": "",
    "games": [
      "桃太郎電鉄 ～メダルゲームも定番！～"
    ]
  },
  {
    "name": "楽市楽座イオンモール四條畷店",
    "operation_time": "10:00～21:00",
    "holiday": "",
    "latitude": "34.746081",
    "longitude": "135.6278054",
    "tel": "072-803-6370",
    "address": "四條畷市砂4-3-2イオンモール四條畷店3F3028",
    "access": "",
    "games": [
      "桃太郎電鉄 ～メダルゲームも定番！～"
    ]
  },
  {
    "name": "GiGOフレスポ東大阪",
    "operation_time": "",
    "holiday": "",
    "latitude": "34.690846",
    "longitude": "135.591293",
    "tel": "06-6748-8310",
    "address": "東大阪市稲田新町3-9-64",
    "access": "",
    "games": [
      "桃太郎電鉄 ～メダルゲームも定番！～"
    ]
  },
  {
    "name": "GiGOビバモール寝屋川",
    "operation_time": "",
    "holiday": "",
    "latitude": "34.76573366",
    "longitude": "135.6505265",
    "tel": "072-824-3545",
    "address": "寝屋川市寝屋南2-22-2ビバモール寝屋川 モール棟2F",
    "access": "",
    "games": [
      "桃太郎電鉄 ～メダルゲームも定番！～"
    ]
  },
  {
    "name": "アミパラ久御山店",
    "operation_time": "",
    "holiday": "",
    "latitude": "34.895478",
    "longitude": "135.747069",
    "tel": "075-754-7722",
    "address": "久世郡久御山町大字森大内337イオンタウン久御山内",
    "access": "",
    "games": [
      "桃太郎電鉄 ～メダルゲームも定番！～"
    ]
  },
  {
    "name": "GiGO MOMOテラス京都伏見",
    "operation_time": "",
    "holiday": "",
    "latitude": "34.936959",
    "longitude": "135.795071",
    "tel": "075-603-3220",
    "address": "京都市伏見区桃山町山ノ下32京都SCビルAM棟2F",
    "access": "",
    "games": [
      "桃太郎電鉄 ～メダルゲームも定番！～"
    ]
  },
  {
    "name": "ラウンドワンららぽーと和泉店",
    "operation_time": "",
    "holiday": "",
    "latitude": "34.435599",
    "longitude": "135.447876",
    "tel": "0725-51-2100",
    "address": "和泉市あゆみ野4-4-7ららぽーと和泉店 4F 42100",
    "access": "",
    "games": [
      "桃太郎電鉄 ～メダルゲームも定番！～"
    ]
  },
  {
    "name": "アミパラ大東店",
    "operation_time": "",
    "holiday": "",
    "latitude": "34.7010172",
    "longitude": "135.6386857",
    "tel": "072-813-7600",
    "address": "大東市南新田2-3-5",
    "access": "",
    "games": [
      "桃太郎電鉄 ～メダルゲームも定番！～"
    ]
  },
  {
    "name": "ラウンドワン堺中央環状店",
    "operation_time": "",
    "holiday": "",
    "latitude": "34.55707895",
    "longitude": "135.5362412",
    "tel": "072-253-9559",
    "address": "堺市東区石原町2-241",
    "access": "",
    "games": [
      "桃太郎電鉄 ～メダルゲームも定番！～"
    ]
  },
  {
    "name": "アミパラ光明池店",
    "operation_time": "",
    "holiday": "",
    "latitude": "34.47172523",
    "longitude": "135.4765946",
    "tel": "0725-58-7230",
    "address": "和泉市室堂町824-36コムボックス光明池2F",
    "access": "",
    "games": [
      "桃太郎電鉄 ～メダルゲームも定番！～"
    ]
  },
  {
    "name": "ラウンドワン東大阪店",
    "operation_time": "",
    "holiday": "",
    "latitude": "34.6531932",
    "longitude": "135.60637",
    "tel": "06-6224-1700",
    "address": "東大阪市若江南町1-2-12",
    "access": "",
    "games": [
      "桃太郎電鉄 ～メダルゲームも定番！～"
    ]
  },
  {
    "name": "ピエリ守山アミューズパーク",
    "operation_time": "",
    "holiday": "",
    "latitude": "35.12225323",
    "longitude": "135.9451315",
    "tel": "077-516-8720",
    "address": "守山市今浜町2620-5ピエリ守山1F",
    "access": "",
    "games": [
      "桃太郎電鉄 ～メダルゲームも定番！～"
    ]
  },
  {
    "name": "ラウンドワン浜大津アーカス店",
    "operation_time": "",
    "holiday": "",
    "latitude": "35.010557",
    "longitude": "135.866804",
    "tel": "077-526-8722",
    "address": "大津市浜町2-1浜大津アーカス4F",
    "access": "",
    "games": [
      "桃太郎電鉄 ～メダルゲームも定番！～"
    ]
  },
  {
    "name": "トヤマレジャーランド呉羽店",
    "operation_time": "一部24時間営業",
    "holiday": "無し",
    "latitude": "36.71545083",
    "longitude": "137.1579046",
    "tel": "076-434-5336",
    "address": "富山市高木字貝塚2054",
    "access": "県道44号線沿い呉羽本町交差点を富山方面方向に車で3分",
    "games": [
      "桃太郎電鉄 ～メダルゲームも定番！～"
    ]
  },
  {
    "name": "タイトーステーションアリオ八尾店",
    "operation_time": "10:00～23:00",
    "holiday": "無し",
    "latitude": "34.63216611",
    "longitude": "135.605738",
    "tel": "0729-29-4801",
    "address": "八尾市光町2-3アリオ八尾3F",
    "access": "近鉄八尾駅からすぐそこ!! イトーヨーカドーアリオ八尾の3階で 赤いインベーダー看板がMAXパワーで営業中",
    "games": [
      "桃太郎電鉄 ～メダルゲームも定番！～"
    ]
  },
  {
    "name": "滋賀レジャーランド大津店",
    "operation_time": "",
    "holiday": "",
    "latitude": "35.003875",
    "longitude": "135.883431",
    "tel": "077-548-7851",
    "address": "大津市におの浜3-1-43",
    "access": "",
    "games": [
      "桃太郎電鉄 ～メダルゲームも定番！～"
    ]
  },
  {
    "name": "ラウンドワン青森店",
    "operation_time": "",
    "holiday": "",
    "latitude": "40.79867718",
    "longitude": "140.7483213",
    "tel": "017-762-3591",
    "address": "青森市浜田3-1-1",
    "access": "",
    "games": [
      "桃太郎電鉄 ～メダルゲームも定番！～"
    ]
  },
  {
    "name": "タイトーステーションファボーレ婦中",
    "operation_time": "平日10:00～24:00 土日祝9:30～24:00",
    "holiday": "無し",
    "latitude": "36.663094",
    "longitude": "137.171145",
    "tel": "076-466-1672",
    "address": "富山市婦中町下轡田165-1フューチャーファボーレ2F",
    "access": "高山本線速星駅より徒歩15分 または富山駅よりファボーレ前バス停下車",
    "games": [
      "桃太郎電鉄 ～メダルゲームも定番！～"
    ]
  },
  {
    "name": "アミパラ草津店",
    "operation_time": "",
    "holiday": "",
    "latitude": "35.01928425",
    "longitude": "135.9424723",
    "tel": "077-569-4499",
    "address": "草津市木川町72",
    "access": "",
    "games": [
      "桃太郎電鉄 ～メダルゲームも定番！～"
    ]
  },
  {
    "name": "富山レジャーランド掛尾店",
    "operation_time": "",
    "holiday": "",
    "latitude": "36.66605175",
    "longitude": "137.208892",
    "tel": "076-413-2606",
    "address": "富山市掛尾町360-1",
    "access": "",
    "games": [
      "桃太郎電鉄 ～メダルゲームも定番！～"
    ]
  },
  {
    "name": "アピナ富山南店",
    "operation_time": "10:00～24:00",
    "holiday": "無し",
    "latitude": "36.665007",
    "longitude": "137.217248",
    "tel": "076-461-6644",
    "address": "富山市堀川町355-3",
    "access": "富山マイプラザ店内",
    "games": [
      "桃太郎電鉄 ～メダルゲームも定番！～"
    ]
  },
  {
    "name": "ラウンドワン奈良ミナーラ店",
    "operation_time": "",
    "holiday": "",
    "latitude": "34.685231",
    "longitude": "135.802224",
    "tel": "0742-32-3900",
    "address": "奈良市二条大路南1-3-1ミ･ナーラ5F",
    "access": "",
    "games": [
      "桃太郎電鉄 ～メダルゲームも定番！～"
    ]
  },
  {
    "name": "namcoビバシティ彦根店",
    "operation_time": "",
    "holiday": "",
    "latitude": "35.243621",
    "longitude": "136.250454",
    "tel": "0749-27-6211",
    "address": "彦根市竹ヶ鼻町43-1ビバシティ彦根2F",
    "access": "",
    "games": [
      "桃太郎電鉄 ～メダルゲームも定番！～"
    ]
  },
  {
    "name": "アミューズメントCUE大和高田",
    "operation_time": "10:00～24:00",
    "holiday": "無し",
    "latitude": "34.49978101",
    "longitude": "135.7354379",
    "tel": "0745-25-3335",
    "address": "大和高田市東中2-11-16",
    "access": "国道166号線東宝交差点そば",
    "games": [
      "桃太郎電鉄 ～メダルゲームも定番！～"
    ]
  },
  {
    "name": "GiGO帯広稲田",
    "operation_time": "平日・祝日10:00～24:00 / 土日8:00～24:00",
    "holiday": "無し",
    "latitude": "42.89057652",
    "longitude": "143.1965812",
    "tel": "080-7351-3976",
    "address": "帯広市稲田町南8線西12-1スズランボウル内",
    "access": "イトーヨーカドー帯広店隣り",
    "games": [
      "桃太郎電鉄 ～メダルゲームも定番！～"
    ]
  },
  {
    "name": "アミパラ橿原店",
    "operation_time": "",
    "holiday": "",
    "latitude": "34.52935645",
    "longitude": "135.7966131",
    "tel": "0744-25-0550",
    "address": "橿原市十市町1222-1ツインゲート橿原1F",
    "access": "",
    "games": [
      "桃太郎電鉄 ～メダルゲームも定番！～"
    ]
  },
  {
    "name": "ラウンドワン秋田店",
    "operation_time": "",
    "holiday": "",
    "latitude": "39.70235247",
    "longitude": "140.1092394",
    "tel": "018-896-6711",
    "address": "秋田市卸町1-1-2",
    "access": "",
    "games": [
      "桃太郎電鉄 ～メダルゲームも定番！～"
    ]
  },
  {
    "name": "ラウンドワンモレラ岐阜店",
    "operation_time": "",
    "holiday": "",
    "latitude": "35.455121",
    "longitude": "136.672955",
    "tel": "058-323-6600",
    "address": "本巣市三橋1100",
    "access": "",
    "games": [
      "桃太郎電鉄 ～メダルゲームも定番！～"
    ]
  },
  {
    "name": "GiGOアクアウォーク大垣",
    "operation_time": "",
    "holiday": "",
    "latitude": "35.36877084",
    "longitude": "136.6166376",
    "tel": "0584-83-8981",
    "address": "大垣市林町6-80-21アクアウォーク大垣2F",
    "access": "",
    "games": [
      "桃太郎電鉄 ～メダルゲームも定番！～"
    ]
  },
  {
    "name": "大垣メトロポリス",
    "operation_time": "10:00～24:00",
    "holiday": "無し",
    "latitude": "35.36694278",
    "longitude": "136.6291725",
    "tel": "0584-75-5734",
    "address": "大垣市三塚町字西沼523-1",
    "access": "",
    "games": [
      "桃太郎電鉄 ～メダルゲームも定番！～"
    ]
  },
  {
    "name": "GiGO名張",
    "operation_time": "",
    "holiday": "",
    "latitude": "34.62355779",
    "longitude": "136.1036705",
    "tel": "0595-62-1008",
    "address": "名張市希央台3-15",
    "access": "",
    "games": [
      "桃太郎電鉄 ～メダルゲームも定番！～"
    ]
  },
  {
    "name": "岐阜レジャーランド穂積店",
    "operation_time": "7:00～24:00",
    "holiday": "無し",
    "latitude": "35.38432479",
    "longitude": "136.6846653",
    "tel": "058-326-1133",
    "address": "瑞穂市稲里630",
    "access": "国道21号線沿い瑞穂市野田新田交差点近く",
    "games": [
      "桃太郎電鉄 ～メダルゲームも定番！～"
    ]
  },
  {
    "name": "ゲームファンタジアン柳津店",
    "operation_time": "一部24時間営業",
    "holiday": "無し",
    "latitude": "35.37596826",
    "longitude": "136.7145391",
    "tel": "058-279-0085",
    "address": "岐阜市柳津町上佐波西3-68",
    "access": "岐阜県ふれあい会館から南に4分",
    "games": [
      "桃太郎電鉄 ～メダルゲームも定番！～"
    ]
  },
  {
    "name": "A.Cグランド",
    "operation_time": "9:00～24:00",
    "holiday": "無し",
    "latitude": "35.38308553",
    "longitude": "136.7461998",
    "tel": "058-275-0351",
    "address": "岐阜市茜部大川1-77",
    "access": "名鉄新岐阜駅15分",
    "games": [
      "桃太郎電鉄 ～メダルゲームも定番！～"
    ]
  },
  {
    "name": "GiGOイオンモール木曽川",
    "operation_time": "",
    "holiday": "",
    "latitude": "35.35049922",
    "longitude": "136.7737852",
    "tel": "0586-84-2823",
    "address": "一宮市木曽川町黒田八ヶ池25-1イオンモール木曽川3F",
    "access": "",
    "games": [
      "桃太郎電鉄 ～メダルゲームも定番！～"
    ]
  },
  {
    "name": "楽市楽座イオンモール東員店",
    "operation_time": "10:00～21:00",
    "holiday": "",
    "latitude": "35.06180221",
    "longitude": "136.5796692",
    "tel": "0594-84-6462",
    "address": "員弁郡東員大字長深字築田510-1イオンモール東員店3F",
    "access": "三岐鉄道北勢線「東員駅」 もしくは 三岐線「北勢中央公園駅」からバスで約15分  桑名ICより車で約15分",
    "games": [
      "桃太郎電鉄 ～メダルゲームも定番！～"
    ]
  },
  {
    "name": "GiGOマーゴ関",
    "operation_time": "",
    "holiday": "",
    "latitude": "35.479716",
    "longitude": "136.900472",
    "tel": "0575-23-6617",
    "address": "関市倉知516マーゴシネマ館2F",
    "access": "",
    "games": [
      "桃太郎電鉄 ～メダルゲームも定番！～"
    ]
  },
  {
    "name": "アピナ上越インター店",
    "operation_time": "10:00～24:00",
    "holiday": "無し",
    "latitude": "37.15427822",
    "longitude": "138.2556225",
    "tel": "025-520-7013",
    "address": "上越市富岡3439",
    "access": "リージョンプラザ近くかに池交差点",
    "games": [
      "桃太郎電鉄 ～メダルゲームも定番！～"
    ]
  },
  {
    "name": "タイトーFステーション上越店",
    "operation_time": "",
    "holiday": "",
    "latitude": "37.148097",
    "longitude": "138.259034",
    "tel": "025-530-7115",
    "address": "上越市富岡3524J-maxシアター内1F",
    "access": "J-MAXシアター1F",
    "games": [
      "桃太郎電鉄 ～メダルゲームも定番！～"
    ]
  },
  {
    "name": "アミュージアム津島店",
    "operation_time": "",
    "holiday": "",
    "latitude": "35.174616",
    "longitude": "136.746635",
    "tel": "0567-26-3055",
    "address": "津島市大字津島字北新開351ヨシヅヤ津島本店シネマ館2F",
    "access": "",
    "games": [
      "桃太郎電鉄 ～メダルゲームも定番！～"
    ]
  },
  {
    "name": "namcoイオンモール鈴鹿店",
    "operation_time": "",
    "holiday": "",
    "latitude": "34.871743",
    "longitude": "136.531782",
    "tel": "059-373-4056",
    "address": "鈴鹿市庄野羽山4-1-2イオンモール鈴鹿2F",
    "access": "",
    "games": [
      "桃太郎電鉄 ～メダルゲームも定番！～"
    ]
  },
  {
    "name": "ラウンドワン名古屋西春店",
    "operation_time": "",
    "holiday": "",
    "latitude": "35.25506282",
    "longitude": "136.8439405",
    "tel": "0568-26-4001",
    "address": "北名古屋市宇福寺神明15",
    "access": "",
    "games": [
      "桃太郎電鉄 ～メダルゲームも定番！～"
    ]
  },
  {
    "name": "アミパラ鈴鹿店",
    "operation_time": "",
    "holiday": "",
    "latitude": "34.87499148",
    "longitude": "136.5708677",
    "tel": "059-381-6622",
    "address": "鈴鹿市西條町字東澤430-1",
    "access": "",
    "games": [
      "桃太郎電鉄 ～メダルゲームも定番！～"
    ]
  },
  {
    "name": "ラウンドワンみえ川越IC店",
    "operation_time": "",
    "holiday": "",
    "latitude": "35.02319916",
    "longitude": "136.6836502",
    "tel": "059-361-2130",
    "address": "三重郡川越町大字南福崎851-1",
    "access": "",
    "games": [
      "桃太郎電鉄 ～メダルゲームも定番！～"
    ]
  },
  {
    "name": "楽市街道022名古屋店1F",
    "operation_time": "10:00～24:00",
    "holiday": "無し",
    "latitude": "35.23957843",
    "longitude": "136.848742",
    "tel": "0568-27-2622",
    "address": "北名古屋市中之郷字神明45-1-1F",
    "access": "22号線バイパス沿い",
    "games": [
      "桃太郎電鉄 ～メダルゲームも定番！～"
    ]
  },
  {
    "name": "アミューズメントワールドメトロポリス小牧店",
    "operation_time": "平日10:00～23:50 土日祝日前 9:00～23:50",
    "holiday": "無し",
    "latitude": "35.2951722",
    "longitude": "136.905659",
    "tel": "0568-71-0005",
    "address": "小牧市村中新町33",
    "access": "名神高速小牧インターより南へ1km R41号間々本町交差点角",
    "games": [
      "桃太郎電鉄 ～メダルゲームも定番！～"
    ]
  },
  {
    "name": "ラウンドワン新潟店",
    "operation_time": "",
    "holiday": "",
    "latitude": "37.88807436",
    "longitude": "139.0177537",
    "tel": "025-280-1322",
    "address": "新潟市中央区美咲町2-1-38",
    "access": "",
    "games": [
      "桃太郎電鉄 ～メダルゲームも定番！～"
    ]
  },
  {
    "name": "中川メトロポリス",
    "operation_time": "平日10:00～24:00、土日祝日9:00～24:00",
    "holiday": "無し",
    "latitude": "35.12530557",
    "longitude": "136.8238359",
    "tel": "052-303-9701",
    "address": "名古屋市中川区江松3-110",
    "access": "国道1号線三日月橋西詰・江松交差点角",
    "games": [
      "桃太郎電鉄 ～メダルゲームも定番！～"
    ]
  },
  {
    "name": "ファンタジープラザ名古屋店",
    "operation_time": "10:00～翌5:00",
    "holiday": "無し",
    "latitude": "35.22569311",
    "longitude": "136.908786",
    "tel": "052-938-3461",
    "address": "名古屋市北区玄馬町234-1クロスタウン2F",
    "access": "比良駅徒歩6分/大我麻交差点付近",
    "games": [
      "桃太郎電鉄 ～メダルゲームも定番！～"
    ]
  },
  {
    "name": "namcoエアポートウォーク名古屋",
    "operation_time": "",
    "holiday": "",
    "latitude": "35.24598873",
    "longitude": "136.9246393",
    "tel": "0568-39-0765",
    "address": "西春日井郡豊山町大字豊場林先1-8エアポートウォーク名古屋3F",
    "access": "",
    "games": [
      "桃太郎電鉄 ～メダルゲームも定番！～"
    ]
  },
  {
    "name": "ラウンドワン津･高茶屋店",
    "operation_time": "",
    "holiday": "",
    "latitude": "34.6726828",
    "longitude": "136.5194663",
    "tel": "059-238-0011",
    "address": "津市高茶屋小森町277-8",
    "access": "",
    "games": [
      "桃太郎電鉄 ～メダルゲームも定番！～"
    ]
  },
  {
    "name": "ラウンドワン中川一号線店",
    "operation_time": "",
    "holiday": "",
    "latitude": "35.12338322",
    "longitude": "136.8636484",
    "tel": "052-665-5353",
    "address": "名古屋市中川区法蔵町2-23",
    "access": "",
    "games": [
      "桃太郎電鉄 ～メダルゲームも定番！～"
    ]
  },
  {
    "name": "アピナ鶴岡店",
    "operation_time": "",
    "holiday": "",
    "latitude": "38.75839782",
    "longitude": "139.8439993",
    "tel": "0235-29-1141",
    "address": "鶴岡市文下字広野1-1",
    "access": "",
    "games": [
      "桃太郎電鉄 ～メダルゲームも定番！～"
    ]
  },
  {
    "name": "ファンタジードーム八戸店",
    "operation_time": "10:00～20:00",
    "holiday": "無し",
    "latitude": "40.5217548",
    "longitude": "141.5034775",
    "tel": "0178-47-1370",
    "address": "八戸市江陽2-14-1ラピア八戸別棟",
    "access": "長崎屋八戸店内",
    "games": [
      "桃太郎電鉄 ～メダルゲームも定番！～"
    ]
  },
  {
    "name": "キングジョイ",
    "operation_time": "9:00～24:00",
    "holiday": "無し",
    "latitude": "35.16797694",
    "longitude": "136.9050444",
    "tel": "052-241-9515",
    "address": "名古屋市中区栄3-3-32",
    "access": "地下鉄栄駅徒歩3分",
    "games": [
      "桃太郎電鉄 ～メダルゲームも定番！～"
    ]
  },
  {
    "name": "タイトーステーションフェドラ大須店",
    "operation_time": "10:00～24:00",
    "holiday": "無し",
    "latitude": "35.15945319",
    "longitude": "136.9054236",
    "tel": "052-242-2011",
    "address": "名古屋市中区大須3-30-31萬松寺駐車場ビル1F･2F",
    "access": "地下鉄名城線上前津駅より徒歩1分",
    "games": [
      "桃太郎電鉄 ～メダルゲームも定番！～"
    ]
  },
  {
    "name": "ラウンドワンイーアス春日井店",
    "operation_time": "",
    "holiday": "",
    "latitude": "35.25898",
    "longitude": "136.98241",
    "tel": "0568-86-1600",
    "address": "春日井市六軒屋町東丘22区画番号3010",
    "access": "",
    "games": [
      "桃太郎電鉄 ～メダルゲームも定番！～"
    ]
  },
  {
    "name": "ラウンドワン千種店",
    "operation_time": "",
    "holiday": "",
    "latitude": "35.16799971",
    "longitude": "136.9279985",
    "tel": "052-238-1615",
    "address": "名古屋市千種区新栄3-20-17タイホウ千種駅前南ビル8F",
    "access": "",
    "games": [
      "桃太郎電鉄 ～メダルゲームも定番！～"
    ]
  },
  {
    "name": "ラウンドワン鳴海店",
    "operation_time": "",
    "holiday": "",
    "latitude": "35.09913151",
    "longitude": "136.9528735",
    "tel": "052-899-0700",
    "address": "名古屋市緑区鳴海町字杜若28",
    "access": "",
    "games": [
      "桃太郎電鉄 ～メダルゲームも定番！～"
    ]
  },
  {
    "name": "ゲームパニック大高",
    "operation_time": "9:00～23:45",
    "holiday": "無し",
    "latitude": "35.04850561",
    "longitude": "136.9496236",
    "tel": "052-625-5360",
    "address": "名古屋市緑区忠治山201グランドボウルB2F",
    "access": "国道23号線大高町共和IC側道グランドボウルB2階",
    "games": [
      "桃太郎電鉄 ～メダルゲームも定番！～"
    ]
  },
  {
    "name": "GiGO長久手",
    "operation_time": "9:00～24:00",
    "holiday": "無し",
    "latitude": "35.17139252",
    "longitude": "137.045573",
    "tel": "0561-64-5205",
    "address": "長久手市武蔵塚705",
    "access": "",
    "games": [
      "桃太郎電鉄 ～メダルゲームも定番！～"
    ]
  },
  {
    "name": "アピナ川中島店",
    "operation_time": "10:00～24:00",
    "holiday": "無し",
    "latitude": "36.597909",
    "longitude": "138.157802",
    "tel": "026-214-6699",
    "address": "長野市川中島町御厨967-1",
    "access": "77号線長野南郵便局隣",
    "games": [
      "桃太郎電鉄 ～メダルゲームも定番！～"
    ]
  },
  {
    "name": "メダルパーク メダパ新発田店",
    "operation_time": "",
    "holiday": "",
    "latitude": "37.95292049",
    "longitude": "139.2953607",
    "tel": "0254-28-9015",
    "address": "新発田市新栄町3-4-26",
    "access": "",
    "games": [
      "桃太郎電鉄 ～メダルゲームも定番！～"
    ]
  },
  {
    "name": "ラウンドワン長野店",
    "operation_time": "",
    "holiday": "",
    "latitude": "36.65105714",
    "longitude": "138.225192",
    "tel": "026-254-5801",
    "address": "長野市大字東和田827-6",
    "access": "",
    "games": [
      "桃太郎電鉄 ～メダルゲームも定番！～"
    ]
  },
  {
    "name": "GiGOイオンタウン刈谷",
    "operation_time": "",
    "holiday": "",
    "latitude": "35.03882703",
    "longitude": "137.0267449",
    "tel": "0566-36-4338",
    "address": "刈谷市東境町京和1",
    "access": "",
    "games": [
      "桃太郎電鉄 ～メダルゲームも定番！～"
    ]
  },
  {
    "name": "楽市楽座イオンモール松本店",
    "operation_time": "10:00～21:00",
    "holiday": "",
    "latitude": "36.23402",
    "longitude": "137.978381",
    "tel": "0263-87-3588",
    "address": "松本市中央4-9-51イオンモール松本店 風庭2F",
    "access": "",
    "games": [
      "桃太郎電鉄 ～メダルゲームも定番！～"
    ]
  },
  {
    "name": "ラウンドワン半田店",
    "operation_time": "",
    "holiday": "",
    "latitude": "34.88609688",
    "longitude": "136.9412056",
    "tel": "0569-25-7351",
    "address": "半田市瑞穂町6-7-8",
    "access": "",
    "games": [
      "桃太郎電鉄 ～メダルゲームも定番！～"
    ]
  },
  {
    "name": "GiGOギャラリエアピタ知立",
    "operation_time": "",
    "holiday": "",
    "latitude": "34.999327",
    "longitude": "137.052828",
    "tel": "0566-83-8266",
    "address": "知立市長篠町大山18-1ギャラリエアピタ知立1F",
    "access": "",
    "games": [
      "桃太郎電鉄 ～メダルゲームも定番！～"
    ]
  },
  {
    "name": "アピナ塩尻店",
    "operation_time": "10:00～24:00",
    "holiday": "無し",
    "latitude": "36.14140932",
    "longitude": "137.9536147",
    "tel": "026-351-5511",
    "address": "塩尻市広丘野村1794-1",
    "access": "国道19号線沿い野村交差点から塩尻方面",
    "games": [
      "桃太郎電鉄 ～メダルゲームも定番！～"
    ]
  },
  {
    "name": "アミューズメントワールドららぽーと安城店",
    "operation_time": "",
    "holiday": "",
    "latitude": "34.96514008",
    "longitude": "137.0783788",
    "tel": "0566-33-9287",
    "address": "安城市大東町9-30ららぽーと安城3F-32000",
    "access": "",
    "games": [
      "桃太郎電鉄 ～メダルゲームも定番！～"
    ]
  },
  {
    "name": "安城メトロポリス",
    "operation_time": "平日10:00～24:00、土日祝日9:00～24:00",
    "holiday": "無し",
    "latitude": "34.95485697",
    "longitude": "137.0975854",
    "tel": "0566-74-8238",
    "address": "安城市浜富町6-8",
    "access": "JR東海道本線安城駅より車で3分・徒歩10分",
    "games": [
      "桃太郎電鉄 ～メダルゲームも定番！～"
    ]
  },
  {
    "name": "ラウンドワン盛岡店",
    "operation_time": "",
    "holiday": "",
    "latitude": "39.70035197",
    "longitude": "141.133077",
    "tel": "019-654-9011",
    "address": "盛岡市盛岡駅西通2-10-35",
    "access": "",
    "games": [
      "桃太郎電鉄 ～メダルゲームも定番！～"
    ]
  },
  {
    "name": "GiGO北岡崎",
    "operation_time": "9:00～24:00",
    "holiday": "無し",
    "latitude": "34.97365547",
    "longitude": "137.1600268",
    "tel": "070-1393-5583",
    "address": "岡崎市錦町2-4",
    "access": "国道248号線沿い、愛知環状線北岡崎駅から徒歩3分",
    "games": [
      "桃太郎電鉄 ～メダルゲームも定番！～"
    ]
  },
  {
    "name": "GiGO岡谷",
    "operation_time": "",
    "holiday": "",
    "latitude": "36.065152",
    "longitude": "138.05305",
    "tel": "0266-22-9191",
    "address": "岡谷市塚間町2-1-21",
    "access": "",
    "games": [
      "桃太郎電鉄 ～メダルゲームも定番！～"
    ]
  },
  {
    "name": "アピナ佐久インター店",
    "operation_time": "10:00～24:00",
    "holiday": "無し",
    "latitude": "36.284455",
    "longitude": "138.482344",
    "tel": "026-778-3399",
    "address": "佐久市岩村田北1-13-1",
    "access": "佐久インター近く",
    "games": [
      "桃太郎電鉄 ～メダルゲームも定番！～"
    ]
  },
  {
    "name": "豊川メトロポリス",
    "operation_time": "平日10:00～24:00 土日9:00～24:00",
    "holiday": "無し",
    "latitude": "34.80229218",
    "longitude": "137.3847976",
    "tel": "0533-85-6540",
    "address": "豊川市下長山町上アライ14-1",
    "access": "東名高速豊川インター南・国道151号線・城下交差点東へ500m",
    "games": [
      "桃太郎電鉄 ～メダルゲームも定番！～"
    ]
  },
  {
    "name": "アピナ豊橋店",
    "operation_time": "",
    "holiday": "",
    "latitude": "34.744231",
    "longitude": "137.3717807",
    "tel": "0532-46-8822",
    "address": "豊橋市藤沢町141ホリデイ･スクエアAM棟1F",
    "access": "",
    "games": [
      "桃太郎電鉄 ～メダルゲームも定番！～"
    ]
  },
  {
    "name": "GiGO天童",
    "operation_time": "10:00～24:00",
    "holiday": "無し",
    "latitude": "38.34302924",
    "longitude": "140.3739732",
    "tel": "023-656-9370",
    "address": "天童市南町1-5-26",
    "access": "JR「天童駅」より車で10分。国道13号線を南下し国道沿い左側。",
    "games": [
      "桃太郎電鉄 ～メダルゲームも定番！～"
    ]
  },
  {
    "name": "ラウンドワン豊橋店",
    "operation_time": "",
    "holiday": "",
    "latitude": "34.7239242",
    "longitude": "137.4323261",
    "tel": "0532-65-2212",
    "address": "豊橋市大岩町字岩田27-2",
    "access": "",
    "games": [
      "桃太郎電鉄 ～メダルゲームも定番！～"
    ]
  },
  {
    "name": "群馬レジャーランド渋川店",
    "operation_time": "",
    "holiday": "",
    "latitude": "36.4742053",
    "longitude": "139.0154654",
    "tel": "0279-25-0718",
    "address": "渋川市八木原1364",
    "access": "",
    "games": [
      "桃太郎電鉄 ～メダルゲームも定番！～"
    ]
  },
  {
    "name": "GiGO会津若松",
    "operation_time": "9:00～24:00",
    "holiday": "無し",
    "latitude": "37.51832577",
    "longitude": "139.9222191",
    "tel": "0242-37-0777",
    "address": "会津若松市町北町上荒久田字宮下142",
    "access": "磐越道会津若松IC側",
    "games": [
      "桃太郎電鉄 ～メダルゲームも定番！～"
    ]
  },
  {
    "name": "アピナ浜松店",
    "operation_time": "",
    "holiday": "",
    "latitude": "34.76741731",
    "longitude": "137.7080638",
    "tel": "053-430-4800",
    "address": "浜松市中央区葵西2-27-10ロックタウン内",
    "access": "",
    "games": [
      "桃太郎電鉄 ～メダルゲームも定番！～"
    ]
  },
  {
    "name": "楽市楽座サンストリート浜北店",
    "operation_time": "10:00～22:00",
    "holiday": "無し",
    "latitude": "34.79467266",
    "longitude": "137.7607979",
    "tel": "0535-84-6136",
    "address": "浜松市浜名区平口2861サンストリート浜北内 M-207",
    "access": "",
    "games": [
      "桃太郎電鉄 ～メダルゲームも定番！～"
    ]
  },
  {
    "name": "群馬レジャーランド高崎駅東口店",
    "operation_time": "一部24時間営業",
    "holiday": "無し",
    "latitude": "36.32992086",
    "longitude": "139.0128661",
    "tel": "027-330-3002",
    "address": "高崎市江木町333-1高崎EXビル2F",
    "access": "JR高崎駅東口徒歩10分",
    "games": [
      "桃太郎電鉄 ～メダルゲームも定番！～"
    ]
  },
  {
    "name": "タイトーFステーションイオンモール浜松市野",
    "operation_time": "",
    "holiday": "",
    "latitude": "34.739929",
    "longitude": "137.762997",
    "tel": "053-411-3047",
    "address": "浜松市中央区天王町諏訪1981-3イオンモール浜松市野2F",
    "access": "",
    "games": [
      "桃太郎電鉄 ～メダルゲームも定番！～"
    ]
  },
  {
    "name": "ラウンドワン浜松店",
    "operation_time": "",
    "holiday": "",
    "latitude": "34.73795995",
    "longitude": "137.7638799",
    "tel": "053-461-1101",
    "address": "浜松市中央区天王町諏訪1981-17",
    "access": "",
    "games": [
      "桃太郎電鉄 ～メダルゲームも定番！～"
    ]
  },
  {
    "name": "マトリクス前橋店",
    "operation_time": "10:00～24:00",
    "holiday": "無し",
    "latitude": "36.37294244",
    "longitude": "139.059637",
    "tel": "027-212-3133",
    "address": "前橋市小相木町563-3",
    "access": "県道13号線小相木交差点を高崎方面へ150m",
    "games": [
      "桃太郎電鉄 ～メダルゲームも定番！～"
    ]
  },
  {
    "name": "ラウンドワン前橋店",
    "operation_time": "",
    "holiday": "",
    "latitude": "36.36888377",
    "longitude": "139.1051864",
    "tel": "027-287-1501",
    "address": "前橋市天川大島町1101-1",
    "access": "",
    "games": [
      "桃太郎電鉄 ～メダルゲームも定番！～"
    ]
  },
  {
    "name": "namcoららぽーと磐田店",
    "operation_time": "",
    "holiday": "",
    "latitude": "34.749996",
    "longitude": "137.841956",
    "tel": "0538-59-0177",
    "address": "磐田市高見丘1200ららぽーと磐田店2F店番21210",
    "access": "",
    "games": [
      "桃太郎電鉄 ～メダルゲームも定番！～"
    ]
  },
  {
    "name": "楽市楽座イオンモール甲府店",
    "operation_time": "10:00～21:00",
    "holiday": "無し",
    "latitude": "35.623413",
    "longitude": "138.527362",
    "tel": "055-269-5211",
    "address": "中巨摩郡昭和町飯喰1505-1イオンモール甲府店2F",
    "access": "イオンモール甲府店内",
    "games": [
      "桃太郎電鉄 ～メダルゲームも定番！～"
    ]
  },
  {
    "name": "ゲームパニック甲府",
    "operation_time": "",
    "holiday": "",
    "latitude": "35.64182781",
    "longitude": "138.547239",
    "tel": "080-3350-2893",
    "address": "甲府市国母5-20-24",
    "access": "",
    "games": [
      "桃太郎電鉄 ～メダルゲームも定番！～"
    ]
  },
  {
    "name": "アピナ富谷店",
    "operation_time": "",
    "holiday": "",
    "latitude": "38.36528256",
    "longitude": "140.8765988",
    "tel": "022-341-5177",
    "address": "富谷市大清水1-33-1イオンモール109シネマズ富谷1F",
    "access": "",
    "games": [
      "桃太郎電鉄 ～メダルゲームも定番！～"
    ]
  },
  {
    "name": "群馬レジャーランド藤岡店",
    "operation_time": "一部24時間営業",
    "holiday": "",
    "latitude": "36.27426745",
    "longitude": "139.0718857",
    "tel": "0274-40-2371",
    "address": "藤岡市中2002-1",
    "access": "県道13号沿い、上信越道藤岡IC北 カーオプション店『ピット100』2階",
    "games": [
      "桃太郎電鉄 ～メダルゲームも定番！～"
    ]
  },
  {
    "name": "GAME BANK",
    "operation_time": "9:00～24:00",
    "holiday": "無し",
    "latitude": "38.352801",
    "longitude": "140.877385",
    "tel": "022-776-5677",
    "address": "仙台市泉区大沢2-5-4",
    "access": "東北自動車道 泉インター直ぐ",
    "games": [
      "桃太郎電鉄 ～メダルゲームも定番！～"
    ]
  },
  {
    "name": "GiGOイオン仙台中山",
    "operation_time": "",
    "holiday": "",
    "latitude": "38.299061",
    "longitude": "140.828497",
    "tel": "022-347-3139",
    "address": "仙台市泉区南中山1-35-57イオン仙台中山店別館3F",
    "access": "",
    "games": [
      "桃太郎電鉄 ～メダルゲームも定番！～"
    ]
  },
  {
    "name": "ラウンドワンスタジアム仙台泉店",
    "operation_time": "",
    "holiday": "",
    "latitude": "38.35192551",
    "longitude": "140.8797545",
    "tel": "022-347-4471",
    "address": "仙台市泉区大沢2-12-4仙台泉インターシティ1F",
    "access": "",
    "games": [
      "桃太郎電鉄 ～メダルゲームも定番！～"
    ]
  },
  {
    "name": "群馬レジャーランド伊勢崎店",
    "operation_time": "一部24時間営業",
    "holiday": "無し",
    "latitude": "36.31824274",
    "longitude": "139.1723592",
    "tel": "0270-40-5330",
    "address": "伊勢崎市連取町3066-1",
    "access": "伊勢崎市内県道2号線沿い伊勢崎オート近く",
    "games": [
      "桃太郎電鉄 ～メダルゲームも定番！～"
    ]
  },
  {
    "name": "ラウンドワンさいたま･上里店",
    "operation_time": "",
    "holiday": "",
    "latitude": "36.259925",
    "longitude": "139.137383",
    "tel": "0495-35-2201",
    "address": "児玉郡上里町大字金久保字周川394-1",
    "access": "",
    "games": [
      "桃太郎電鉄 ～メダルゲームも定番！～"
    ]
  },
  {
    "name": "タイトーステーション仙台ベガロポリス店",
    "operation_time": "10:00～24:00",
    "holiday": "無し",
    "latitude": "38.21973354",
    "longitude": "140.8479417",
    "tel": "022-307-3685",
    "address": "仙台市太白区西多賀5-24-1",
    "access": "国道286号沿い、JR長町駅より車で10分",
    "games": [
      "桃太郎電鉄 ～メダルゲームも定番！～"
    ]
  },
  {
    "name": "GiGOスマーク伊勢崎",
    "operation_time": "",
    "holiday": "",
    "latitude": "36.339538",
    "longitude": "139.231968",
    "tel": "0270-62-3886",
    "address": "伊勢崎市西小保方町368スマーク伊勢崎3F302区画",
    "access": "",
    "games": [
      "桃太郎電鉄 ～メダルゲームも定番！～"
    ]
  },
  {
    "name": "ラウンドワン仙台苦竹店",
    "operation_time": "",
    "holiday": "",
    "latitude": "38.26828399",
    "longitude": "140.9172614",
    "tel": "022-788-2581",
    "address": "仙台市宮城野区苦竹1-7-10",
    "access": "",
    "games": [
      "桃太郎電鉄 ～メダルゲームも定番！～"
    ]
  },
  {
    "name": "GiGO利府",
    "operation_time": "10:00～24:00",
    "holiday": "無し",
    "latitude": "38.32801132",
    "longitude": "140.9756135",
    "tel": "080-7500-4898",
    "address": "宮城郡利府町加瀬字新前谷地55-1",
    "access": "三陸自動車道 利府中IC下車利府バイパス沿い車で5分",
    "games": [
      "桃太郎電鉄 ～メダルゲームも定番！～"
    ]
  },
  {
    "name": "ラウンドワン福島店",
    "operation_time": "",
    "holiday": "",
    "latitude": "37.75259469",
    "longitude": "140.4562354",
    "tel": "024-525-4731",
    "address": "福島市太田町14-18",
    "access": "",
    "games": [
      "桃太郎電鉄 ～メダルゲームも定番！～"
    ]
  },
  {
    "name": "GiGO福島南",
    "operation_time": "10:00～24:00",
    "holiday": "無し",
    "latitude": "37.72791083",
    "longitude": "140.4671033",
    "tel": "024-544-0280",
    "address": "福島市黒岩字中島7-2",
    "access": "高速福島西ICより車で15分。国道4号線を右折し「黒岩」交差点手前左側。",
    "games": [
      "桃太郎電鉄 ～メダルゲームも定番！～"
    ]
  },
  {
    "name": "GiGO仙台コロナワールド",
    "operation_time": "",
    "holiday": "",
    "latitude": "38.2600762",
    "longitude": "140.9686872",
    "tel": "070-1458-5354",
    "address": "仙台市宮城野区福室字田中前1-53-1 仙台コロナワールド内",
    "access": "",
    "games": [
      "桃太郎電鉄 ～メダルゲームも定番！～"
    ]
  },
  {
    "name": "バンダイナムコCrossStore仙台2号",
    "operation_time": "",
    "holiday": "",
    "latitude": "38.16392697",
    "longitude": "140.8959829",
    "tel": "022-797-8951",
    "address": "名取市杜せきのした5-3-1イオンモール名取3F",
    "access": "",
    "games": [
      "桃太郎電鉄 ～メダルゲームも定番！～"
    ]
  },
  {
    "name": "群馬レジャーランド太田店",
    "operation_time": "一部24時間営業",
    "holiday": "無し",
    "latitude": "36.26802219",
    "longitude": "139.3761382",
    "tel": "0276-47-8030",
    "address": "太田市西矢島町162-2",
    "access": "",
    "games": [
      "桃太郎電鉄 ～メダルゲームも定番！～"
    ]
  },
  {
    "name": "タイトーFステーション郡山オリエントパーク店",
    "operation_time": "",
    "holiday": "",
    "latitude": "37.37465045",
    "longitude": "140.3487929",
    "tel": "024-946-8222",
    "address": "郡山市安積町荒井字大久保35-1",
    "access": "",
    "games": [
      "桃太郎電鉄 ～メダルゲームも定番！～"
    ]
  },
  {
    "name": "ドラマ足利店",
    "operation_time": "10:00～24:00",
    "holiday": "無し",
    "latitude": "36.32220259",
    "longitude": "139.4503607",
    "tel": "0284-73-9559",
    "address": "足利市朝倉町244-1",
    "access": "東武伊勢崎線足利市駅より徒歩10分",
    "games": [
      "桃太郎電鉄 ～メダルゲームも定番！～"
    ]
  },
  {
    "name": "プレイタウンパル富士吉田店",
    "operation_time": "10:00～24:00",
    "holiday": "無し",
    "latitude": "35.48301003",
    "longitude": "138.7797075",
    "tel": "0555-22-8668",
    "address": "富士吉田市新西原4-12-15",
    "access": "富士急ハイランドそば",
    "games": [
      "桃太郎電鉄 ～メダルゲームも定番！～"
    ]
  },
  {
    "name": "ラウンドワン静岡･駿河店",
    "operation_time": "",
    "holiday": "",
    "latitude": "34.950991",
    "longitude": "138.360524",
    "tel": "054-201-1601",
    "address": "静岡市駿河区向手越1-10-1",
    "access": "",
    "games": [
      "桃太郎電鉄 ～メダルゲームも定番！～"
    ]
  },
  {
    "name": "ラウンドワン郡山店",
    "operation_time": "",
    "holiday": "",
    "latitude": "37.40229903",
    "longitude": "140.3957065",
    "tel": "024-941-3191",
    "address": "郡山市向河原町4-55",
    "access": "",
    "games": [
      "桃太郎電鉄 ～メダルゲームも定番！～"
    ]
  },
  {
    "name": "namcoイオンタウン郡山店",
    "operation_time": "",
    "holiday": "",
    "latitude": "37.389283",
    "longitude": "140.390809",
    "tel": "024-943-2715",
    "address": "郡山市松木町2-88イオンタウン郡山",
    "access": "",
    "games": [
      "桃太郎電鉄 ～メダルゲームも定番！～"
    ]
  },
  {
    "name": "スーパーウェーブ静岡店",
    "operation_time": "",
    "holiday": "",
    "latitude": "35.01361",
    "longitude": "138.43421",
    "tel": "054-340-5888",
    "address": "静岡市清水区鳥坂860フレスポ静岡2F西",
    "access": "",
    "games": [
      "桃太郎電鉄 ～メダルゲームも定番！～"
    ]
  },
  {
    "name": "タイトーFステーションイオン富士宮店",
    "operation_time": "",
    "holiday": "",
    "latitude": "35.220897",
    "longitude": "138.612227",
    "tel": "0544-21-4425",
    "address": "富士宮市浅間町1-8イオンモール富士宮3F",
    "access": "",
    "games": [
      "桃太郎電鉄 ～メダルゲームも定番！～"
    ]
  },
  {
    "name": "namcoフェドラP&D佐野店",
    "operation_time": "10:00～23:00 土日祝9:00～23:00",
    "holiday": "無し",
    "latitude": "36.29729",
    "longitude": "139.605644",
    "tel": "0283-85-9518",
    "address": "佐野市高萩町1340",
    "access": "",
    "games": [
      "桃太郎電鉄 ～メダルゲームも定番！～"
    ]
  },
  {
    "name": "ラウンドワン富士店",
    "operation_time": "",
    "holiday": "",
    "latitude": "35.15310644",
    "longitude": "138.6938016",
    "tel": "0545-51-3636",
    "address": "富士市八代町4-15",
    "access": "",
    "games": [
      "桃太郎電鉄 ～メダルゲームも定番！～"
    ]
  },
  {
    "name": "テクモピアパルテロン宇都宮店",
    "operation_time": "",
    "holiday": "",
    "latitude": "36.574265",
    "longitude": "139.900581",
    "tel": "028-623-4430",
    "address": "宇都宮市今泉町237福田屋ショッピングプラザ宇都宮2F",
    "access": "",
    "games": [
      "桃太郎電鉄 ～メダルゲームも定番！～"
    ]
  },
  {
    "name": "ラウンドワンさいたま･鴻巣店",
    "operation_time": "",
    "holiday": "",
    "latitude": "36.08064011",
    "longitude": "139.4902201",
    "tel": "048-595-2001",
    "address": "鴻巣市箕田3163-7",
    "access": "",
    "games": [
      "桃太郎電鉄 ～メダルゲームも定番！～"
    ]
  },
  {
    "name": "ラウンドワン宇都宮店",
    "operation_time": "",
    "holiday": "",
    "latitude": "36.54080987",
    "longitude": "139.8868656",
    "tel": "028-614-8171",
    "address": "宇都宮市江曽島町2072-1",
    "access": "",
    "games": [
      "桃太郎電鉄 ～メダルゲームも定番！～"
    ]
  },
  {
    "name": "namco宇都宮店",
    "operation_time": "",
    "holiday": "",
    "latitude": "36.54390559",
    "longitude": "139.8915705",
    "tel": "028-638-5011",
    "address": "宇都宮市簗瀬町1606-1P&Dビル",
    "access": "",
    "games": [
      "桃太郎電鉄 ～メダルゲームも定番！～"
    ]
  },
  {
    "name": "テクモピアロックダムインターパーク店",
    "operation_time": "",
    "holiday": "",
    "latitude": "36.489989",
    "longitude": "139.906395",
    "tel": "028-657-0230",
    "address": "宇都宮市インターパーク6-1-1FKDインターパーク店2F",
    "access": "",
    "games": [
      "桃太郎電鉄 ～メダルゲームも定番！～"
    ]
  },
  {
    "name": "ラウンドワン入間店",
    "operation_time": "",
    "holiday": "",
    "latitude": "35.82812299",
    "longitude": "139.3755366",
    "tel": "042-960-1521",
    "address": "入間市小谷田3-7-25",
    "access": "",
    "games": [
      "桃太郎電鉄 ～メダルゲームも定番！～"
    ]
  },
  {
    "name": "ドラマ瑞穂店",
    "operation_time": "10:00～24:00",
    "holiday": "無し",
    "latitude": "35.76337213",
    "longitude": "139.3568934",
    "tel": "042-556-6605",
    "address": "西多摩郡瑞穂町武蔵382-1",
    "access": "JR八高線「箱根ヶ崎駅」から武蔵村山市方面に徒歩25分",
    "games": [
      "桃太郎電鉄 ～メダルゲームも定番！～"
    ]
  },
  {
    "name": "アミューズメントワールドららぽーと沼津店",
    "operation_time": "",
    "holiday": "",
    "latitude": "35.118419",
    "longitude": "138.840143",
    "tel": "055-929-1320",
    "address": "沼津市東椎路字東荒301-3ららぽーと沼津店3F 33020",
    "access": "",
    "games": [
      "桃太郎電鉄 ～メダルゲームも定番！～"
    ]
  },
  {
    "name": "GiGO入間",
    "operation_time": "",
    "holiday": "",
    "latitude": "35.81911",
    "longitude": "139.418219",
    "tel": "070-1458-7167",
    "address": "入間市東藤沢2-18",
    "access": "",
    "games": [
      "桃太郎電鉄 ～メダルゲームも定番！～"
    ]
  },
  {
    "name": "アピナ上尾店",
    "operation_time": "",
    "holiday": "",
    "latitude": "35.987191",
    "longitude": "139.579877",
    "tel": "048-783-4747",
    "address": "上尾市緑丘3-3-11-2プリンセス棟別棟",
    "access": "",
    "games": [
      "桃太郎電鉄 ～メダルゲームも定番！～"
    ]
  },
  {
    "name": "GiGOイオンモールむさし村山",
    "operation_time": "",
    "holiday": "",
    "latitude": "35.74624596",
    "longitude": "139.3846956",
    "tel": "070-1458-3080",
    "address": "武蔵村山市榎1-1-3イオンモールむさし村山2F",
    "access": "",
    "games": [
      "桃太郎電鉄 ～メダルゲームも定番！～"
    ]
  },
  {
    "name": "ラウンドワン武蔵村山店",
    "operation_time": "",
    "holiday": "",
    "latitude": "35.73563714",
    "longitude": "139.3826993",
    "tel": "042-520-3211",
    "address": "武蔵村山市伊奈平3-1-1",
    "access": "",
    "games": [
      "桃太郎電鉄 ～メダルゲームも定番！～"
    ]
  },
  {
    "name": "ラウンドワンさいたま･栗橋店",
    "operation_time": "",
    "holiday": "",
    "latitude": "36.12348469",
    "longitude": "139.7152159",
    "tel": "0480-55-0831",
    "address": "久喜市小右衛門192-1",
    "access": "",
    "games": [
      "桃太郎電鉄 ～メダルゲームも定番！～"
    ]
  },
  {
    "name": "ウェアハウス上尾店",
    "operation_time": "10:00～24:00",
    "holiday": "無し",
    "latitude": "35.98142891",
    "longitude": "139.5998843",
    "tel": "048-770-3332",
    "address": "上尾市二ツ宮1044",
    "access": "R17号より蓮田、伊奈方面車で3分",
    "games": [
      "桃太郎電鉄 ～メダルゲームも定番！～"
    ]
  },
  {
    "name": "ラウンドワン上尾店",
    "operation_time": "",
    "holiday": "",
    "latitude": "35.98574121",
    "longitude": "139.6078308",
    "tel": "048-778-3411",
    "address": "上尾市大字平塚917-1",
    "access": "",
    "games": [
      "桃太郎電鉄 ～メダルゲームも定番！～"
    ]
  },
  {
    "name": "シルクハット八王子",
    "operation_time": "10:00～24:45",
    "holiday": "",
    "latitude": "35.65636374",
    "longitude": "139.3384725",
    "tel": "",
    "address": "八王子市旭町2-5八王子ツインタワービル3F",
    "access": "JR八王子駅前",
    "games": [
      "桃太郎電鉄 ～メダルゲームも定番！～"
    ]
  },
  {
    "name": "GiGOサントムーン柿田川",
    "operation_time": "",
    "holiday": "",
    "latitude": "35.109337",
    "longitude": "138.902823",
    "tel": "055-972-5430",
    "address": "駿東郡清水町玉川61-2サントムーン柿田川2F",
    "access": "",
    "games": [
      "桃太郎電鉄 ～メダルゲームも定番！～"
    ]
  },
  {
    "name": "ドラマ八王子高倉店",
    "operation_time": "10:00～24:00",
    "holiday": "無し",
    "latitude": "35.66506526",
    "longitude": "139.3664795",
    "tel": "0426-45-7050",
    "address": "八王子市高倉町55-4",
    "access": "国道20号、八王子市高倉町「高倉町西」交差点を日野バイパス豊田方面右手",
    "games": [
      "桃太郎電鉄 ～メダルゲームも定番！～"
    ]
  },
  {
    "name": "ラウンドワン所沢店",
    "operation_time": "",
    "holiday": "",
    "latitude": "35.78935214",
    "longitude": "139.4700049",
    "tel": "04-2940-8631",
    "address": "所沢市東町5-22TOCOTOCO SQUARE6F",
    "access": "",
    "games": [
      "桃太郎電鉄 ～メダルゲームも定番！～"
    ]
  },
  {
    "name": "タイトーステーション所沢店",
    "operation_time": "09:00～24:00",
    "holiday": "無し",
    "latitude": "35.7881",
    "longitude": "139.47243",
    "tel": "04-2925-9071",
    "address": "所沢市日吉町3-7",
    "access": "所沢駅西口プロペ通りを徒歩3分",
    "games": [
      "桃太郎電鉄 ～メダルゲームも定番！～"
    ]
  },
  {
    "name": "ウェアハウス三橋店",
    "operation_time": "一部24時間営業",
    "holiday": "無し",
    "latitude": "35.91589833",
    "longitude": "139.5959286",
    "tel": "048-795-8380",
    "address": "さいたま市西区三橋6-955-1",
    "access": "国道17号バイパス三橋六丁目交差点",
    "games": [
      "桃太郎電鉄 ～メダルゲームも定番！～"
    ]
  },
  {
    "name": "アドアーズ橋本店",
    "operation_time": "10:00～23:30",
    "holiday": "無し",
    "latitude": "35.59444342",
    "longitude": "139.3489184",
    "tel": "042-700-2310",
    "address": "相模原市緑区橋本3-3-1SING橋本2F",
    "access": "橋本MOVIX(映画館)の2F",
    "games": [
      "桃太郎電鉄 ～メダルゲームも定番！～"
    ]
  },
  {
    "name": "GiGOアリオ橋本",
    "operation_time": "10:00～21:00",
    "holiday": "無し",
    "latitude": "35.591017",
    "longitude": "139.349524",
    "tel": "042-703-0133",
    "address": "相模原市緑区大山町1-22アリオ橋本店2F",
    "access": "橋本駅より徒歩5分",
    "games": [
      "桃太郎電鉄 ～メダルゲームも定番！～"
    ]
  },
  {
    "name": "ラウンドワン大宮店",
    "operation_time": "",
    "holiday": "",
    "latitude": "35.91078012",
    "longitude": "139.6254963",
    "tel": "048-658-5666",
    "address": "さいたま市大宮区宮町4-90-7",
    "access": "",
    "games": [
      "桃太郎電鉄 ～メダルゲームも定番！～"
    ]
  },
  {
    "name": "GiGOイオンモール与野",
    "operation_time": "",
    "holiday": "",
    "latitude": "35.89086766",
    "longitude": "139.6150989",
    "tel": "048-852-6689",
    "address": "さいたま市中央区本町西5-2-9イオンモール与野3F",
    "access": "",
    "games": [
      "桃太郎電鉄 ～メダルゲームも定番！～"
    ]
  },
  {
    "name": "GiGO相模原",
    "operation_time": "10:00～24:00",
    "holiday": "無し",
    "latitude": "35.57350902",
    "longitude": "139.3710322",
    "tel": "080-7465-6268",
    "address": "相模原市中央区中央2-1-5ムトス内",
    "access": "JR横浜線相模原駅徒歩15分国道16号線近く",
    "games": [
      "桃太郎電鉄 ～メダルゲームも定番！～"
    ]
  },
  {
    "name": "GiGO府中",
    "operation_time": "",
    "holiday": "",
    "latitude": "35.68242",
    "longitude": "139.46002",
    "tel": "042-335-5468",
    "address": "府中市西原町1-6-2フレスポ府中2F",
    "access": "",
    "games": [
      "桃太郎電鉄 ～メダルゲームも定番！～"
    ]
  },
  {
    "name": "Amusement&Game MAGHREB",
    "operation_time": "10:00～24:00",
    "holiday": "無し",
    "latitude": "35.624024",
    "longitude": "139.423196",
    "tel": "042-371-5556",
    "address": "多摩市落合1-39-2マグレブビル1F",
    "access": "京王線・小田急線 多摩センター駅 徒歩3分/多摩モノレール多摩センター駅 徒歩1分",
    "games": [
      "桃太郎電鉄 ～メダルゲームも定番！～"
    ]
  },
  {
    "name": "ウェアハウス岩槻店",
    "operation_time": "7:00～23:45",
    "holiday": "無し",
    "latitude": "35.94092949",
    "longitude": "139.6859268",
    "tel": "048-758-8755",
    "address": "さいたま市岩槻区加倉3-3-63",
    "access": "岩槻IC降りて直ぐ",
    "games": [
      "桃太郎電鉄 ～メダルゲームも定番！～"
    ]
  },
  {
    "name": "ラウンドワン府中本町駅前店",
    "operation_time": "",
    "holiday": "",
    "latitude": "35.667312",
    "longitude": "139.477387",
    "tel": "042-340-4901",
    "address": "府中市本町1-13-3カネタビル",
    "access": "",
    "games": [
      "桃太郎電鉄 ～メダルゲームも定番！～"
    ]
  },
  {
    "name": "ラウンドワン朝霞店",
    "operation_time": "",
    "holiday": "",
    "latitude": "35.79026242",
    "longitude": "139.5796756",
    "tel": "048-450-1822",
    "address": "朝霞市膝折町2-16-10",
    "access": "",
    "games": [
      "桃太郎電鉄 ～メダルゲームも定番！～"
    ]
  },
  {
    "name": "埼玉レジャーランド春日部店",
    "operation_time": "一部24時間",
    "holiday": "無し",
    "latitude": "35.95940469",
    "longitude": "139.7289621",
    "tel": "048-763-4061",
    "address": "春日部市大字増富字谷際163-1",
    "access": "国道16号線沿い春日部市増富地内",
    "games": [
      "桃太郎電鉄 ～メダルゲームも定番！～"
    ]
  },
  {
    "name": "タイトーステーション小田原シティモール店",
    "operation_time": "10:00～24:00",
    "holiday": "無し",
    "latitude": "35.281376",
    "longitude": "139.193786",
    "tel": "0465-45-5052",
    "address": "小田原市前川120小田原シティーモールC棟2F",
    "access": "JR鴨宮駅より、徒歩約20分。",
    "games": [
      "桃太郎電鉄 ～メダルゲームも定番！～"
    ]
  },
  {
    "name": "アドアーズ和光店",
    "operation_time": "10:00～23:30",
    "holiday": "無し",
    "latitude": "35.78829096",
    "longitude": "139.6116504",
    "tel": "048-463-5108",
    "address": "和光市本町3-5Million Annex 和光1-3F",
    "access": "和光市駅南口駅前交番前",
    "games": [
      "桃太郎電鉄 ～メダルゲームも定番！～"
    ]
  },
  {
    "name": "神奈川レジャーランド厚木店",
    "operation_time": "一部24時間営業",
    "holiday": "無し",
    "latitude": "35.44802433",
    "longitude": "139.3431365",
    "tel": "050-1722-4336",
    "address": "厚木市戸室5-31-1",
    "access": "小田急本厚木駅よりバスにてアンリツ前バス停下車徒歩1分",
    "games": [
      "桃太郎電鉄 ～メダルゲームも定番！～"
    ]
  },
  {
    "name": "ラウンドワンわらび店",
    "operation_time": "",
    "holiday": "",
    "latitude": "35.83078787",
    "longitude": "139.6742521",
    "tel": "048-447-8080",
    "address": "蕨市北町5-1-6",
    "access": "",
    "games": [
      "桃太郎電鉄 ～メダルゲームも定番！～"
    ]
  },
  {
    "name": "ラウンドワン町田店",
    "operation_time": "",
    "holiday": "",
    "latitude": "35.54409488",
    "longitude": "139.4432407",
    "tel": "042-710-0091",
    "address": "町田市森野1-13-14",
    "access": "",
    "games": [
      "桃太郎電鉄 ～メダルゲームも定番！～"
    ]
  },
  {
    "name": "ラウンドワン吉祥寺店",
    "operation_time": "",
    "holiday": "",
    "latitude": "35.706276",
    "longitude": "139.580884",
    "tel": "0422-29-1051",
    "address": "武蔵野市吉祥寺本町1-11-22",
    "access": "",
    "games": [
      "桃太郎電鉄 ～メダルゲームも定番！～"
    ]
  },
  {
    "name": "GiGO調布",
    "operation_time": "",
    "holiday": "",
    "latitude": "35.65098715",
    "longitude": "139.5442321",
    "tel": "070-1517-3693",
    "address": "調布市布田4-2-4",
    "access": "",
    "games": [
      "桃太郎電鉄 ～メダルゲームも定番！～"
    ]
  },
  {
    "name": "アドアーズ蕨店",
    "operation_time": "10:00～23:45",
    "holiday": "無し",
    "latitude": "35.82774017",
    "longitude": "139.6915296",
    "tel": "048-433-3886",
    "address": "蕨市塚越1-4-4花見屋第2ビル2F",
    "access": "塚越東口一番街通りを直進50m",
    "games": [
      "桃太郎電鉄 ～メダルゲームも定番！～"
    ]
  },
  {
    "name": "ウェアハウス越谷店",
    "operation_time": "10:00～24:00",
    "holiday": "無し",
    "latitude": "35.91195206",
    "longitude": "139.7637557",
    "tel": "048-973-4311",
    "address": "越谷市大字南荻島841-1",
    "access": "越谷岩槻線沿い、国道4号から車で1分",
    "games": [
      "桃太郎電鉄 ～メダルゲームも定番！～"
    ]
  },
  {
    "name": "アミューズメントFUNFUN越谷店",
    "operation_time": "",
    "holiday": "",
    "latitude": "35.912884",
    "longitude": "139.771184",
    "tel": "048-970-4490",
    "address": "越谷市大字南荻島2770-1",
    "access": "",
    "games": [
      "桃太郎電鉄 ～メダルゲームも定番！～"
    ]
  },
  {
    "name": "楽市楽座イオンモール川口前川店",
    "operation_time": "10:00～21:00",
    "holiday": "無し",
    "latitude": "35.83347105",
    "longitude": "139.7063681",
    "tel": "048-262-1493",
    "address": "川口市前川1-1-11イオンモール川口前川店3F",
    "access": "蕨駅より車で5分ダイヤモンドシティ内",
    "games": [
      "桃太郎電鉄 ～メダルゲームも定番！～"
    ]
  },
  {
    "name": "タイトーステーション海老名ビナウォーク店",
    "operation_time": "10:00～24:00",
    "holiday": "無し",
    "latitude": "35.452455",
    "longitude": "139.395834",
    "tel": "046-292-5160",
    "address": "海老名市中央1-18-1ビナウォーク6番館2F",
    "access": "JR相模線、相鉄線、小田急線、海老名駅より徒歩5分",
    "games": [
      "桃太郎電鉄 ～メダルゲームも定番！～"
    ]
  },
  {
    "name": "テクモピア座間店",
    "operation_time": "",
    "holiday": "",
    "latitude": "35.48001079",
    "longitude": "139.431891",
    "tel": "046-205-4719",
    "address": "座間市ひばりが丘4-11-48",
    "access": "",
    "games": [
      "桃太郎電鉄 ～メダルゲームも定番！～"
    ]
  },
  {
    "name": "アドアーズ仙川店",
    "operation_time": "10:00～23:45",
    "holiday": "無し",
    "latitude": "35.66249549",
    "longitude": "139.5841524",
    "tel": "03-5313-4661",
    "address": "調布市仙川町2-21-12VICビル7 1-3F",
    "access": "ハーモニータウン内みずほ銀行前",
    "games": [
      "桃太郎電鉄 ～メダルゲームも定番！～"
    ]
  },
  {
    "name": "ラウンドワン板橋店",
    "operation_time": "",
    "holiday": "",
    "latitude": "35.77658",
    "longitude": "139.67879",
    "tel": "03-5922-3521",
    "address": "板橋区相生町16-13",
    "access": "",
    "games": [
      "桃太郎電鉄 ～メダルゲームも定番！～"
    ]
  },
  {
    "name": "千葉レジャーランド野田店",
    "operation_time": "一部24時間営業",
    "holiday": "無し",
    "latitude": "35.97154747",
    "longitude": "139.8653487",
    "tel": "04-7120-3535",
    "address": "野田市吉春776-1",
    "access": "国道16号線沿い野田市吉春地内",
    "games": [
      "桃太郎電鉄 ～メダルゲームも定番！～"
    ]
  },
  {
    "name": "アドアーズ大和店A館",
    "operation_time": "10:00～23:45",
    "holiday": "無し",
    "latitude": "35.47051883",
    "longitude": "139.4623285",
    "tel": "046-260-0861",
    "address": "大和市大和東1-4-3大黒屋ビル1-2F",
    "access": "ユザワヤ側出口右手横浜銀行左折",
    "games": [
      "桃太郎電鉄 ～メダルゲームも定番！～"
    ]
  },
  {
    "name": "ラウンドワンららぽーと湘南平塚店",
    "operation_time": "",
    "holiday": "",
    "latitude": "35.335825",
    "longitude": "139.354769",
    "tel": "0463-25-4051",
    "address": "平塚市天沼10-1ららぽーと湘南平塚店3F",
    "access": "",
    "games": [
      "桃太郎電鉄 ～メダルゲームも定番！～"
    ]
  },
  {
    "name": "アドアーズ中野店",
    "operation_time": "10:00～23:45",
    "holiday": "無し",
    "latitude": "35.70931435",
    "longitude": "139.6656989",
    "tel": "03-3389-7670",
    "address": "中野区中野5-52-15ブロードウェイ185",
    "access": "中野ブロードウェイ内左手",
    "games": [
      "桃太郎電鉄 ～メダルゲームも定番！～"
    ]
  },
  {
    "name": "GiGO川口",
    "operation_time": "",
    "holiday": "",
    "latitude": "35.79475047",
    "longitude": "139.7475357",
    "tel": "048-226-1191",
    "address": "川口市東領家2-2-10",
    "access": "",
    "games": [
      "桃太郎電鉄 ～メダルゲームも定番！～"
    ]
  },
  {
    "name": "バンダイナムコCrossStore越谷レイクタウン1号",
    "operation_time": "",
    "holiday": "",
    "latitude": "35.88203682",
    "longitude": "139.8280251",
    "tel": "048-971-8290",
    "address": "越谷市レイクタウン3-1-1イオンレイクタウンmori3F",
    "access": "",
    "games": [
      "桃太郎電鉄 ～メダルゲームも定番！～"
    ]
  },
  {
    "name": "ウェアハウス入谷店",
    "operation_time": "10:00～24:00",
    "holiday": "無し",
    "latitude": "35.80112943",
    "longitude": "139.760997",
    "tel": "03-3856-5833",
    "address": "足立区入谷7-8-11",
    "access": "足立ICから車で3分",
    "games": [
      "桃太郎電鉄 ～メダルゲームも定番！～"
    ]
  },
  {
    "name": "ラウンドワン池袋店",
    "operation_time": "",
    "holiday": "",
    "latitude": "35.730175",
    "longitude": "139.714846",
    "tel": "03-5928-0221",
    "address": "豊島区東池袋1-14-1池袋スクエア",
    "access": "",
    "games": [
      "桃太郎電鉄 ～メダルゲームも定番！～"
    ]
  },
  {
    "name": "アドアーズサンシャイン店",
    "operation_time": "10:00～23:45",
    "holiday": "無し",
    "latitude": "35.72996953",
    "longitude": "139.714918",
    "tel": "03-3971-9601",
    "address": "豊島区東池袋1-14-4シネマサンシャイン1-3F",
    "access": "シネマサンシャインビル内",
    "games": [
      "桃太郎電鉄 ～メダルゲームも定番！～"
    ]
  },
  {
    "name": "タイトーステーションBIGBOX高田馬場",
    "operation_time": "10:00～24:00",
    "holiday": "無し",
    "latitude": "35.712933",
    "longitude": "139.70419",
    "tel": "03-5272-9855",
    "address": "新宿区高田馬場1-35-3BIGBOX6F",
    "access": "西武新宿線・高田馬場駅より徒歩1分",
    "games": [
      "桃太郎電鉄 ～メダルゲームも定番！～"
    ]
  },
  {
    "name": "namco王子サンスクエア店",
    "operation_time": "",
    "holiday": "",
    "latitude": "35.7529261",
    "longitude": "139.7377633",
    "tel": "03-5959-9830",
    "address": "北区王子1-4-1サンスクエア2F",
    "access": "",
    "games": [
      "桃太郎電鉄 ～メダルゲームも定番！～"
    ]
  },
  {
    "name": "タイトーステーション溝の口店",
    "operation_time": "",
    "holiday": "",
    "latitude": "35.600042",
    "longitude": "139.61245",
    "tel": "044-328-9262",
    "address": "川崎市高津区溝口1-11-8",
    "access": "",
    "games": [
      "桃太郎電鉄 ～メダルゲームも定番！～"
    ]
  },
  {
    "name": "ラウンドワン草加店",
    "operation_time": "",
    "holiday": "",
    "latitude": "35.81240056",
    "longitude": "139.7878993",
    "tel": "048-920-3701",
    "address": "草加市谷塚上町204-1",
    "access": "",
    "games": [
      "桃太郎電鉄 ～メダルゲームも定番！～"
    ]
  },
  {
    "name": "サープラ横浜あそびタウン",
    "operation_time": "9:00～24:00",
    "holiday": "無し",
    "latitude": "35.55234069",
    "longitude": "139.579585",
    "tel": "045-914-7386",
    "address": "横浜市都筑区中川中央1-25ノースポートモール6F",
    "access": "横浜市営地下鉄センター北駅ノースポートモール6F",
    "games": [
      "桃太郎電鉄 ～メダルゲームも定番！～"
    ]
  },
  {
    "name": "タイトーステーション新宿東口店",
    "operation_time": "10:00～翌1:00",
    "holiday": "無し",
    "latitude": "35.693289",
    "longitude": "139.70154",
    "tel": "03-5362-5108",
    "address": "新宿区新宿3-22-7指田ビル",
    "access": "JR新宿駅東口より徒歩3分 スタジオアルタ裏",
    "games": [
      "桃太郎電鉄 ～メダルゲームも定番！～"
    ]
  },
  {
    "name": "タイトーステーション新宿南口ゲームワールド店",
    "operation_time": "10:00～25:00",
    "holiday": "無し",
    "latitude": "35.689926",
    "longitude": "139.702372",
    "tel": "03-3226-0395",
    "address": "新宿区新宿3-35-8",
    "access": "JR・新宿駅より徒歩1分",
    "games": [
      "桃太郎電鉄 ～メダルゲームも定番！～"
    ]
  },
  {
    "name": "ウェアハウス草加店",
    "operation_time": "一部24時間",
    "holiday": "無し",
    "latitude": "35.82979825",
    "longitude": "139.8207329",
    "tel": "048-930-5261",
    "address": "八潮市南後谷507",
    "access": "草加産業道路沿い",
    "games": [
      "桃太郎電鉄 ～メダルゲームも定番！～"
    ]
  },
  {
    "name": "ウェアハウス保木間店",
    "operation_time": "10:00～24:00",
    "holiday": "無し",
    "latitude": "35.78913885",
    "longitude": "139.8032547",
    "tel": "03-3860-7822",
    "address": "足立区保木間1-1-19-1F",
    "access": "竹の塚駅より車で7分",
    "games": [
      "桃太郎電鉄 ～メダルゲームも定番！～"
    ]
  },
  {
    "name": "アドアーズ渋谷店",
    "operation_time": "10:00～23:30",
    "holiday": "無し",
    "latitude": "35.66129375",
    "longitude": "139.6982358",
    "tel": "03-3496-5856",
    "address": "渋谷区宇田川町13-11KN渋谷1ビル1-4F",
    "access": "センター街を抜け宇田川町交番前",
    "games": [
      "桃太郎電鉄 ～メダルゲームも定番！～"
    ]
  },
  {
    "name": "ラウンドワンららぽーと新三郷店",
    "operation_time": "",
    "holiday": "",
    "latitude": "35.859813",
    "longitude": "139.865774",
    "tel": "048-950-7501",
    "address": "三郷市新三郷ららシティ3-1-1ららぽーと新三郷 2F",
    "access": "",
    "games": [
      "桃太郎電鉄 ～メダルゲームも定番！～"
    ]
  },
  {
    "name": "ドラマ港北インター店",
    "operation_time": "10:00～24:00",
    "holiday": "無し",
    "latitude": "35.51925659",
    "longitude": "139.5847927",
    "tel": "045-474-6604",
    "address": "横浜市都筑区東方町321-6",
    "access": "第三京浜港北IC右側交差点左折約500M",
    "games": [
      "桃太郎電鉄 ～メダルゲームも定番！～"
    ]
  },
  {
    "name": "タイトーステーション渋谷店",
    "operation_time": "10:00～24:00",
    "holiday": "無し",
    "latitude": "35.659983",
    "longitude": "139.70204",
    "tel": "03-5467-6565",
    "address": "渋谷区渋谷1-24-12渋谷東映プラザB1F",
    "access": "JR渋谷駅・宮益坂口より徒歩1分",
    "games": [
      "桃太郎電鉄 ～メダルゲームも定番！～"
    ]
  },
  {
    "name": "ゲームパニック三郷",
    "operation_time": "",
    "holiday": "",
    "latitude": "35.84215546",
    "longitude": "139.8548102",
    "tel": "048-953-8295",
    "address": "三郷市ピアラシティ1-1-200",
    "access": "",
    "games": [
      "桃太郎電鉄 ～メダルゲームも定番！～"
    ]
  },
  {
    "name": "ドラマ藤沢店",
    "operation_time": "10:00～24:00",
    "holiday": "無し",
    "latitude": "35.35751243",
    "longitude": "139.4682681",
    "tel": "0466-82-0328",
    "address": "藤沢市本藤沢5-6-8",
    "access": "小田急江ノ島線善行駅より徒歩15分",
    "games": [
      "桃太郎電鉄 ～メダルゲームも定番！～"
    ]
  },
  {
    "name": "サープラ八潮あそびタウン",
    "operation_time": "9:00～24:00",
    "holiday": "無し",
    "latitude": "35.80837561",
    "longitude": "139.8437875",
    "tel": "048-994-5377",
    "address": "八潮市大瀬1-1-3フレスポ八潮3F",
    "access": "つくばエクスプレス・八潮駅隣接フレスポ八潮3F",
    "games": [
      "桃太郎電鉄 ～メダルゲームも定番！～"
    ]
  },
  {
    "name": "楽市楽座湘南藤沢店",
    "operation_time": "10:00～22:00",
    "holiday": "無し",
    "latitude": "35.34049487",
    "longitude": "139.4648408",
    "tel": "0466-30-2332",
    "address": "藤沢市辻堂新町4-3-5ミスターマックス湘南藤沢内",
    "access": "ミスターマックス湘南藤沢SC2F",
    "games": [
      "桃太郎電鉄 ～メダルゲームも定番！～"
    ]
  },
  {
    "name": "アドアーズ上野アメ横店",
    "operation_time": "10:00～23:30",
    "holiday": "無し",
    "latitude": "35.71002035",
    "longitude": "139.7742619",
    "tel": "03-5812-1570",
    "address": "台東区上野4-9-14上野KKビルB1-4F",
    "access": "アメ横センタービルそば",
    "games": [
      "桃太郎電鉄 ～メダルゲームも定番！～"
    ]
  },
  {
    "name": "タイトーステーション上野御徒町店",
    "operation_time": "",
    "holiday": "",
    "latitude": "35.708938",
    "longitude": "139.774321",
    "tel": "03-5817-4511",
    "address": "台東区上野4-6-9湯島商事ビル",
    "access": "",
    "games": [
      "桃太郎電鉄 ～メダルゲームも定番！～"
    ]
  },
  {
    "name": "GiGO勿来",
    "operation_time": "",
    "holiday": "",
    "latitude": "36.88914294",
    "longitude": "140.7845719",
    "tel": "0246-65-6000",
    "address": "いわき市勿来町四沢字鍵田13",
    "access": "",
    "games": [
      "桃太郎電鉄 ～メダルゲームも定番！～"
    ]
  },
  {
    "name": "ラウンドワン横浜綱島店",
    "operation_time": "",
    "holiday": "",
    "latitude": "35.53198182",
    "longitude": "139.6371126",
    "tel": "045-533-6151",
    "address": "横浜市港北区樽町2-6-40T-PLATZ",
    "access": "",
    "games": [
      "桃太郎電鉄 ～メダルゲームも定番！～"
    ]
  },
  {
    "name": "ウェアハウス南流山店",
    "operation_time": "10:00～24:00",
    "holiday": "無し",
    "latitude": "35.84020798",
    "longitude": "139.9050111",
    "tel": "04-7159-2351",
    "address": "流山市南流山4-16-6",
    "access": "南流山駅から徒歩3分",
    "games": [
      "桃太郎電鉄 ～メダルゲームも定番！～"
    ]
  },
  {
    "name": "東京レジャーランド亀有店",
    "operation_time": "",
    "holiday": "",
    "latitude": "35.765462",
    "longitude": "139.84798",
    "tel": "03-5680-8893",
    "address": "葛飾区亀有3-21-2",
    "access": "",
    "games": [
      "桃太郎電鉄 ～メダルゲームも定番！～"
    ]
  },
  {
    "name": "ラウンドワン横浜駅西口店",
    "operation_time": "",
    "holiday": "",
    "latitude": "35.46393717",
    "longitude": "139.6180549",
    "tel": "045-412-0880",
    "address": "横浜市西区南幸2-8-16",
    "access": "",
    "games": [
      "桃太郎電鉄 ～メダルゲームも定番！～"
    ]
  },
  {
    "name": "タイトーFステーションオリナス錦糸町店",
    "operation_time": "10:00～23:45",
    "holiday": "無し",
    "latitude": "35.700721",
    "longitude": "139.816024",
    "tel": "03-5610-7376",
    "address": "墨田区太平4-1-2オリナスB1F",
    "access": "JR総武線錦糸町駅北口から徒歩5分",
    "games": [
      "桃太郎電鉄 ～メダルゲームも定番！～"
    ]
  },
  {
    "name": "シルクハット大船",
    "operation_time": "9:00～23:45",
    "holiday": "無し",
    "latitude": "35.35325232",
    "longitude": "139.5325488",
    "tel": "",
    "address": "鎌倉市大船1-24大船駅前ビル1-3F",
    "access": "JR大船駅徒歩1分",
    "games": [
      "桃太郎電鉄 ～メダルゲームも定番！～"
    ]
  },
  {
    "name": "シルクハット大森",
    "operation_time": "10:00～23:45",
    "holiday": "無し",
    "latitude": "35.5889478",
    "longitude": "139.7278437",
    "tel": "",
    "address": "大田区山王2-4-1大森駅前ビル2F",
    "access": "JR大森駅西口より徒歩0分",
    "games": [
      "桃太郎電鉄 ～メダルゲームも定番！～"
    ]
  },
  {
    "name": "アドアーズ亀戸店",
    "operation_time": "10:00～23:45",
    "holiday": "無し",
    "latitude": "35.69873199",
    "longitude": "139.8259341",
    "tel": "03-5836-5761",
    "address": "江東区亀戸5-2-6サンエービル1-5F",
    "access": "明治通りラーメン「日高屋」隣",
    "games": [
      "桃太郎電鉄 ～メダルゲームも定番！～"
    ]
  },
  {
    "name": "シルクハット蒲田西口",
    "operation_time": "10:00～24:45",
    "holiday": "",
    "latitude": "35.56301591",
    "longitude": "139.7158447",
    "tel": "",
    "address": "大田区西蒲田7-2-3第二醍醐ビルB1-2F",
    "access": "",
    "games": [
      "桃太郎電鉄 ～メダルゲームも定番！～"
    ]
  },
  {
    "name": "namco松戸店",
    "operation_time": "",
    "holiday": "",
    "latitude": "35.783581",
    "longitude": "139.900789",
    "tel": "047-711-7274",
    "address": "松戸市松戸1230-1ピアザ松戸1F",
    "access": "",
    "games": [
      "桃太郎電鉄 ～メダルゲームも定番！～"
    ]
  },
  {
    "name": "タイトーステーションBIGFUN平和島店",
    "operation_time": "",
    "holiday": "",
    "latitude": "35.586122",
    "longitude": "139.740355",
    "tel": "03-5762-7446",
    "address": "大田区平和島1-1-1BIGFUN平和島3F",
    "access": "",
    "games": [
      "桃太郎電鉄 ～メダルゲームも定番！～"
    ]
  },
  {
    "name": "ジアス上大岡店",
    "operation_time": "10:00～24:00",
    "holiday": "無し",
    "latitude": "35.40665354",
    "longitude": "139.5960833",
    "tel": "045-847-4780",
    "address": "横浜市港南区上大岡西2-1-28赤い風船ビル2F",
    "access": "京浜急行「上大岡駅」下車徒歩3分、横浜市営地下鉄「上大岡駅」下車徒歩1分赤い風船モールパート1 1階",
    "games": [
      "桃太郎電鉄 ～メダルゲームも定番！～"
    ]
  },
  {
    "name": "ラウンドワンダイバーシティ東京プラザ店",
    "operation_time": "",
    "holiday": "",
    "latitude": "35.62521",
    "longitude": "139.775732",
    "tel": "03-3527-8491",
    "address": "江東区青海1-1-10ダイバーシティ東京6F-6100",
    "access": "",
    "games": [
      "桃太郎電鉄 ～メダルゲームも定番！～"
    ]
  },
  {
    "name": "シルクハット川崎ダイス",
    "operation_time": "9:00～24:45",
    "holiday": "無し",
    "latitude": "35.5314121",
    "longitude": "139.7002166",
    "tel": "",
    "address": "川崎市川崎区駅前本町8ダイスビルB2F",
    "access": "JR川崎駅アゼリア地下街と直結、京急川崎駅中央口徒歩1分",
    "games": [
      "桃太郎電鉄 ～メダルゲームも定番！～"
    ]
  },
  {
    "name": "アドアーズイサゴ店",
    "operation_time": "10:00～23:30",
    "holiday": "無し",
    "latitude": "35.52972044",
    "longitude": "139.7004317",
    "tel": "044-246-3161",
    "address": "川崎市川崎区砂子2-5-5(株)岡田屋2BKビル1F",
    "access": "銀柳から仲見世通り善光寺角を左",
    "games": [
      "桃太郎電鉄 ～メダルゲームも定番！～"
    ]
  },
  {
    "name": "シルクハット伊勢佐木町",
    "operation_time": "9:00～23:45",
    "holiday": "無し",
    "latitude": "35.44281185",
    "longitude": "139.629987",
    "tel": "",
    "address": "横浜市中区伊勢佐木町3-96日活会館ビル3F",
    "access": "JR関内駅北口より徒歩7分・京急線日ノ出町より徒歩6分・横浜市営地下鉄ブルーライン伊勢佐木長者町駅より徒歩4分",
    "games": [
      "桃太郎電鉄 ～メダルゲームも定番！～"
    ]
  },
  {
    "name": "アドアーズ新小岩店",
    "operation_time": "10:00～23:45",
    "holiday": "無し",
    "latitude": "35.71623508",
    "longitude": "139.8580953",
    "tel": "03-5678-5257",
    "address": "葛飾区新小岩1-44-4VORT新小岩B1-3F",
    "access": "新小岩駅南口ロータリーすぐ看板",
    "games": [
      "桃太郎電鉄 ～メダルゲームも定番！～"
    ]
  },
  {
    "name": "ラウンドワン南砂店",
    "operation_time": "",
    "holiday": "",
    "latitude": "35.67184786",
    "longitude": "139.8361845",
    "tel": "03-5617-6911",
    "address": "江東区南砂6-7-15トピレックプラザ4F",
    "access": "",
    "games": [
      "桃太郎電鉄 ～メダルゲームも定番！～"
    ]
  },
  {
    "name": "タイトーステーション南砂町SUNAMO店",
    "operation_time": "",
    "holiday": "",
    "latitude": "35.66562168",
    "longitude": "139.8356003",
    "tel": "03-6666-8395",
    "address": "江東区新砂3-4-31南砂町SUNAMO4F",
    "access": "",
    "games": [
      "桃太郎電鉄 ～メダルゲームも定番！～"
    ]
  },
  {
    "name": "ラウンドワン川崎大師店",
    "operation_time": "",
    "holiday": "",
    "latitude": "35.53846653",
    "longitude": "139.741634",
    "tel": "044-270-1541",
    "address": "川崎市川崎区殿町1-5-1",
    "access": "",
    "games": [
      "桃太郎電鉄 ～メダルゲームも定番！～"
    ]
  },
  {
    "name": "ゲームパニックつくば",
    "operation_time": "",
    "holiday": "",
    "latitude": "36.04632758",
    "longitude": "140.1679958",
    "tel": "080-3350-1839",
    "address": "土浦市中村東1-1-1",
    "access": "",
    "games": [
      "桃太郎電鉄 ～メダルゲームも定番！～"
    ]
  },
  {
    "name": "GiGO石岡",
    "operation_time": "",
    "holiday": "",
    "latitude": "36.198702",
    "longitude": "140.303303",
    "tel": "0299-26-8336",
    "address": "石岡市東大橋中峯1976-1",
    "access": "",
    "games": [
      "桃太郎電鉄 ～メダルゲームも定番！～"
    ]
  },
  {
    "name": "ラウンドワンアリオ柏店",
    "operation_time": "",
    "holiday": "",
    "latitude": "35.832403",
    "longitude": "140.012023",
    "tel": "04-7190-1201",
    "address": "柏市大島田1-6-1セブンパークアリオ柏 1070",
    "access": "",
    "games": [
      "桃太郎電鉄 ～メダルゲームも定番！～"
    ]
  },
  {
    "name": "大慶園",
    "operation_time": "一部24時間営業",
    "holiday": "無し",
    "latitude": "35.76304297",
    "longitude": "139.96933",
    "tel": "047-337-5001",
    "address": "市川市大町359",
    "access": "JR市川大野駅下車 市川植物園行きバス乗車 市川斎場前下車徒歩10分・北総線大町駅から車5分",
    "games": [
      "桃太郎電鉄 ～メダルゲームも定番！～"
    ]
  },
  {
    "name": "ラウンドワン市川鬼高店",
    "operation_time": "",
    "holiday": "",
    "latitude": "35.711239",
    "longitude": "139.927465",
    "tel": "047-320-3801",
    "address": "市川市鬼高4-1-3",
    "access": "",
    "games": [
      "桃太郎電鉄 ～メダルゲームも定番！～"
    ]
  },
  {
    "name": "タイトーFステーション市川妙典店",
    "operation_time": "施設の営業時間に準じる",
    "holiday": "施設の営業日に準じる",
    "latitude": "35.69246485",
    "longitude": "139.9267286",
    "tel": "047-318-3933",
    "address": "市川市妙典4-1-1イオン市川妙典店2番街2F",
    "access": "",
    "games": [
      "桃太郎電鉄 ～メダルゲームも定番！～"
    ]
  },
  {
    "name": "GiGOイオン新浦安ｼｮｯﾋﾟﾝｸﾞｾﾝﾀｰ",
    "operation_time": "9:00～24:00",
    "holiday": "無し",
    "latitude": "35.64896456",
    "longitude": "139.9148303",
    "tel": "070-1201-3891",
    "address": "浦安市入船1-4-1イオン新浦安4F",
    "access": "JR京葉線新浦安駅より徒歩5分 ダイエーショッパーズプラザ4F",
    "games": [
      "桃太郎電鉄 ～メダルゲームも定番！～"
    ]
  },
  {
    "name": "アドアーズ横須賀店",
    "operation_time": "10:00～23:00",
    "holiday": "無し",
    "latitude": "35.28109296",
    "longitude": "139.6626182",
    "tel": "046-829-1325",
    "address": "横須賀市本町3-27横須賀APT1F",
    "access": "京急汐入駅前ベイスクエア横須賀",
    "games": [
      "桃太郎電鉄 ～メダルゲームも定番！～"
    ]
  },
  {
    "name": "シルクハット津田沼",
    "operation_time": "9:00～23:45",
    "holiday": "無し",
    "latitude": "35.69040687",
    "longitude": "140.0221583",
    "tel": "",
    "address": "習志野市津田沼1-2-1十三ビルB1F",
    "access": "JR津田沼駅、京成新津田沼駅徒歩1分",
    "games": [
      "桃太郎電鉄 ～メダルゲームも定番！～"
    ]
  },
  {
    "name": "GiGOひたちなか",
    "operation_time": "",
    "holiday": "",
    "latitude": "36.34756197",
    "longitude": "140.5803556",
    "tel": "070-1449-2941",
    "address": "ひたちなか市田中後40-11",
    "access": "",
    "games": [
      "桃太郎電鉄 ～メダルゲームも定番！～"
    ]
  },
  {
    "name": "ラウンドワン習志野店",
    "operation_time": "",
    "holiday": "",
    "latitude": "35.660295",
    "longitude": "140.022576",
    "tel": "047-408-1901",
    "address": "習志野市芝園1-4-5",
    "access": "",
    "games": [
      "桃太郎電鉄 ～メダルゲームも定番！～"
    ]
  },
  {
    "name": "スポーツウェーブ鉄腕24稲毛長沼店",
    "operation_time": "一部24時間営業",
    "holiday": "無し",
    "latitude": "35.66179317",
    "longitude": "140.1264239",
    "tel": "043-215-5560",
    "address": "千葉市稲毛区長沼原町697",
    "access": "東関東自動車道 千葉北ICから約5分 千葉総合運動場そば",
    "games": [
      "桃太郎電鉄 ～メダルゲームも定番！～"
    ]
  },
  {
    "name": "アドアーズ千葉北店",
    "operation_time": "10:00～23:45",
    "holiday": "無し",
    "latitude": "35.66037597",
    "longitude": "140.1393385",
    "tel": "043-421-6322",
    "address": "千葉市稲毛区山王町310-1ROUTE66PARK内",
    "access": "県道66号線沿オートバックス横",
    "games": [
      "桃太郎電鉄 ～メダルゲームも定番！～"
    ]
  },
  {
    "name": "GiGOフェスティバルウォーク蘇我",
    "operation_time": "",
    "holiday": "",
    "latitude": "35.592701",
    "longitude": "140.117827",
    "tel": "043-266-9012",
    "address": "千葉市中央区川崎町51-1ハーバーシティ蘇我",
    "access": "",
    "games": [
      "桃太郎電鉄 ～メダルゲームも定番！～"
    ]
  },
  {
    "name": "タイトーステーションアリオ蘇我店",
    "operation_time": "10:00～22:00",
    "holiday": "無し",
    "latitude": "35.5875372",
    "longitude": "140.1222051",
    "tel": "043-209-6761",
    "address": "千葉市中央区川崎町52-7アリオ蘇我2F",
    "access": "JR蘇我駅西口より徒歩15分、無料シャトルバス有(9:00～22:00)",
    "games": [
      "桃太郎電鉄 ～メダルゲームも定番！～"
    ]
  },
  {
    "name": "スポーツウェーブ鉄腕24浜野店",
    "operation_time": "一部24時間営業",
    "holiday": "無し",
    "latitude": "35.55423187",
    "longitude": "140.1264305",
    "tel": "043-300-8033",
    "address": "千葉市中央区浜野町1025-59",
    "access": "館山自動車道蘇我ICより車で8分",
    "games": [
      "桃太郎電鉄 ～メダルゲームも定番！～"
    ]
  },
  {
    "name": "ラウンドワン市原店",
    "operation_time": "",
    "holiday": "",
    "latitude": "35.54749256",
    "longitude": "140.1233239",
    "tel": "0436-44-8801",
    "address": "市原市八幡北町3-5-1",
    "access": "",
    "games": [
      "桃太郎電鉄 ～メダルゲームも定番！～"
    ]
  },
  {
    "name": "千葉レジャーランド成東店",
    "operation_time": "一部24時間営業",
    "holiday": "無し",
    "latitude": "35.58828462",
    "longitude": "140.3904243",
    "tel": "047-580-1777",
    "address": "山武市姫島111-1",
    "access": "国道126号線成東町姫島地内ローソン奥",
    "games": [
      "桃太郎電鉄 ～メダルゲームも定番！～"
    ]
  },
  {
    "name": "アミュージアム茂原店",
    "operation_time": "10:00～24:00",
    "holiday": "無し",
    "latitude": "35.43657121",
    "longitude": "140.2847395",
    "tel": "0475-25-9996",
    "address": "茂原市高師1622-1",
    "access": "JR茂原駅から車で10分。茂原街道沿いラオックスビル2F",
    "games": [
      "桃太郎電鉄 ～メダルゲームも定番！～"
    ]
  }
]