[
  {
    "name": "三冠王",
    "operation_time": "10:00～24:00",
    "holiday": "無し",
    "latitude": "33.19079873",
    "longitude": "129.6528712",
    "tel": "0956-47-2141",
    "address": "佐世保市相浦町2689-1",
    "access": "松浦電鉄「相浦」下車車10分ほど。",
    "games": [
      "クイズマジックアカデミー"
    ]
  },
  {
    "name": "アミパラ佐世保店",
    "operation_time": "10:00～24:00",
    "holiday": "無し",
    "latitude": "33.15005741",
    "longitude": "129.7804145",
    "tel": "0956-34-8880",
    "address": "佐世保市大塔町18-15",
    "access": "JR大塔駅徒歩3分",
    "games": [
      "クイズマジックアカデミー"
    ]
  },
  {
    "name": "ソニックワールド伊万里店",
    "operation_time": "10:00～24:00",
    "holiday": "無し",
    "latitude": "33.27857609",
    "longitude": "129.8722306",
    "tel": "0955-22-1104",
    "address": "伊万里市二里町八谷搦189-3",
    "access": "",
    "games": [
      "クイズマジックアカデミー"
    ]
  },
  {
    "name": "楽市楽座イオンモール福岡伊都店",
    "operation_time": "10:00～22:00",
    "holiday": "施設の営業日に準じる",
    "latitude": "33.577027",
    "longitude": "130.256399",
    "tel": "092-805-8900",
    "address": "福岡市西区北原1-3-1イオン伊都ショッピンクセンター別館",
    "access": "JR筑肥線 九大学研都市駅 南口すぐ",
    "games": [
      "クイズマジックアカデミー"
    ]
  },
  {
    "name": "ソニックワールド大村店",
    "operation_time": "10:00～24:00",
    "holiday": "無し",
    "latitude": "32.92727946",
    "longitude": "129.9394753",
    "tel": "0957-50-2555",
    "address": "大村市古賀島町383-1",
    "access": "長崎自動車道「大村IC」下車車10分",
    "games": [
      "クイズマジックアカデミー"
    ]
  },
  {
    "name": "タイトーステーション福岡天神店",
    "operation_time": "10:00～翌1:00",
    "holiday": "無し",
    "latitude": "33.5896519",
    "longitude": "130.3962521",
    "tel": "092-737-5500",
    "address": "福岡市中央区天神2-6-35サザンクロスビル",
    "access": "西鉄福岡駅北口より徒歩2分",
    "games": [
      "クイズマジックアカデミー"
    ]
  },
  {
    "name": "楽市街道箱崎店3F",
    "operation_time": "10:00～24:00",
    "holiday": "無し",
    "latitude": "33.62410817",
    "longitude": "130.4195897",
    "tel": "092-642-0761",
    "address": "福岡市東区箱崎5-1-8楽市街道箱崎店内3F",
    "access": "3号線沿い九州大学そば",
    "games": [
      "クイズマジックアカデミー"
    ]
  },
  {
    "name": "遊道楽 嘉瀬店",
    "operation_time": "11:00～24:00",
    "holiday": "無し",
    "latitude": "33.24215325",
    "longitude": "130.2565663",
    "tel": "0952-40-0952",
    "address": "佐賀市嘉瀬町大字中原2488-1",
    "access": "207号線沿い",
    "games": [
      "クイズマジックアカデミー"
    ]
  },
  {
    "name": "小倉メトロポリス店",
    "operation_time": "平日:10:00～23:50 土日祝前日9:00～23:50",
    "holiday": "無し",
    "latitude": "33.89633237",
    "longitude": "130.8596114",
    "tel": "093-581-5684",
    "address": "北九州市小倉北区西港町27-5",
    "access": "JR小倉駅 車で10分",
    "games": [
      "クイズマジックアカデミー"
    ]
  },
  {
    "name": "PEP魚町",
    "operation_time": "10:00～翌1:00",
    "holiday": "無し",
    "latitude": "33.88396547",
    "longitude": "130.880026",
    "tel": "093-513-1511",
    "address": "北九州市小倉北区魚町2-4-20",
    "access": "モノレール平和通り駅徒歩1分",
    "games": [
      "クイズマジックアカデミー"
    ]
  },
  {
    "name": "PEP中津口",
    "operation_time": "",
    "holiday": "",
    "latitude": "33.877463",
    "longitude": "130.887208",
    "tel": "093-967-6696",
    "address": "北九州市小倉北区中津口2-2-16",
    "access": "",
    "games": [
      "クイズマジックアカデミー"
    ]
  },
  {
    "name": "G-pala小倉店",
    "operation_time": "",
    "holiday": "",
    "latitude": "33.83945824",
    "longitude": "130.9109857",
    "tel": "093-953-7405",
    "address": "北九州市小倉南区上葛原1-14-1",
    "access": "",
    "games": [
      "クイズマジックアカデミー"
    ]
  },
  {
    "name": "パスカワールドグリーンランド",
    "operation_time": "10:00～翌3:00",
    "holiday": "無し",
    "latitude": "32.98790587",
    "longitude": "130.4711246",
    "tel": "0968-69-3001",
    "address": "荒尾市本井手1574-54",
    "access": "三井グリーンランドウルトラマンランド横",
    "games": [
      "クイズマジックアカデミー"
    ]
  },
  {
    "name": "サープラ山口あそびタウン",
    "operation_time": "9:00～24:00",
    "holiday": "無し",
    "latitude": "34.1647908",
    "longitude": "131.4517343",
    "tel": "083-933-0307",
    "address": "山口市湯田温泉6-8-3",
    "access": "JR山口線 湯田温泉駅下車 湯田自動車学校方面徒歩10分",
    "games": [
      "クイズマジックアカデミー"
    ]
  },
  {
    "name": "スポラ九品寺",
    "operation_time": "10:00～翌3:00",
    "holiday": "無し",
    "latitude": "32.79041868",
    "longitude": "130.7149285",
    "tel": "096-372-5700",
    "address": "熊本市中央区九品寺5-10-15",
    "access": "JR豊肥本線南熊本駅徒歩10分",
    "games": [
      "クイズマジックアカデミー"
    ]
  },
  {
    "name": "トライセン中津店",
    "operation_time": "10:00～24:00",
    "holiday": "無し",
    "latitude": "33.58950451",
    "longitude": "131.2110968",
    "tel": "0979-85-0688",
    "address": "中津市下池永67-3",
    "access": "",
    "games": [
      "クイズマジックアカデミー"
    ]
  },
  {
    "name": "スポラ菊陽店",
    "operation_time": "10:00～24:00",
    "holiday": "無し",
    "latitude": "32.86472855",
    "longitude": "130.8092457",
    "tel": "096-213-5720",
    "address": "菊池郡菊陽町津久礼駄飼代2617-2",
    "access": "",
    "games": [
      "クイズマジックアカデミー"
    ]
  },
  {
    "name": "アミューズメントシティーG-STA",
    "operation_time": "",
    "holiday": "",
    "latitude": "31.8157681",
    "longitude": "130.3073786",
    "tel": "0996-20-4533",
    "address": "薩摩川内市向田本町49",
    "access": "",
    "games": [
      "クイズマジックアカデミー"
    ]
  },
  {
    "name": "ゲームスポットSPEED",
    "operation_time": "9:00～24:00",
    "holiday": "無し",
    "latitude": "34.03418509",
    "longitude": "131.8347616",
    "tel": "0834-36-2828",
    "address": "周南市久米3219",
    "access": "",
    "games": [
      "クイズマジックアカデミー"
    ]
  },
  {
    "name": "タイトーFステーションセントポルタ大分店",
    "operation_time": "",
    "holiday": "",
    "latitude": "33.235334",
    "longitude": "131.606448",
    "tel": "097-533-2716",
    "address": "大分市中央町2-1-1",
    "access": "",
    "games": [
      "クイズマジックアカデミー"
    ]
  },
  {
    "name": "スペースV1廿日市店",
    "operation_time": "10:00～24:00",
    "holiday": "無し",
    "latitude": "34.35185323",
    "longitude": "132.3340207",
    "tel": "0829-34-3311",
    "address": "廿日市市本町4-23",
    "access": "山陽本線廿日市駅下車2号線沿い東へ徒歩15分",
    "games": [
      "クイズマジックアカデミー"
    ]
  },
  {
    "name": "トライセン萩原店",
    "operation_time": "ボウリングコーナー:10:00～24:00 ゲームコーナー:7:00～翌3:00",
    "holiday": "無し",
    "latitude": "33.249338",
    "longitude": "131.643415",
    "tel": "097-556-2188",
    "address": "大分市萩原4-227-1ACS内3F",
    "access": "臨界産業道路沿い 大洲総合運動公園近く",
    "games": [
      "クイズマジックアカデミー"
    ]
  },
  {
    "name": "タイトーステーション広島本通店",
    "operation_time": "10:00～24:00",
    "holiday": "無し",
    "latitude": "34.3929912",
    "longitude": "132.4599026",
    "tel": "082-541-6345",
    "address": "広島市中区本通3-5せらかぐ本通ビル",
    "access": "広島電鉄・立町駅より徒歩5分",
    "games": [
      "クイズマジックアカデミー"
    ]
  },
  {
    "name": "ビバーチャ",
    "operation_time": "",
    "holiday": "",
    "latitude": "34.37953351",
    "longitude": "132.4613726",
    "tel": "082-504-8665",
    "address": "広島市中区南竹屋町10-17",
    "access": "",
    "games": [
      "クイズマジックアカデミー"
    ]
  },
  {
    "name": "PALO境港",
    "operation_time": "",
    "holiday": "",
    "latitude": "35.52243536",
    "longitude": "133.2524414",
    "tel": "070-3100-5063",
    "address": "境港市竹内団地81-3",
    "access": "",
    "games": [
      "クイズマジックアカデミー"
    ]
  },
  {
    "name": "アミパラがいな店",
    "operation_time": "10:00 ～ 24:00",
    "holiday": "無し",
    "latitude": "35.43797411",
    "longitude": "133.3392651",
    "tel": "0859-39-1800",
    "address": "米子市日ノ出町1-8-13",
    "access": "米子しんまち天満屋から南西へ300m",
    "games": [
      "クイズマジックアカデミー"
    ]
  },
  {
    "name": "ビリヤードG'z",
    "operation_time": "",
    "holiday": "",
    "latitude": "31.725703",
    "longitude": "131.05961",
    "tel": "0986-24-2344",
    "address": "都城市牟田町4-2",
    "access": "",
    "games": [
      "クイズマジックアカデミー"
    ]
  },
  {
    "name": "アミパラここじゃ店",
    "operation_time": "10:00～24:00",
    "holiday": "無し",
    "latitude": "34.40752689",
    "longitude": "132.7155261",
    "tel": "082-424-4747",
    "address": "東広島市西条町下見6-10-19山手電気内",
    "access": "広島大学前の交差点より西へすぐ。山手電気内",
    "games": [
      "クイズマジックアカデミー"
    ]
  },
  {
    "name": "GiGO広",
    "operation_time": "10:00～24:00",
    "holiday": "無し",
    "latitude": "34.22860722",
    "longitude": "132.6293589",
    "tel": "070-1459-4743",
    "address": "呉市広中町1-9フタバ図書TSUTAYA広店2F",
    "access": "呉線広駅前下車すぐ185号線沿いフタバ図書内",
    "games": [
      "クイズマジックアカデミー"
    ]
  },
  {
    "name": "宮西スタジアム",
    "operation_time": "",
    "holiday": "無し",
    "latitude": "33.848559",
    "longitude": "132.7518258",
    "tel": "089-924-5070",
    "address": "松山市宮西2-4-41",
    "access": "JR松山駅より徒歩15分",
    "games": [
      "クイズマジックアカデミー"
    ]
  },
  {
    "name": "プレイドーム松山",
    "operation_time": "",
    "holiday": "無し",
    "latitude": "33.80938654",
    "longitude": "132.7280805",
    "tel": "089-972-3000",
    "address": "松山市余戸南4-9-40",
    "access": "伊予鉄鎌田駅より徒歩2分",
    "games": [
      "クイズマジックアカデミー"
    ]
  },
  {
    "name": "アミューズメントパークMGキスケ店",
    "operation_time": "",
    "holiday": "無し",
    "latitude": "33.84135404",
    "longitude": "132.753158",
    "tel": "089-933-2737",
    "address": "松山市宮田町4キスケボール1F内ゲームコーナー",
    "access": "JR松山駅より徒歩3分",
    "games": [
      "クイズマジックアカデミー"
    ]
  },
  {
    "name": "スーパーヒーロー倉吉",
    "operation_time": "10:00～翌3:00/土・休前日/10:00～翌5:00",
    "holiday": "無し",
    "latitude": "35.43833291",
    "longitude": "133.8393183",
    "tel": "0858-23-5255",
    "address": "倉吉市見日町633",
    "access": "バス・西倉吉方面行き/厚生病院前下車徒歩3分",
    "games": [
      "クイズマジックアカデミー"
    ]
  },
  {
    "name": "アミューズメントパークMGジアス店",
    "operation_time": "",
    "holiday": "無し",
    "latitude": "34.44068975",
    "longitude": "133.2607402",
    "tel": "084-939-7733",
    "address": "福山市柳津町1-7-60",
    "access": "",
    "games": [
      "クイズマジックアカデミー"
    ]
  },
  {
    "name": "福山メトロポリス",
    "operation_time": "10:00～23:50",
    "holiday": "無し",
    "latitude": "34.46583759",
    "longitude": "133.407424",
    "tel": "084-981-5095",
    "address": "福山市一文字町24-1",
    "access": "JR東福山駅より車で10分",
    "games": [
      "クイズマジックアカデミー"
    ]
  },
  {
    "name": "アミューズメントパークMG東予店",
    "operation_time": "",
    "holiday": "",
    "latitude": "33.9205621",
    "longitude": "133.0775644",
    "tel": "0898-35-3222",
    "address": "西条市周布715-1フジ東予店 別棟",
    "access": "",
    "games": [
      "クイズマジックアカデミー"
    ]
  },
  {
    "name": "アミューズメントパークMG西条店",
    "operation_time": "",
    "holiday": "",
    "latitude": "33.92670287",
    "longitude": "133.1828145",
    "tel": "0897-47-4470",
    "address": "西条市新田字北新田235フジグラン西条別棟",
    "access": "フジグラン西条別棟",
    "games": [
      "クイズマジックアカデミー"
    ]
  },
  {
    "name": "ファンタジスタ",
    "operation_time": "12:00～24:00",
    "holiday": "店舗にお問合わせください",
    "latitude": "34.5583269",
    "longitude": "133.6767549",
    "tel": "086-526-0438",
    "address": "倉敷市新倉敷駅前5-194",
    "access": "JR西日本山陽本線「新倉敷」駅から南西に徒歩10分",
    "games": [
      "クイズマジックアカデミー"
    ]
  },
  {
    "name": "ユーズランド倉敷店",
    "operation_time": "10:00～21:00",
    "holiday": "無し",
    "latitude": "34.60290341",
    "longitude": "133.7454258",
    "tel": "086-430-5234",
    "address": "倉敷市水江1イオン倉敷ショッピングセンター2F",
    "access": "イオン倉敷SC2F倉敷駅北口1番乗場よりバスで10分山陽自動車道倉敷ICより約7分",
    "games": [
      "クイズマジックアカデミー"
    ]
  },
  {
    "name": "ドライブイン古城",
    "operation_time": "7:00～24:00",
    "holiday": "無し",
    "latitude": "34.55139486",
    "longitude": "133.7675318",
    "tel": "086-455-5190",
    "address": "倉敷市福田町福田2111-1",
    "access": "早島ICより車で20分",
    "games": [
      "クイズマジックアカデミー"
    ]
  },
  {
    "name": "アミパラテクノランド店",
    "operation_time": "10:00～24:00",
    "holiday": "",
    "latitude": "34.679221",
    "longitude": "133.927419",
    "tel": "086-225-3377",
    "address": "岡山市北区大和町1-7-12",
    "access": "法界院駅から徒歩10分",
    "games": [
      "クイズマジックアカデミー"
    ]
  },
  {
    "name": "アミパラ岡山店",
    "operation_time": "10:00～24:00",
    "holiday": "無し",
    "latitude": "34.63615978",
    "longitude": "133.919988",
    "tel": "086-235-3332",
    "address": "岡山市北区青江1-13-8",
    "access": "2号線バイパス・青江交差点から北へすぐ",
    "games": [
      "クイズマジックアカデミー"
    ]
  },
  {
    "name": "アミューズメントパークMG伊予三島店",
    "operation_time": "",
    "holiday": "",
    "latitude": "33.97450223",
    "longitude": "133.5286622",
    "tel": "0896-72-7177",
    "address": "四国中央市中之庄町汐汲道75-1",
    "access": "",
    "games": [
      "クイズマジックアカデミー"
    ]
  },
  {
    "name": "ウェアハウス四万十店",
    "operation_time": "9:00～22:00",
    "holiday": "無し",
    "latitude": "32.98710457",
    "longitude": "132.9393438",
    "tel": "0880-31-0152",
    "address": "四万十市右山五月町8-13アピアさつき2F",
    "access": "",
    "games": [
      "クイズマジックアカデミー"
    ]
  },
  {
    "name": "マックスプラザ善通寺",
    "operation_time": "",
    "holiday": "",
    "latitude": "34.24362494",
    "longitude": "133.7639965",
    "tel": "0877-63-4333",
    "address": "善通寺市中村町1798-2",
    "access": "",
    "games": [
      "クイズマジックアカデミー"
    ]
  },
  {
    "name": "GiGOイオン札幌手稲駅前SC",
    "operation_time": "ゲームコーナー9:00～26:00 / メダルコーナー9:00～24:00",
    "holiday": "無し",
    "latitude": "43.12045749",
    "longitude": "141.2452406",
    "tel": "080-7127-7065",
    "address": "札幌市手稲区前田1条11-3F",
    "access": "西友手稲店3F",
    "games": [
      "クイズマジックアカデミー"
    ]
  },
  {
    "name": "キャッツアイ宮の沢店",
    "operation_time": "10:00～24:00",
    "holiday": "無し",
    "latitude": "43.09655936",
    "longitude": "141.2574555",
    "tel": "011-688-8682",
    "address": "札幌市手稲区西宮の沢5条2-11-15",
    "access": "札樽自動車道札幌西ICから車で3分",
    "games": [
      "クイズマジックアカデミー"
    ]
  },
  {
    "name": "キャッツアイ新川店",
    "operation_time": "10:00～24:00",
    "holiday": "無し",
    "latitude": "43.10077961",
    "longitude": "141.3102954",
    "tel": "011-766-2828",
    "address": "札幌市北区新川2条7-1-7",
    "access": "札樽自動車道新川IC前",
    "games": [
      "クイズマジックアカデミー"
    ]
  },
  {
    "name": "キャッツアイ篠路店",
    "operation_time": "10:00～24:00",
    "holiday": "無し",
    "latitude": "43.14070168",
    "longitude": "141.3571701",
    "tel": "011-776-1500",
    "address": "札幌市北区篠路1条4-6-30",
    "access": "JR篠路駅下車徒歩20分",
    "games": [
      "クイズマジックアカデミー"
    ]
  },
  {
    "name": "アドアーズ札幌北42条店",
    "operation_time": "10:00～23:00",
    "holiday": "無し",
    "latitude": "43.11197882",
    "longitude": "141.3551118",
    "tel": "011-748-7530",
    "address": "札幌市東区北42条東7-1-1嶋ビル2F",
    "access": "丘珠空港通 ドン・キホーテ2F",
    "games": [
      "クイズマジックアカデミー"
    ]
  },
  {
    "name": "GiGO札幌駅西口",
    "operation_time": "",
    "holiday": "",
    "latitude": "43.06749301",
    "longitude": "141.3465097",
    "tel": "080-7173-6552",
    "address": "札幌市北区北6条西6-1-1WEST6",
    "access": "",
    "games": [
      "クイズマジックアカデミー"
    ]
  },
  {
    "name": "ゲームえの木",
    "operation_time": "10:00～24:00",
    "holiday": "無し",
    "latitude": "33.55611724",
    "longitude": "133.5064153",
    "tel": "088-825-3293",
    "address": "高知市旭町3-104",
    "access": "土佐電旭日町3丁目電停徒歩1分",
    "games": [
      "クイズマジックアカデミー"
    ]
  },
  {
    "name": "キャッツアイ東苗穂店",
    "operation_time": "10:00～24:00",
    "holiday": "無し",
    "latitude": "43.09235265",
    "longitude": "141.4070002",
    "tel": "011-789-1500",
    "address": "札幌市東区東苗穂6条2-1-25",
    "access": "札樽自動車道雁来ICから車3分",
    "games": [
      "クイズマジックアカデミー"
    ]
  },
  {
    "name": "MG-BOWL屋島店",
    "operation_time": "",
    "holiday": "無し",
    "latitude": "34.33873294",
    "longitude": "134.1017017",
    "tel": "0878-43-4203",
    "address": "高松市屋島西町百石1912-1パワーシティ屋島3F",
    "access": "",
    "games": [
      "クイズマジックアカデミー"
    ]
  },
  {
    "name": "キャッツアイ栄通店",
    "operation_time": "10:00～24:00",
    "holiday": "無し",
    "latitude": "43.02523848",
    "longitude": "141.4364941",
    "tel": "011-855-4412",
    "address": "札幌市白石区栄通19-11-43",
    "access": "札幌市営地下鉄南郷18丁目駅下車徒歩15分",
    "games": [
      "クイズマジックアカデミー"
    ]
  },
  {
    "name": "キャッツアイ新札幌店",
    "operation_time": "10:00～24:00",
    "holiday": "無し",
    "latitude": "43.04493545",
    "longitude": "141.4754191",
    "tel": "011-899-1500",
    "address": "札幌市厚別区厚別東5条1-2-10",
    "access": "JR、札幌市営地下鉄新札幌駅下車徒歩20分",
    "games": [
      "クイズマジックアカデミー"
    ]
  },
  {
    "name": "キャッツアイ清田店",
    "operation_time": "10:00～24:00",
    "holiday": "無し",
    "latitude": "43.00286736",
    "longitude": "141.4364379",
    "tel": "011-884-2828",
    "address": "札幌市清田区清田1条1-20-1",
    "access": "国道36号線、札幌ドームより車5分",
    "games": [
      "クイズマジックアカデミー"
    ]
  },
  {
    "name": "遊ランド春光店",
    "operation_time": "11:00～翌4:00",
    "holiday": "無し",
    "latitude": "43.798192",
    "longitude": "142.373983",
    "tel": "0166-55-3355",
    "address": "旭川市春光1条7-2-25",
    "access": "JR旭川駅車20分",
    "games": [
      "クイズマジックアカデミー"
    ]
  },
  {
    "name": "ソユーゲームフィールド旭川駅前店",
    "operation_time": "",
    "holiday": "",
    "latitude": "43.76416142",
    "longitude": "142.3578766",
    "tel": "0166-21-3737",
    "address": "旭川市宮下通7-2-5イオンモール旭川駅前4F",
    "access": "",
    "games": [
      "クイズマジックアカデミー"
    ]
  },
  {
    "name": "ゲームアイビス太子店",
    "operation_time": "10:00～24:00",
    "holiday": "無し",
    "latitude": "34.83203126",
    "longitude": "134.6001053",
    "tel": "0792-77-2320",
    "address": "揖保郡太子町太田2148-1",
    "access": "姫路バイパス太子ランプより相生方面へ車で5分",
    "games": [
      "クイズマジックアカデミー"
    ]
  },
  {
    "name": "遊ランド西御料店",
    "operation_time": "平日12:00～翌3:00 金・土・祝前日11:00～翌5:00",
    "holiday": "無し",
    "latitude": "43.723884",
    "longitude": "142.368924",
    "tel": "0166-60-5050",
    "address": "旭川市西御料5条2-64-19",
    "access": "旭川環状線1号から美瑛・富良野方面へお進み下さいませ",
    "games": [
      "クイズマジックアカデミー"
    ]
  },
  {
    "name": "GiGO姫路駅前",
    "operation_time": "",
    "holiday": "",
    "latitude": "34.828977",
    "longitude": "134.69114",
    "tel": "0792-22-6455",
    "address": "姫路市駅前町254姫路OSビルB1F",
    "access": "",
    "games": [
      "クイズマジックアカデミー"
    ]
  },
  {
    "name": "GiGO室蘭",
    "operation_time": "10:00～24:00",
    "holiday": "無し",
    "latitude": "42.34253462",
    "longitude": "141.026287",
    "tel": "080-7434-6759",
    "address": "室蘭市東町4-31-3",
    "access": "JR東室蘭駅下車徒歩15分",
    "games": [
      "クイズマジックアカデミー"
    ]
  },
  {
    "name": "キャッツアイ恵庭店",
    "operation_time": "10:00～24:00",
    "holiday": "無し",
    "latitude": "42.87586684",
    "longitude": "141.5834741",
    "tel": "0123-32-1500",
    "address": "恵庭市住吉町2-9-1",
    "access": "JR恵庭駅下車徒歩20分",
    "games": [
      "クイズマジックアカデミー"
    ]
  },
  {
    "name": "あそVIVA本店",
    "operation_time": "9:00～24:00",
    "holiday": "無し",
    "latitude": "35.28971907",
    "longitude": "135.1348229",
    "tel": "0773-25-5055",
    "address": "福知山市字堀小字上高田2146-1あそVIVA1F",
    "access": "",
    "games": [
      "クイズマジックアカデミー"
    ]
  },
  {
    "name": "GiGOスーパーセンタートライアル上磯",
    "operation_time": "月曜～木曜10:00～20:00 / 金曜10:00～22:00 / 土日祝9:00～22:00",
    "holiday": "無し",
    "latitude": "41.820743",
    "longitude": "140.696058",
    "tel": "080-7442-0075",
    "address": "北斗市七重浜7-14-1スーパーセンタートライアル上磯1F",
    "access": "",
    "games": [
      "クイズマジックアカデミー"
    ]
  },
  {
    "name": "遊ランド富良野店",
    "operation_time": "13:00～翌1:00",
    "holiday": "無し",
    "latitude": "43.34423305",
    "longitude": "142.3786409",
    "tel": "0167-39-0123",
    "address": "富良野市弥生町5-50",
    "access": "富良野駅徒歩10分",
    "games": [
      "クイズマジックアカデミー"
    ]
  },
  {
    "name": "GiGO明石",
    "operation_time": "10:00～24:00",
    "holiday": "",
    "latitude": "34.72071543",
    "longitude": "134.8974952",
    "tel": "078-941-7676",
    "address": "明石市魚住町清水2464-1ドライブインながさわ内",
    "access": "JR山陽本線 土山駅 より徒歩10分",
    "games": [
      "クイズマジックアカデミー"
    ]
  },
  {
    "name": "トップラン",
    "operation_time": "10:00～24:00",
    "holiday": "無し",
    "latitude": "34.717655",
    "longitude": "134.928895",
    "tel": "078-969-2700",
    "address": "神戸市西区岩岡町古郷1474-1",
    "access": "第二神明道路大久保ICから車で5分",
    "games": [
      "クイズマジックアカデミー"
    ]
  },
  {
    "name": "アミューズメントパフェ パレパレ",
    "operation_time": "10:00～24:00",
    "holiday": "無し",
    "latitude": "34.08586633",
    "longitude": "134.5426759",
    "tel": "088-677-8991",
    "address": "徳島市南田宮2-2-46",
    "access": "国道11号線から田宮街道を西に車で5分",
    "games": [
      "クイズマジックアカデミー"
    ]
  },
  {
    "name": "ホムスタ玉津店",
    "operation_time": "10:00～24:00",
    "holiday": "無し",
    "latitude": "34.67922481",
    "longitude": "134.9831791",
    "tel": "078-920-3337",
    "address": "神戸市西区丸塚2-9-18メガパレス2F",
    "access": "第二神名玉津IC下車車5分",
    "games": [
      "クイズマジックアカデミー"
    ]
  },
  {
    "name": "アポロゲームセンター沖洲店",
    "operation_time": "10:00～24:00",
    "holiday": "無し",
    "latitude": "34.06713618",
    "longitude": "134.5828321",
    "tel": "088-664-0311",
    "address": "徳島市南沖洲1-93",
    "access": "徳島駅より東へ車で約15分",
    "games": [
      "クイズマジックアカデミー"
    ]
  },
  {
    "name": "PALO小松島",
    "operation_time": "",
    "holiday": "",
    "latitude": "34.00568188",
    "longitude": "134.5726547",
    "tel": "070-3100-5034",
    "address": "小松島市小松島町字領田20小松島ショッピングプラザルピア1F",
    "access": "",
    "games": [
      "クイズマジックアカデミー"
    ]
  },
  {
    "name": "アミューズメント ミール",
    "operation_time": "10:00～24:00",
    "holiday": "無し",
    "latitude": "34.88047252",
    "longitude": "135.2295927",
    "tel": "0795-64-5678",
    "address": "三田市対中町5-21",
    "access": "神戸電鉄三田本町駅下車国道176号線側へ徒歩5分。車の場合はガリバー三田店より176号を三田方面へ、ブックプラザ三田店の向かい。",
    "games": [
      "クイズマジックアカデミー"
    ]
  },
  {
    "name": "アルゴ",
    "operation_time": "11:15～23:30",
    "holiday": "無し",
    "latitude": "34.69392181",
    "longitude": "135.1914556",
    "tel": "078-334-3031",
    "address": "神戸市中央区下山手通1-1-8",
    "access": "JR三ノ宮駅下車徒歩5分生田神社前",
    "games": [
      "クイズマジックアカデミー"
    ]
  },
  {
    "name": "遊･スペース マジカル",
    "operation_time": "9:00～24:00",
    "holiday": "無し",
    "latitude": "34.69551577",
    "longitude": "135.1950261",
    "tel": "078-414-8844",
    "address": "神戸市中央区琴ノ緒町5-2-3協律三宮センタービル3F",
    "access": "JR三ノ宮駅下車徒歩5分",
    "games": [
      "クイズマジックアカデミー"
    ]
  },
  {
    "name": "金沢メトロポリス",
    "operation_time": "",
    "holiday": "",
    "latitude": "36.6011252",
    "longitude": "136.6140038",
    "tel": "076-266-5780",
    "address": "金沢市無量寺4-121-1金沢コロナワールド",
    "access": "",
    "games": [
      "クイズマジックアカデミー"
    ]
  },
  {
    "name": "バイパスレジャーランド加賀店",
    "operation_time": "一部24時間営業",
    "holiday": "無し",
    "latitude": "36.32515503",
    "longitude": "136.4113746",
    "tel": "0761-74-8007",
    "address": "加賀市箱宮町ヲ1-1",
    "access": "国道8号線加賀産業道路終点近く",
    "games": [
      "クイズマジックアカデミー"
    ]
  },
  {
    "name": "バイパスレジャーランド藤江本館",
    "operation_time": "一部24時間営業",
    "holiday": "無し",
    "latitude": "36.58397239",
    "longitude": "136.621523",
    "tel": "076-268-3798",
    "address": "金沢市藤江南2-41",
    "access": "国道8号線沿い藤江交差点近く",
    "games": [
      "クイズマジックアカデミー"
    ]
  },
  {
    "name": "福井レジャーランド板垣店",
    "operation_time": "",
    "holiday": "",
    "latitude": "36.042283",
    "longitude": "136.233748",
    "tel": "0776-33-5510",
    "address": "福井市下馬3-112",
    "access": "",
    "games": [
      "クイズマジックアカデミー"
    ]
  },
  {
    "name": "アピナ野々市バッティングセンター",
    "operation_time": "10:00～24:00",
    "holiday": "無し",
    "latitude": "36.5367673",
    "longitude": "136.6111101",
    "tel": "076-248-8889",
    "address": "野々市市若松町5-5",
    "access": "ホームセンターヤマギシ近く",
    "games": [
      "クイズマジックアカデミー"
    ]
  },
  {
    "name": "タイトーFステーション鯖江店",
    "operation_time": "",
    "holiday": "",
    "latitude": "35.96799",
    "longitude": "136.18919",
    "tel": "077-851-8850",
    "address": "鯖江市下河端町16字下町16-1アルプラザ鯖江店",
    "access": "",
    "games": [
      "クイズマジックアカデミー"
    ]
  },
  {
    "name": "キッズサーカスシピィ店",
    "operation_time": "",
    "holiday": "",
    "latitude": "35.90367935",
    "longitude": "136.1521765",
    "tel": "0778-42-6880",
    "address": "越前市新町7-8",
    "access": "",
    "games": [
      "クイズマジックアカデミー"
    ]
  },
  {
    "name": "タイトーステーション金沢店",
    "operation_time": "10:00～24:00 金・土・祝前日10:00～翌1:00",
    "holiday": "無し",
    "latitude": "36.561336",
    "longitude": "136.652994",
    "tel": "0762-65-5316",
    "address": "金沢市片町2-1-7宇都宮片町ビル1F",
    "access": "香林坊バス停より徒歩1分",
    "games": [
      "クイズマジックアカデミー"
    ]
  },
  {
    "name": "ジョイランド敦賀店",
    "operation_time": "10:00～24:00",
    "holiday": "無し",
    "latitude": "35.64473762",
    "longitude": "136.0430148",
    "tel": "0770-37-1616",
    "address": "敦賀市木崎40-土三田12USAアリーナ内",
    "access": "",
    "games": [
      "クイズマジックアカデミー"
    ]
  },
  {
    "name": "PALO五所川原",
    "operation_time": "",
    "holiday": "",
    "latitude": "40.80095013",
    "longitude": "140.4614581",
    "tel": "070-3100-5496",
    "address": "五所川原市大字唐笠柳字藤巻641-1",
    "access": "",
    "games": [
      "クイズマジックアカデミー"
    ]
  },
  {
    "name": "ピタゴラス和歌山店",
    "operation_time": "",
    "holiday": "",
    "latitude": "34.25253983",
    "longitude": "135.1463143",
    "tel": "070-1479-6710",
    "address": "和歌山市土入73-1",
    "access": "",
    "games": [
      "クイズマジックアカデミー"
    ]
  },
  {
    "name": "ゲームSPOT207",
    "operation_time": "7:00～24:00",
    "holiday": "無し",
    "latitude": "36.73235328",
    "longitude": "137.0023356",
    "tel": "0766-26-2070",
    "address": "高岡市鐘紡町1655-3",
    "access": "JR高岡駅から車で15分",
    "games": [
      "クイズマジックアカデミー"
    ]
  },
  {
    "name": "あそVIVA阪急茨木店",
    "operation_time": "",
    "holiday": "",
    "latitude": "34.817929",
    "longitude": "135.576325",
    "tel": "072-631-6606",
    "address": "茨木市永代町6-2スポーツプラザ茨木2F",
    "access": "",
    "games": [
      "クイズマジックアカデミー"
    ]
  },
  {
    "name": "アミューズメントCUE京都円町店",
    "operation_time": "",
    "holiday": "",
    "latitude": "35.01880055",
    "longitude": "135.7309726",
    "tel": "075-462-9316",
    "address": "京都市中京区西ノ京西円町40",
    "access": "",
    "games": [
      "クイズマジックアカデミー"
    ]
  },
  {
    "name": "ユーズランド高岡店",
    "operation_time": "10:00～21:00",
    "holiday": "無し",
    "latitude": "36.72378877",
    "longitude": "137.016935",
    "tel": "0766-27-2411",
    "address": "高岡市下伏間江383イオンモール高岡2F",
    "access": "イオン高岡SC2FJR高岡駅よりバスで10分能越自動車道高岡ICより東へ約3km",
    "games": [
      "クイズマジックアカデミー"
    ]
  },
  {
    "name": "サービスエリアイン高岡店",
    "operation_time": "5:00～24:00",
    "holiday": "無し",
    "latitude": "36.76070699",
    "longitude": "137.0468366",
    "tel": "0766-28-1028",
    "address": "高岡市石瀬下石瀬857-1",
    "access": "国道8号線高新大橋超えてすぐ。",
    "games": [
      "クイズマジックアカデミー"
    ]
  },
  {
    "name": "ゲームパニック堺",
    "operation_time": "10:00～23:45",
    "holiday": "無し",
    "latitude": "34.597817",
    "longitude": "135.447433",
    "tel": "072-224-8295",
    "address": "堺市堺区築港八幡町1-1堺浜シーサイド内堺浜えんため館",
    "access": "南海バス20系統「堺市内北回り」 堺駅西口→堺浜シーサイドステージ約17分 堺東駅→堺浜シーサイドステージ約25分",
    "games": [
      "クイズマジックアカデミー"
    ]
  },
  {
    "name": "GiGO難波アビオン",
    "operation_time": "",
    "holiday": "",
    "latitude": "34.66278737",
    "longitude": "135.5032116",
    "tel": "070-1458-1437",
    "address": "大阪市浪速区難波中2-3-15MMOビル1-2F",
    "access": "",
    "games": [
      "クイズマジックアカデミー"
    ]
  },
  {
    "name": "タイトーステーション大阪日本橋店",
    "operation_time": "10:00～24:00",
    "holiday": "無し",
    "latitude": "34.660362",
    "longitude": "135.506113",
    "tel": "06-6630-7270",
    "address": "大阪市浪速区日本橋4-9-14",
    "access": "地下鉄なんば駅・日本橋駅・恵美須町駅から約7分ほど。",
    "games": [
      "クイズマジックアカデミー"
    ]
  },
  {
    "name": "GiGOあべのアポロ",
    "operation_time": "10:00～24:00",
    "holiday": "",
    "latitude": "34.646623",
    "longitude": "135.511677",
    "tel": "06-6647-0716",
    "address": "大阪市阿倍野区阿倍野筋1-5-31アポロビル3F･4F",
    "access": "JR 天王寺駅・近鉄あべの橋駅より徒歩3分 アポロビル 3F",
    "games": [
      "クイズマジックアカデミー"
    ]
  },
  {
    "name": "星狩物語岸和田店",
    "operation_time": "10:00～24:00",
    "holiday": "無し",
    "latitude": "34.45453199",
    "longitude": "135.3850619",
    "tel": "072-432-3841",
    "address": "岸和田市作才町1047",
    "access": "南海岸和田駅より徒歩10分",
    "games": [
      "クイズマジックアカデミー"
    ]
  },
  {
    "name": "YAZ寝屋川店",
    "operation_time": "",
    "holiday": "",
    "latitude": "34.78044073",
    "longitude": "135.6193889",
    "tel": "072-830-7755",
    "address": "寝屋川市石津中町25-26",
    "access": "",
    "games": [
      "クイズマジックアカデミー"
    ]
  },
  {
    "name": "クァトロブーム小杉",
    "operation_time": "",
    "holiday": "",
    "latitude": "36.7205",
    "longitude": "137.092912",
    "tel": "0766-57-8219",
    "address": "射水市三ケ2602",
    "access": "",
    "games": [
      "クイズマジックアカデミー"
    ]
  },
  {
    "name": "GiGO北見",
    "operation_time": "10:00～24:00",
    "holiday": "無し",
    "latitude": "43.79655355",
    "longitude": "143.8426866",
    "tel": "080-7437-9057",
    "address": "北見市西三輪5-1-16",
    "access": "国道39号 大雪大通沿い",
    "games": [
      "クイズマジックアカデミー"
    ]
  },
  {
    "name": "エースレーン堅田",
    "operation_time": "10:00～23:45",
    "holiday": "無し",
    "latitude": "35.12458935",
    "longitude": "135.9194764",
    "tel": "077-571-1226",
    "address": "大津市今堅田2-40-10ACT堅田ビル2F",
    "access": "JR湖西線堅田駅下車徒歩10分",
    "games": [
      "クイズマジックアカデミー"
    ]
  },
  {
    "name": "スペースファンタジーインフィニ",
    "operation_time": "10:00～23:00",
    "holiday": "無し",
    "latitude": "40.60673278",
    "longitude": "140.495868",
    "tel": "0172-26-2661",
    "address": "弘前市城東北3-10-1さくら野弘前店4F",
    "access": "",
    "games": [
      "クイズマジックアカデミー"
    ]
  },
  {
    "name": "トップラン東大阪",
    "operation_time": "",
    "holiday": "",
    "latitude": "34.69383",
    "longitude": "135.61757",
    "tel": "072-970-6923",
    "address": "東大阪市東鴻池町1-6-30イオンタウン東大阪2F",
    "access": "",
    "games": [
      "クイズマジックアカデミー"
    ]
  },
  {
    "name": "PALOむつ",
    "operation_time": "",
    "holiday": "",
    "latitude": "41.2869745",
    "longitude": "141.1838083",
    "tel": "070-3100-4671",
    "address": "むつ市中央2-7-8",
    "access": "",
    "games": [
      "クイズマジックアカデミー"
    ]
  },
  {
    "name": "トヤマレジャーランド呉羽店",
    "operation_time": "一部24時間営業",
    "holiday": "無し",
    "latitude": "36.71545083",
    "longitude": "137.1579046",
    "tel": "076-434-5336",
    "address": "富山市高木字貝塚2054",
    "access": "県道44号線沿い呉羽本町交差点を富山方面方向に車で3分",
    "games": [
      "クイズマジックアカデミー"
    ]
  },
  {
    "name": "滋賀レジャーランド大津店",
    "operation_time": "",
    "holiday": "",
    "latitude": "35.003875",
    "longitude": "135.883431",
    "tel": "077-548-7851",
    "address": "大津市におの浜3-1-43",
    "access": "",
    "games": [
      "クイズマジックアカデミー"
    ]
  },
  {
    "name": "キャッツアイ静内店",
    "operation_time": "10:00～24:00",
    "holiday": "",
    "latitude": "42.341483",
    "longitude": "142.354614",
    "tel": "0146-43-0888",
    "address": "日高郡新ひだか町静内木場町2-1-41",
    "access": "",
    "games": [
      "クイズマジックアカデミー"
    ]
  },
  {
    "name": "アピナ富山豊田店",
    "operation_time": "10:00～24:00",
    "holiday": "無し",
    "latitude": "36.7211336",
    "longitude": "137.2352552",
    "tel": "076-433-3355",
    "address": "富山市豊田町2-12-66",
    "access": "国道8号線豊田東交差点近く",
    "games": [
      "クイズマジックアカデミー"
    ]
  },
  {
    "name": "ネットアクション守山",
    "operation_time": "一部24時間営業",
    "holiday": "無し",
    "latitude": "35.0693009",
    "longitude": "135.9953524",
    "tel": "077-583-5122",
    "address": "守山市播磨田町306",
    "access": "JR守山駅からバス10分",
    "games": [
      "クイズマジックアカデミー"
    ]
  },
  {
    "name": "エースレーン草津",
    "operation_time": "10:00～24:00",
    "holiday": "無し",
    "latitude": "34.99965692",
    "longitude": "135.9463199",
    "tel": "077-569-0472",
    "address": "草津市野路3-1-11",
    "access": "JR東海道線南草津駅より徒歩10分。国道1号線南田山交差点そば",
    "games": [
      "クイズマジックアカデミー"
    ]
  },
  {
    "name": "富山レジャーランド掛尾店",
    "operation_time": "",
    "holiday": "",
    "latitude": "36.66605175",
    "longitude": "137.208892",
    "tel": "076-413-2606",
    "address": "富山市掛尾町360-1",
    "access": "",
    "games": [
      "クイズマジックアカデミー"
    ]
  },
  {
    "name": "アピナ富山南店",
    "operation_time": "10:00～24:00",
    "holiday": "無し",
    "latitude": "36.665007",
    "longitude": "137.217248",
    "tel": "076-461-6644",
    "address": "富山市堀川町355-3",
    "access": "富山マイプラザ店内",
    "games": [
      "クイズマジックアカデミー"
    ]
  },
  {
    "name": "PALO網走",
    "operation_time": "",
    "holiday": "",
    "latitude": "44.00098836",
    "longitude": "144.2838377",
    "tel": "070-3100-4523",
    "address": "網走市駒場北5-83駒場ショッピングタウン",
    "access": "",
    "games": [
      "クイズマジックアカデミー"
    ]
  },
  {
    "name": "ゲームスポットアップル",
    "operation_time": "",
    "holiday": "",
    "latitude": "36.8255737",
    "longitude": "137.4142933",
    "tel": "0765-24-7740",
    "address": "魚津市吉島2-407-1",
    "access": "",
    "games": [
      "クイズマジックアカデミー"
    ]
  },
  {
    "name": "プレイランド黒部",
    "operation_time": "5:00～24:00",
    "holiday": "無し",
    "latitude": "36.88891002",
    "longitude": "137.4646533",
    "tel": "0765-52-5141",
    "address": "黒部市沓掛645",
    "access": "国道8号線沿い黒部IC入口交差点近く",
    "games": [
      "クイズマジックアカデミー"
    ]
  },
  {
    "name": "トムソーヤのなかまたち鷹巣店",
    "operation_time": "施設の営業時間に準じる",
    "holiday": "",
    "latitude": "40.229809",
    "longitude": "140.384714",
    "tel": "080-7195-3578",
    "address": "北秋田市栄字中綱31-1イオンタウン鷹巣店",
    "access": "",
    "games": [
      "クイズマジックアカデミー"
    ]
  },
  {
    "name": "アミューズメントCUE奈良三条店",
    "operation_time": "10:00～24:00",
    "holiday": "無し",
    "latitude": "34.68177805",
    "longitude": "135.8221257",
    "tel": "0742-25-5115",
    "address": "奈良市三条町478-1",
    "access": "JR奈良駅から三条通りを東へすぐ",
    "games": [
      "クイズマジックアカデミー"
    ]
  },
  {
    "name": "彦根パスカ",
    "operation_time": "13:00～24:00",
    "holiday": "無し",
    "latitude": "35.25868777",
    "longitude": "136.2653241",
    "tel": "070-3166-4833",
    "address": "彦根市西沼波町166",
    "access": "近江鉄道ひこね芹川駅下車徒歩10分",
    "games": [
      "クイズマジックアカデミー"
    ]
  },
  {
    "name": "GiGOドリームタウン白樺",
    "operation_time": "9:00～翌3:00",
    "holiday": "無し",
    "latitude": "42.91947724",
    "longitude": "143.174195",
    "tel": "080-7422-4566",
    "address": "帯広市白樺16条西2ドリームタウン白樺内",
    "access": "ドリームタウン白樺内",
    "games": [
      "クイズマジックアカデミー"
    ]
  },
  {
    "name": "アミューズメントスペースコミ丸アリババ大垣店",
    "operation_time": "10:00～24:00",
    "holiday": "無し",
    "latitude": "35.38404596",
    "longitude": "136.5956139",
    "tel": "050-3575-0530",
    "address": "大垣市池尻町940-1",
    "access": "関が原バイパス沿い",
    "games": [
      "クイズマジックアカデミー"
    ]
  },
  {
    "name": "大垣メトロポリス",
    "operation_time": "10:00～24:00",
    "holiday": "無し",
    "latitude": "35.36694278",
    "longitude": "136.6291725",
    "tel": "0584-75-5734",
    "address": "大垣市三塚町字西沼523-1",
    "access": "",
    "games": [
      "クイズマジックアカデミー"
    ]
  },
  {
    "name": "岐阜レジャーランド穂積店",
    "operation_time": "7:00～24:00",
    "holiday": "無し",
    "latitude": "35.38432479",
    "longitude": "136.6846653",
    "tel": "058-326-1133",
    "address": "瑞穂市稲里630",
    "access": "国道21号線沿い瑞穂市野田新田交差点近く",
    "games": [
      "クイズマジックアカデミー"
    ]
  },
  {
    "name": "イーグルボウル",
    "operation_time": "",
    "holiday": "",
    "latitude": "40.60882",
    "longitude": "141.22112",
    "tel": "0176-25-1233",
    "address": "十和田市東四番町3-39",
    "access": "",
    "games": [
      "クイズマジックアカデミー"
    ]
  },
  {
    "name": "A.Cグランド",
    "operation_time": "9:00～24:00",
    "holiday": "無し",
    "latitude": "35.38308553",
    "longitude": "136.7461998",
    "tel": "058-275-0351",
    "address": "岐阜市茜部大川1-77",
    "access": "名鉄新岐阜駅15分",
    "games": [
      "クイズマジックアカデミー"
    ]
  },
  {
    "name": "上越レジャーランボウル",
    "operation_time": "一部24時間営業",
    "holiday": "無し",
    "latitude": "37.16405087",
    "longitude": "138.2489336",
    "tel": "0255-31-2030",
    "address": "上越市下門前薬島827-2",
    "access": "国道8号線沿い高岡市内関川大橋そば",
    "games": [
      "クイズマジックアカデミー"
    ]
  },
  {
    "name": "タイトーFステーション上越店",
    "operation_time": "",
    "holiday": "",
    "latitude": "37.148097",
    "longitude": "138.259034",
    "tel": "025-530-7115",
    "address": "上越市富岡3524J-maxシアター内1F",
    "access": "J-MAXシアター1F",
    "games": [
      "クイズマジックアカデミー"
    ]
  },
  {
    "name": "楽市楽座イオンモール扶桑店",
    "operation_time": "10:00～21:00",
    "holiday": "無し",
    "latitude": "35.36209526",
    "longitude": "136.8990146",
    "tel": "0587-93-7132",
    "address": "丹羽郡扶桑町南山名字高塚5イオンモール扶桑2F",
    "access": "名鉄犬山線「扶桑駅」より車で10分。イオン扶桑店2F。",
    "games": [
      "クイズマジックアカデミー"
    ]
  },
  {
    "name": "ユーズランド下田店",
    "operation_time": "10:00～21:00",
    "holiday": "無し",
    "latitude": "40.60188383",
    "longitude": "141.4176032",
    "tel": "0178-50-3237",
    "address": "上北郡おいらせ町中野平40-1イオンモール下田1F",
    "access": "イオン下田SC1・2FJR下田駅よりバスで10分八戸市より車で約15km、三沢市より車で約15km",
    "games": [
      "クイズマジックアカデミー"
    ]
  },
  {
    "name": "GiGOトナリエ四日市",
    "operation_time": "",
    "holiday": "",
    "latitude": "34.96844971",
    "longitude": "136.6166023",
    "tel": "059-356-3385",
    "address": "四日市市安島1-3-31トナリエ四日市5F",
    "access": "",
    "games": [
      "クイズマジックアカデミー"
    ]
  },
  {
    "name": "アミューズメントスペースコミ丸四日市店",
    "operation_time": "",
    "holiday": "",
    "latitude": "34.96631",
    "longitude": "136.61633",
    "tel": "059-325-7685",
    "address": "四日市市鵜の森1-3-19",
    "access": "",
    "games": [
      "クイズマジックアカデミー"
    ]
  },
  {
    "name": "アピナ四日市店",
    "operation_time": "",
    "holiday": "",
    "latitude": "34.94000426",
    "longitude": "136.6070666",
    "tel": "059-349-5011",
    "address": "四日市市泊小柳町4-34",
    "access": "",
    "games": [
      "クイズマジックアカデミー"
    ]
  },
  {
    "name": "アミパラ鈴鹿店",
    "operation_time": "",
    "holiday": "",
    "latitude": "34.87499148",
    "longitude": "136.5708677",
    "tel": "059-381-6622",
    "address": "鈴鹿市西條町字東澤430-1",
    "access": "",
    "games": [
      "クイズマジックアカデミー"
    ]
  },
  {
    "name": "楽市街道022名古屋店1F",
    "operation_time": "10:00～24:00",
    "holiday": "無し",
    "latitude": "35.23957843",
    "longitude": "136.848742",
    "tel": "0568-27-2622",
    "address": "北名古屋市中之郷字神明45-1-1F",
    "access": "22号線バイパス沿い",
    "games": [
      "クイズマジックアカデミー"
    ]
  },
  {
    "name": "アミューズメントワールドメトロポリス小牧店",
    "operation_time": "平日10:00～23:50 土日祝日前 9:00～23:50",
    "holiday": "無し",
    "latitude": "35.2951722",
    "longitude": "136.905659",
    "tel": "0568-71-0005",
    "address": "小牧市村中新町33",
    "access": "名神高速小牧インターより南へ1km R41号間々本町交差点角",
    "games": [
      "クイズマジックアカデミー"
    ]
  },
  {
    "name": "メジャーロード黒埼店",
    "operation_time": "8:00～24:00",
    "holiday": "無し",
    "latitude": "37.8682122",
    "longitude": "139.0173084",
    "tel": "025-370-7300",
    "address": "新潟市西区山田3303",
    "access": "黒埼IC降りて国道8号を白根方面へ走りサントノーレ裏。",
    "games": [
      "クイズマジックアカデミー"
    ]
  },
  {
    "name": "ファンタジープラザ名古屋店",
    "operation_time": "10:00～翌5:00",
    "holiday": "無し",
    "latitude": "35.22569311",
    "longitude": "136.908786",
    "tel": "052-938-3461",
    "address": "名古屋市北区玄馬町234-1クロスタウン2F",
    "access": "比良駅徒歩6分/大我麻交差点付近",
    "games": [
      "クイズマジックアカデミー"
    ]
  },
  {
    "name": "コムテックタワー",
    "operation_time": "平日10:00～24:00、土日祝9:00～24:00",
    "holiday": "",
    "latitude": "35.16941986",
    "longitude": "136.885993",
    "tel": "052-565-6471",
    "address": "名古屋市中村区名駅4-10-20",
    "access": "JR名古屋駅徒歩5分",
    "games": [
      "クイズマジックアカデミー"
    ]
  },
  {
    "name": "アピナ鶴岡店",
    "operation_time": "",
    "holiday": "",
    "latitude": "38.75839782",
    "longitude": "139.8439993",
    "tel": "0235-29-1141",
    "address": "鶴岡市文下字広野1-1",
    "access": "",
    "games": [
      "クイズマジックアカデミー"
    ]
  },
  {
    "name": "キングジョイ",
    "operation_time": "9:00～24:00",
    "holiday": "無し",
    "latitude": "35.16797694",
    "longitude": "136.9050444",
    "tel": "052-241-9515",
    "address": "名古屋市中区栄3-3-32",
    "access": "地下鉄栄駅徒歩3分",
    "games": [
      "クイズマジックアカデミー"
    ]
  },
  {
    "name": "ゆりの木ボウル",
    "operation_time": "",
    "holiday": "",
    "latitude": "40.506688",
    "longitude": "141.493379",
    "tel": "0178-45-1022",
    "address": "八戸市鷹匠小路10-3",
    "access": "",
    "games": [
      "クイズマジックアカデミー"
    ]
  },
  {
    "name": "スイーツ･ハートイオン春日井店",
    "operation_time": "",
    "holiday": "",
    "latitude": "35.237945",
    "longitude": "136.962431",
    "tel": "0568-41-9409",
    "address": "春日井市柏井町4-17イオン春日井店内4F",
    "access": "",
    "games": [
      "クイズマジックアカデミー"
    ]
  },
  {
    "name": "モーリーファンタジーf新潟亀田インター",
    "operation_time": "9:00～22:00",
    "holiday": "無し",
    "latitude": "37.87624975",
    "longitude": "139.0816577",
    "tel": "070-3100-4212",
    "address": "新潟市江南区下早通柳田1-1-1イオンモール新潟亀田インター2F",
    "access": "新潟亀田ICから約5分。 JR新潟駅から約4キロ、JR亀田駅から約2.5キロ",
    "games": [
      "クイズマジックアカデミー"
    ]
  },
  {
    "name": "タイトーステーションフェドラ大須店",
    "operation_time": "10:00～24:00",
    "holiday": "無し",
    "latitude": "35.15945319",
    "longitude": "136.9054236",
    "tel": "052-242-2011",
    "address": "名古屋市中区大須3-30-31萬松寺駐車場ビル1F･2F",
    "access": "地下鉄名城線上前津駅より徒歩1分",
    "games": [
      "クイズマジックアカデミー"
    ]
  },
  {
    "name": "コムテックスクウェア金山",
    "operation_time": "9:00～24:00",
    "holiday": "",
    "latitude": "35.14401179",
    "longitude": "136.8999767",
    "tel": "052-321-5601",
    "address": "名古屋市中区金山1-16-8",
    "access": "名鉄金山駅徒歩3分",
    "games": [
      "クイズマジックアカデミー"
    ]
  },
  {
    "name": "ADXマミー春日井出川店",
    "operation_time": "",
    "holiday": "",
    "latitude": "35.26729521",
    "longitude": "137.012739",
    "tel": "0568-54-8590",
    "address": "春日井市不二が丘1-5",
    "access": "",
    "games": [
      "クイズマジックアカデミー"
    ]
  },
  {
    "name": "名古屋レジャーランド内田橋店",
    "operation_time": "一部24時間営業",
    "holiday": "無し",
    "latitude": "35.1137072",
    "longitude": "136.9098069",
    "tel": "052-694-6051",
    "address": "名古屋市南区内田橋2-26-22",
    "access": "名鉄常滑線豊田本町駅近く",
    "games": [
      "クイズマジックアカデミー"
    ]
  },
  {
    "name": "タイトーFステーション燕三条店",
    "operation_time": "平日11:00～24:00 土日祝日9:00～24:00",
    "holiday": "無し",
    "latitude": "37.6505843",
    "longitude": "138.9342711",
    "tel": "0256-66-4015",
    "address": "燕市井土巻3-150イオン県央店アメニティ棟1F",
    "access": "上越新幹線・弥彦線 燕三条駅より徒歩五分",
    "games": [
      "クイズマジックアカデミー"
    ]
  },
  {
    "name": "ららぽーと",
    "operation_time": "一部24時間営業",
    "holiday": "無し",
    "latitude": "37.7144672",
    "longitude": "139.0026602",
    "tel": "025-375-5425",
    "address": "新潟市南区茨曽根2433",
    "access": "高速「巻潟東IC」より車で30分。ICをおり国道460号線より国道8号線を左折。国道沿い右側。",
    "games": [
      "クイズマジックアカデミー"
    ]
  },
  {
    "name": "アピナ長岡店",
    "operation_time": "10:00～24:00",
    "holiday": "無し",
    "latitude": "37.45794202",
    "longitude": "138.8125194",
    "tel": "0258-22-5510",
    "address": "長岡市堺東町22",
    "access": "国道8号線長岡バイパス堺交差点近く",
    "games": [
      "クイズマジックアカデミー"
    ]
  },
  {
    "name": "メジャーロード見附店EAST",
    "operation_time": "10:00～24:00",
    "holiday": "無し",
    "latitude": "37.54347146",
    "longitude": "138.8916293",
    "tel": "0258-61-4515",
    "address": "見附市今町4-12-20",
    "access": "高速「中之島見附IC」より車で5分。国道8号線を北上し「今町」交差点先の右側。",
    "games": [
      "クイズマジックアカデミー"
    ]
  },
  {
    "name": "ゲームパニック大高",
    "operation_time": "9:00～23:45",
    "holiday": "無し",
    "latitude": "35.04850561",
    "longitude": "136.9496236",
    "tel": "052-625-5360",
    "address": "名古屋市緑区忠治山201グランドボウルB2F",
    "access": "国道23号線大高町共和IC側道グランドボウルB2階",
    "games": [
      "クイズマジックアカデミー"
    ]
  },
  {
    "name": "ゲームセンターテクノポリス",
    "operation_time": "10:00～24:00",
    "holiday": "無し",
    "latitude": "37.42498834",
    "longitude": "138.8377613",
    "tel": "0258-33-1516",
    "address": "長岡市要町1-8-50",
    "access": "JR「宮内駅」西口より徒歩で5分。県道498号線沿い。",
    "games": [
      "クイズマジックアカデミー"
    ]
  },
  {
    "name": "タイトーFステーション南紀",
    "operation_time": "10:00～21:00",
    "holiday": "無し",
    "latitude": "33.67212987",
    "longitude": "135.9704993",
    "tel": "0735-31-3375",
    "address": "新宮市佐野3-11-19スーパーセンターオオクワ1F",
    "access": "JR紀勢本線紀伊佐野駅下車徒歩10分",
    "games": [
      "クイズマジックアカデミー"
    ]
  },
  {
    "name": "アピナ大橋店",
    "operation_time": "10:00～24:00",
    "holiday": "無し",
    "latitude": "36.6265199",
    "longitude": "138.2003591",
    "tel": "026-225-8765",
    "address": "長野市若里7-9-12",
    "access": "R18号長野大橋北側",
    "games": [
      "クイズマジックアカデミー"
    ]
  },
  {
    "name": "ユーズランド東浦店",
    "operation_time": "10:00～21:00",
    "holiday": "無し",
    "latitude": "34.97885364",
    "longitude": "136.9741411",
    "tel": "0562-82-2782",
    "address": "知多郡東浦町大字緒川字旭13-2イオンモール東浦2F",
    "access": "イオン東浦SC2FJR緒川駅より徒歩5分知多半島道路東浦知多ICより約4km",
    "games": [
      "クイズマジックアカデミー"
    ]
  },
  {
    "name": "MEGAGET釧路",
    "operation_time": "",
    "holiday": "",
    "latitude": "43.00909715",
    "longitude": "144.4083287",
    "tel": "0154-38-1666",
    "address": "釧路郡釧路町木場2-1",
    "access": "",
    "games": [
      "クイズマジックアカデミー"
    ]
  },
  {
    "name": "ゲームダイコク",
    "operation_time": "",
    "holiday": "",
    "latitude": "34.880273",
    "longitude": "136.916512",
    "tel": "0569-24-1316",
    "address": "半田市青山2-27-1",
    "access": "",
    "games": [
      "クイズマジックアカデミー"
    ]
  },
  {
    "name": "半田メトロポリス",
    "operation_time": "平日10:00～23:50 土日祝日前 9:00～23:50",
    "holiday": "無し",
    "latitude": "34.87469206",
    "longitude": "136.9217723",
    "tel": "0569-24-5226",
    "address": "半田市旭町3-11-1半田コロナワールド内2F",
    "access": "JR武豊線東成岩駅より徒歩1分",
    "games": [
      "クイズマジックアカデミー"
    ]
  },
  {
    "name": "アピナ松本",
    "operation_time": "10:00～24:00",
    "holiday": "無し",
    "latitude": "36.21052692",
    "longitude": "137.9610526",
    "tel": "0263-24-1133",
    "address": "松本市双葉19-10",
    "access": "国道19号線沿い、イトーヨーカドーそば",
    "games": [
      "クイズマジックアカデミー"
    ]
  },
  {
    "name": "GiGO伊勢",
    "operation_time": "",
    "holiday": "",
    "latitude": "34.492142",
    "longitude": "136.678061",
    "tel": "0596-21-1243",
    "address": "伊勢市中須町666",
    "access": "",
    "games": [
      "クイズマジックアカデミー"
    ]
  },
  {
    "name": "HapipiLand十日町店",
    "operation_time": "",
    "holiday": "",
    "latitude": "37.13648",
    "longitude": "138.7456",
    "tel": "080-7143-5507",
    "address": "十日町市丑735-1",
    "access": "",
    "games": [
      "クイズマジックアカデミー"
    ]
  },
  {
    "name": "アピナ塩尻店",
    "operation_time": "10:00～24:00",
    "holiday": "無し",
    "latitude": "36.14140932",
    "longitude": "137.9536147",
    "tel": "026-351-5511",
    "address": "塩尻市広丘野村1794-1",
    "access": "国道19号線沿い野村交差点から塩尻方面",
    "games": [
      "クイズマジックアカデミー"
    ]
  },
  {
    "name": "M'Sパーク豊田店",
    "operation_time": "一部24時間営業",
    "holiday": "",
    "latitude": "35.0565113",
    "longitude": "137.1404324",
    "tel": "0565-71-0027",
    "address": "豊田市寿町3-10-11",
    "access": "愛知環状鉄道三河豊田駅10分。名鉄三河線土橋駅より徒歩10分。",
    "games": [
      "クイズマジックアカデミー"
    ]
  },
  {
    "name": "アピナ上田店",
    "operation_time": "",
    "holiday": "",
    "latitude": "36.416102",
    "longitude": "138.223307",
    "tel": "0268-75-8055",
    "address": "上田市秋和359-1",
    "access": "",
    "games": [
      "クイズマジックアカデミー"
    ]
  },
  {
    "name": "タイトーステーション盛岡マッハランド店",
    "operation_time": "10:00～24:00",
    "holiday": "無し",
    "latitude": "39.723902",
    "longitude": "141.126913",
    "tel": "019-648-1408",
    "address": "盛岡市上堂1-2-38",
    "access": "国道4号線沿い、マッハランド内。",
    "games": [
      "クイズマジックアカデミー"
    ]
  },
  {
    "name": "安城メトロポリス",
    "operation_time": "平日10:00～24:00、土日祝日9:00～24:00",
    "holiday": "無し",
    "latitude": "34.95485697",
    "longitude": "137.0975854",
    "tel": "0566-74-8238",
    "address": "安城市浜富町6-8",
    "access": "JR東海道本線安城駅より車で3分・徒歩10分",
    "games": [
      "クイズマジックアカデミー"
    ]
  },
  {
    "name": "ADXマミー岡崎店",
    "operation_time": "",
    "holiday": "",
    "latitude": "34.97692806",
    "longitude": "137.161659",
    "tel": "0564-83-6262",
    "address": "岡崎市井田新町6-1",
    "access": "",
    "games": [
      "クイズマジックアカデミー"
    ]
  },
  {
    "name": "GiGO北岡崎",
    "operation_time": "9:00～24:00",
    "holiday": "無し",
    "latitude": "34.97365547",
    "longitude": "137.1600268",
    "tel": "070-1393-5583",
    "address": "岡崎市錦町2-4",
    "access": "国道248号線沿い、愛知環状線北岡崎駅から徒歩3分",
    "games": [
      "クイズマジックアカデミー"
    ]
  },
  {
    "name": "GiGO新庄",
    "operation_time": "",
    "holiday": "",
    "latitude": "38.76416135",
    "longitude": "140.3089553",
    "tel": "080-7037-0268",
    "address": "新庄市金沢字沖1068",
    "access": "",
    "games": [
      "クイズマジックアカデミー"
    ]
  },
  {
    "name": "ゲームゾーン岡谷",
    "operation_time": "",
    "holiday": "",
    "latitude": "36.0601829",
    "longitude": "138.0483111",
    "tel": "0266-78-6008",
    "address": "岡谷市中央町2-2-1",
    "access": "",
    "games": [
      "クイズマジックアカデミー"
    ]
  },
  {
    "name": "プレイゾーンバンブー",
    "operation_time": "11:00～24:00",
    "holiday": "無し",
    "latitude": "37.051028",
    "longitude": "138.868007",
    "tel": "025-782-5277",
    "address": "南魚沼市竹俣60-6",
    "access": "JR「六日町」より車で5分。国道17号線沿い。",
    "games": [
      "クイズマジックアカデミー"
    ]
  },
  {
    "name": "ポート24幸田",
    "operation_time": "10:00～24:00",
    "holiday": "無休",
    "latitude": "34.89016302",
    "longitude": "137.1632649",
    "tel": "0564-63-6588",
    "address": "額田郡幸田町大字高力字沖原15カメリアガーデン幸田内",
    "access": "東名高速音羽蒲郡ICから車で30分",
    "games": [
      "クイズマジックアカデミー"
    ]
  },
  {
    "name": "アピナ伊那店",
    "operation_time": "10:00～24:00",
    "holiday": "無し",
    "latitude": "35.83291352",
    "longitude": "137.950739",
    "tel": "0265-74-8885",
    "address": "伊那市西町5093",
    "access": "アピタ伊那店さんそばエンジョイナ内",
    "games": [
      "クイズマジックアカデミー"
    ]
  },
  {
    "name": "PALO諏訪",
    "operation_time": "",
    "holiday": "",
    "latitude": "36.00551011",
    "longitude": "138.1283942",
    "tel": "070-3100-3453",
    "address": "諏訪市沖田町5-18ステーションパーク諏訪内",
    "access": "",
    "games": [
      "クイズマジックアカデミー"
    ]
  },
  {
    "name": "ソユーファミリーゲームフィールド花巻店",
    "operation_time": "",
    "holiday": "",
    "latitude": "39.38633946",
    "longitude": "141.1360354",
    "tel": "0198-21-1030",
    "address": "花巻市高木第16地割68-6銀河モール花巻内",
    "access": "",
    "games": [
      "クイズマジックアカデミー"
    ]
  },
  {
    "name": "アピナ飯田店",
    "operation_time": "10:00～24:00",
    "holiday": "無し",
    "latitude": "35.52993571",
    "longitude": "137.8596325",
    "tel": "026-559-7711",
    "address": "飯田市座光寺3728-1",
    "access": "国道153号線座光寺交差点近く",
    "games": [
      "クイズマジックアカデミー"
    ]
  },
  {
    "name": "アピナ佐久インター店",
    "operation_time": "10:00～24:00",
    "holiday": "無し",
    "latitude": "36.284455",
    "longitude": "138.482344",
    "tel": "026-778-3399",
    "address": "佐久市岩村田北1-13-1",
    "access": "佐久インター近く",
    "games": [
      "クイズマジックアカデミー"
    ]
  },
  {
    "name": "GiGO天童",
    "operation_time": "10:00～24:00",
    "holiday": "無し",
    "latitude": "38.34302924",
    "longitude": "140.3739732",
    "tel": "023-656-9370",
    "address": "天童市南町1-5-26",
    "access": "JR「天童駅」より車で10分。国道13号線を南下し国道沿い左側。",
    "games": [
      "クイズマジックアカデミー"
    ]
  },
  {
    "name": "パルケデアミーゴ",
    "operation_time": "",
    "holiday": "",
    "latitude": "38.28378194",
    "longitude": "140.3216374",
    "tel": "023-682-1613",
    "address": "山形市嶋北1-3-1",
    "access": "",
    "games": [
      "クイズマジックアカデミー"
    ]
  },
  {
    "name": "テクノワールド",
    "operation_time": "店舗にてご確認ください",
    "holiday": "無し",
    "latitude": "39.179225",
    "longitude": "141.162155",
    "tel": "0197-47-3619",
    "address": "奥州市江刺愛宕梁川127-1",
    "access": "",
    "games": [
      "クイズマジックアカデミー"
    ]
  },
  {
    "name": "群馬レジャーランド渋川店",
    "operation_time": "",
    "holiday": "",
    "latitude": "36.4742053",
    "longitude": "139.0154654",
    "tel": "0279-25-0718",
    "address": "渋川市八木原1364",
    "access": "",
    "games": [
      "クイズマジックアカデミー"
    ]
  },
  {
    "name": "GiGO会津若松",
    "operation_time": "9:00～24:00",
    "holiday": "無し",
    "latitude": "37.51832577",
    "longitude": "139.9222191",
    "tel": "0242-37-0777",
    "address": "会津若松市町北町上荒久田字宮下142",
    "access": "磐越道会津若松IC側",
    "games": [
      "クイズマジックアカデミー"
    ]
  },
  {
    "name": "ポート24浜松店",
    "operation_time": "10:00～24:00",
    "holiday": "無休",
    "latitude": "34.68017431",
    "longitude": "137.6443768",
    "tel": "053-440-5588",
    "address": "浜松市中央区坪井町4183",
    "access": "東名高速浜松西ICから車で15分",
    "games": [
      "クイズマジックアカデミー"
    ]
  },
  {
    "name": "ユーズランド高崎店",
    "operation_time": "10:00～21:00",
    "holiday": "",
    "latitude": "36.39047889",
    "longitude": "139.0067302",
    "tel": "027-310-9113",
    "address": "高崎市棟高町1400イオン高崎SC2F",
    "access": "",
    "games": [
      "クイズマジックアカデミー"
    ]
  },
  {
    "name": "群馬レジャーランド高崎駅東口店",
    "operation_time": "一部24時間営業",
    "holiday": "無し",
    "latitude": "36.32992086",
    "longitude": "139.0128661",
    "tel": "027-330-3002",
    "address": "高崎市江木町333-1高崎EXビル2F",
    "access": "JR高崎駅東口徒歩10分",
    "games": [
      "クイズマジックアカデミー"
    ]
  },
  {
    "name": "群馬レジャーランド前橋店",
    "operation_time": "",
    "holiday": "",
    "latitude": "36.40497647",
    "longitude": "139.0794189",
    "tel": "050-1726-4972",
    "address": "前橋市日吉町4-37-1",
    "access": "",
    "games": [
      "クイズマジックアカデミー"
    ]
  },
  {
    "name": "マトリクス前橋店",
    "operation_time": "10:00～24:00",
    "holiday": "無し",
    "latitude": "36.37294244",
    "longitude": "139.059637",
    "tel": "027-212-3133",
    "address": "前橋市小相木町563-3",
    "access": "県道13号線小相木交差点を高崎方面へ150m",
    "games": [
      "クイズマジックアカデミー"
    ]
  },
  {
    "name": "ゲームパニック甲府",
    "operation_time": "",
    "holiday": "",
    "latitude": "35.64182781",
    "longitude": "138.547239",
    "tel": "080-3350-2893",
    "address": "甲府市国母5-20-24",
    "access": "",
    "games": [
      "クイズマジックアカデミー"
    ]
  },
  {
    "name": "アピナ富谷店",
    "operation_time": "",
    "holiday": "",
    "latitude": "38.36528256",
    "longitude": "140.8765988",
    "tel": "022-341-5177",
    "address": "富谷市大清水1-33-1イオンモール109シネマズ富谷1F",
    "access": "",
    "games": [
      "クイズマジックアカデミー"
    ]
  },
  {
    "name": "群馬レジャーランド藤岡店",
    "operation_time": "一部24時間営業",
    "holiday": "",
    "latitude": "36.27426745",
    "longitude": "139.0718857",
    "tel": "0274-40-2371",
    "address": "藤岡市中2002-1",
    "access": "県道13号沿い、上信越道藤岡IC北 カーオプション店『ピット100』2階",
    "games": [
      "クイズマジックアカデミー"
    ]
  },
  {
    "name": "GAME BANK",
    "operation_time": "9:00～24:00",
    "holiday": "無し",
    "latitude": "38.352801",
    "longitude": "140.877385",
    "tel": "022-776-5677",
    "address": "仙台市泉区大沢2-5-4",
    "access": "東北自動車道 泉インター直ぐ",
    "games": [
      "クイズマジックアカデミー"
    ]
  },
  {
    "name": "インターワールド伊勢崎店",
    "operation_time": "10:00～24:00",
    "holiday": "無し",
    "latitude": "36.3315169",
    "longitude": "139.1624928",
    "tel": "0270-25-4338",
    "address": "伊勢崎市宮子町3425-4",
    "access": "関東自動車道駒形ICから5分。伊勢崎オートレース近く",
    "games": [
      "クイズマジックアカデミー"
    ]
  },
  {
    "name": "群馬レジャーランド伊勢崎店",
    "operation_time": "一部24時間営業",
    "holiday": "無し",
    "latitude": "36.31824274",
    "longitude": "139.1723592",
    "tel": "0270-40-5330",
    "address": "伊勢崎市連取町3066-1",
    "access": "伊勢崎市内県道2号線沿い伊勢崎オート近く",
    "games": [
      "クイズマジックアカデミー"
    ]
  },
  {
    "name": "GiGO仙台一番町",
    "operation_time": "",
    "holiday": "",
    "latitude": "38.26424",
    "longitude": "140.87121",
    "tel": "022-393-6746",
    "address": "仙台市青葉区一番町4-5-13サンシャインビル1F",
    "access": "",
    "games": [
      "クイズマジックアカデミー"
    ]
  },
  {
    "name": "タイトーステーション仙台クリスロード店",
    "operation_time": "9:00～24:00",
    "holiday": "無し",
    "latitude": "38.261006",
    "longitude": "140.875705",
    "tel": "022-262-2541",
    "address": "仙台市青葉区中央2-3-25",
    "access": "JR仙台駅・地下鉄仙台駅より徒歩8分(ハピナ名掛丁アーケード内)",
    "games": [
      "クイズマジックアカデミー"
    ]
  },
  {
    "name": "GiGO仙台",
    "operation_time": "",
    "holiday": "",
    "latitude": "38.26181",
    "longitude": "140.87675",
    "tel": "022-211-1922",
    "address": "仙台市青葉区中央2-5-5三経60ビル",
    "access": "",
    "games": [
      "クイズマジックアカデミー"
    ]
  },
  {
    "name": "タイトーステーション仙台名掛丁店",
    "operation_time": "9:00～24:00",
    "holiday": "無し",
    "latitude": "38.262028",
    "longitude": "140.879112",
    "tel": "022-215-1664",
    "address": "仙台市青葉区中央1-7-13",
    "access": "JR仙台駅・地下鉄仙台駅より徒歩5分(ハピナ名掛丁アケード内)",
    "games": [
      "クイズマジックアカデミー"
    ]
  },
  {
    "name": "タイトーステーション仙台ベガロポリス店",
    "operation_time": "10:00～24:00",
    "holiday": "無し",
    "latitude": "38.21973354",
    "longitude": "140.8479417",
    "tel": "022-307-3685",
    "address": "仙台市太白区西多賀5-24-1",
    "access": "国道286号沿い、JR長町駅より車で10分",
    "games": [
      "クイズマジックアカデミー"
    ]
  },
  {
    "name": "GiGO利府",
    "operation_time": "10:00～24:00",
    "holiday": "無し",
    "latitude": "38.32801132",
    "longitude": "140.9756135",
    "tel": "080-7500-4898",
    "address": "宮城郡利府町加瀬字新前谷地55-1",
    "access": "三陸自動車道 利府中IC下車利府バイパス沿い車で5分",
    "games": [
      "クイズマジックアカデミー"
    ]
  },
  {
    "name": "ユーズランド大河原店",
    "operation_time": "10:00～21:00",
    "holiday": "",
    "latitude": "38.065153",
    "longitude": "140.737021",
    "tel": "0224-51-1237",
    "address": "柴田郡大河原町字小島2-1フォルテ2F",
    "access": "",
    "games": [
      "クイズマジックアカデミー"
    ]
  },
  {
    "name": "GiGO福島南",
    "operation_time": "10:00～24:00",
    "holiday": "無し",
    "latitude": "37.72791083",
    "longitude": "140.4671033",
    "tel": "024-544-0280",
    "address": "福島市黒岩字中島7-2",
    "access": "高速福島西ICより車で15分。国道4号線を右折し「黒岩」交差点手前左側。",
    "games": [
      "クイズマジックアカデミー"
    ]
  },
  {
    "name": "ゲームコーナー東部",
    "operation_time": "9:00～24:00",
    "holiday": "無し",
    "latitude": "38.25101621",
    "longitude": "140.9438974",
    "tel": "022-287-5880",
    "address": "仙台市若林区六丁の目中町26-60",
    "access": "六丁目の交差点より多賀城方面へ向かい車で5分。産業通り沿い。",
    "games": [
      "クイズマジックアカデミー"
    ]
  },
  {
    "name": "アピナ大須賀店",
    "operation_time": "",
    "holiday": "",
    "latitude": "34.6769718",
    "longitude": "137.9692623",
    "tel": "0537-63-4650",
    "address": "掛川市西大渕3359ロックタウン内",
    "access": "",
    "games": [
      "クイズマジックアカデミー"
    ]
  },
  {
    "name": "ビデオゲームミュージアムロボット深谷店",
    "operation_time": "10:00～24:00",
    "holiday": "無し",
    "latitude": "36.17966807",
    "longitude": "139.2987761",
    "tel": "048-573-3951",
    "address": "深谷市上柴町西4-12-1",
    "access": "",
    "games": [
      "クイズマジックアカデミー"
    ]
  },
  {
    "name": "群馬レジャーランド太田店",
    "operation_time": "一部24時間営業",
    "holiday": "無し",
    "latitude": "36.26802219",
    "longitude": "139.3761382",
    "tel": "0276-47-8030",
    "address": "太田市西矢島町162-2",
    "access": "",
    "games": [
      "クイズマジックアカデミー"
    ]
  },
  {
    "name": "ユーズランド太田店",
    "operation_time": "10:00～21:00",
    "holiday": "無し",
    "latitude": "36.29327372",
    "longitude": "139.4001931",
    "tel": "0276-47-8722",
    "address": "太田市石原町81イオンモール太田2F",
    "access": "イオン太田SC2F東武伊勢崎線太田駅よりバスで10分東北道館林ICよりR354～R122(太田バイパス)経由約30分",
    "games": [
      "クイズマジックアカデミー"
    ]
  },
  {
    "name": "アピナ太田店",
    "operation_time": "10:00～24:00",
    "holiday": "無し",
    "latitude": "36.28282169",
    "longitude": "139.3983139",
    "tel": "0276-48-1489",
    "address": "太田市内ヶ島町907-1",
    "access": "太田駅より車で5分富士重工近く",
    "games": [
      "クイズマジックアカデミー"
    ]
  },
  {
    "name": "タイトーFステーション郡山オリエントパーク店",
    "operation_time": "",
    "holiday": "",
    "latitude": "37.37465045",
    "longitude": "140.3487929",
    "tel": "024-946-8222",
    "address": "郡山市安積町荒井字大久保35-1",
    "access": "",
    "games": [
      "クイズマジックアカデミー"
    ]
  },
  {
    "name": "ドラマ足利店",
    "operation_time": "10:00～24:00",
    "holiday": "無し",
    "latitude": "36.32220259",
    "longitude": "139.4503607",
    "tel": "0284-73-9559",
    "address": "足利市朝倉町244-1",
    "access": "東武伊勢崎線足利市駅より徒歩10分",
    "games": [
      "クイズマジックアカデミー"
    ]
  },
  {
    "name": "タイトーFステーション郡山アティ店",
    "operation_time": "",
    "holiday": "",
    "latitude": "37.3969187",
    "longitude": "140.3875023",
    "tel": "024-990-2368",
    "address": "郡山市駅前1-16-7郡山アティ7F",
    "access": "",
    "games": [
      "クイズマジックアカデミー"
    ]
  },
  {
    "name": "アップル新北街道店",
    "operation_time": "10:00～24:00",
    "holiday": "無休",
    "latitude": "34.99831803",
    "longitude": "138.4134069",
    "tel": "054-261-9109",
    "address": "静岡市葵区沓谷5-13-4",
    "access": "東名高速静岡ICから車で20分",
    "games": [
      "クイズマジックアカデミー"
    ]
  },
  {
    "name": "アミューズパーク郡山店",
    "operation_time": "店舗にてご確認ください",
    "holiday": "無し",
    "latitude": "37.37446344",
    "longitude": "140.3838207",
    "tel": "0249-44-9898",
    "address": "郡山市安積町日出山2-80",
    "access": "JR郡山駅より車で10分。東部幹線沿い。",
    "games": [
      "クイズマジックアカデミー"
    ]
  },
  {
    "name": "ゲームスペースA-3",
    "operation_time": "10:00～24:00",
    "holiday": "無し",
    "latitude": "37.12433442",
    "longitude": "140.1824915",
    "tel": "0248-23-3421",
    "address": "西白河郡西郷村豊作西15-16-17",
    "access": "新白河駅高原口より徒歩3分",
    "games": [
      "クイズマジックアカデミー"
    ]
  },
  {
    "name": "アピナ焼津店",
    "operation_time": "",
    "holiday": "",
    "latitude": "34.83371431",
    "longitude": "138.3059489",
    "tel": "054-623-8555",
    "address": "焼津市道原585",
    "access": "",
    "games": [
      "クイズマジックアカデミー"
    ]
  },
  {
    "name": "大田原スポーツランド",
    "operation_time": "10:00～翌2:00",
    "holiday": "無し",
    "latitude": "36.85195131",
    "longitude": "139.9934495",
    "tel": "0287-36-7137",
    "address": "那須塩原市一区町104-60",
    "access": "大田原ゴルフセンター入口付近(パチンコニラク前)",
    "games": [
      "クイズマジックアカデミー"
    ]
  },
  {
    "name": "ソユーエンターテイメントスタジオ須賀川店",
    "operation_time": "10:00～24:00",
    "holiday": "",
    "latitude": "37.29827338",
    "longitude": "140.3853001",
    "tel": "0248-63-8918",
    "address": "須賀川市古河105イオンタウン須賀川B棟内",
    "access": "",
    "games": [
      "クイズマジックアカデミー"
    ]
  },
  {
    "name": "namcoフェドラP&D佐野店",
    "operation_time": "10:00～23:00 土日祝9:00～23:00",
    "holiday": "無し",
    "latitude": "36.29729",
    "longitude": "139.605644",
    "tel": "0283-85-9518",
    "address": "佐野市高萩町1340",
    "access": "",
    "games": [
      "クイズマジックアカデミー"
    ]
  },
  {
    "name": "namco宇都宮店",
    "operation_time": "",
    "holiday": "",
    "latitude": "36.54390559",
    "longitude": "139.8915705",
    "tel": "028-638-5011",
    "address": "宇都宮市簗瀬町1606-1P&Dビル",
    "access": "",
    "games": [
      "クイズマジックアカデミー"
    ]
  },
  {
    "name": "キャロム 坂戸店",
    "operation_time": "12:00～翌3:00/祝前日、土曜日 午前5:00まで",
    "holiday": "無し",
    "latitude": "35.95251751",
    "longitude": "139.3985348",
    "tel": "0492-84-7821",
    "address": "坂戸市関間2-151-1",
    "access": "西入間警察署裏",
    "games": [
      "クイズマジックアカデミー"
    ]
  },
  {
    "name": "キャロム青梅店",
    "operation_time": "10:00～翌5:00",
    "holiday": "",
    "latitude": "35.78660433",
    "longitude": "139.2700032",
    "tel": "0428-23-9208",
    "address": "青梅市千ヶ瀬町4-326-1",
    "access": "",
    "games": [
      "クイズマジックアカデミー"
    ]
  },
  {
    "name": "インターパークプラスワン 宇都宮店",
    "operation_time": "9:00～24:00",
    "holiday": "無し",
    "latitude": "36.48822111",
    "longitude": "139.9053211",
    "tel": "028-657-6789",
    "address": "宇都宮市インターパーク6-5-1",
    "access": "国道4号線、北関東自動車道、宇都宮上三川インターインター降りてすぐ",
    "games": [
      "クイズマジックアカデミー"
    ]
  },
  {
    "name": "タイトーFステーションおやまゆうえん店",
    "operation_time": "",
    "holiday": "",
    "latitude": "36.334678",
    "longitude": "139.807785",
    "tel": "0285-25-8661",
    "address": "小山市喜沢1475-52ハーヴェストウォーク内",
    "access": "",
    "games": [
      "クイズマジックアカデミー"
    ]
  },
  {
    "name": "ドラマ瑞穂店",
    "operation_time": "10:00～24:00",
    "holiday": "無し",
    "latitude": "35.76337213",
    "longitude": "139.3568934",
    "tel": "042-556-6605",
    "address": "西多摩郡瑞穂町武蔵382-1",
    "access": "JR八高線「箱根ヶ崎駅」から武蔵村山市方面に徒歩25分",
    "games": [
      "クイズマジックアカデミー"
    ]
  },
  {
    "name": "アピナ小山店",
    "operation_time": "10:00～24:00",
    "holiday": "無し",
    "latitude": "36.300419",
    "longitude": "139.809126",
    "tel": "0285-31-0050",
    "address": "小山市駅南町4-27-18",
    "access": "国道50号線沿い駅南町交差点",
    "games": [
      "クイズマジックアカデミー"
    ]
  },
  {
    "name": "GiGO入間",
    "operation_time": "",
    "holiday": "",
    "latitude": "35.81911",
    "longitude": "139.418219",
    "tel": "070-1458-7167",
    "address": "入間市東藤沢2-18",
    "access": "",
    "games": [
      "クイズマジックアカデミー"
    ]
  },
  {
    "name": "沼津バッティングスタジアム",
    "operation_time": "10:00～24:00",
    "holiday": "無し",
    "latitude": "35.12119847",
    "longitude": "138.8770371",
    "tel": "055-923-4199",
    "address": "沼津市岡一色三竹道19-2",
    "access": "",
    "games": [
      "クイズマジックアカデミー"
    ]
  },
  {
    "name": "アピナ上尾店",
    "operation_time": "",
    "holiday": "",
    "latitude": "35.987191",
    "longitude": "139.579877",
    "tel": "048-783-4747",
    "address": "上尾市緑丘3-3-11-2プリンセス棟別棟",
    "access": "",
    "games": [
      "クイズマジックアカデミー"
    ]
  },
  {
    "name": "ウェアハウス上尾店",
    "operation_time": "10:00～24:00",
    "holiday": "無し",
    "latitude": "35.98142891",
    "longitude": "139.5998843",
    "tel": "048-770-3332",
    "address": "上尾市二ツ宮1044",
    "access": "R17号より蓮田、伊奈方面車で3分",
    "games": [
      "クイズマジックアカデミー"
    ]
  },
  {
    "name": "シルクハット八王子",
    "operation_time": "10:00～24:45",
    "holiday": "",
    "latitude": "35.65636374",
    "longitude": "139.3384725",
    "tel": "",
    "address": "八王子市旭町2-5八王子ツインタワービル3F",
    "access": "JR八王子駅前",
    "games": [
      "クイズマジックアカデミー"
    ]
  },
  {
    "name": "アミューズメントフィールドバイヨン",
    "operation_time": "10:00～24:00",
    "holiday": "無し",
    "latitude": "35.85617882",
    "longitude": "139.522425",
    "tel": "0492-65-1400",
    "address": "ふじみ野市うれし野2-16-1LCモールうれし野2F",
    "access": "東武東上線「ふじみ野」駅徒歩6分ショッピングモールリズム横",
    "games": [
      "クイズマジックアカデミー"
    ]
  },
  {
    "name": "ドラマ八王子高倉店",
    "operation_time": "10:00～24:00",
    "holiday": "無し",
    "latitude": "35.66506526",
    "longitude": "139.3664795",
    "tel": "0426-45-7050",
    "address": "八王子市高倉町55-4",
    "access": "国道20号、八王子市高倉町「高倉町西」交差点を日野バイパス豊田方面右手",
    "games": [
      "クイズマジックアカデミー"
    ]
  },
  {
    "name": "タイトーステーション所沢店",
    "operation_time": "09:00～24:00",
    "holiday": "無し",
    "latitude": "35.7881",
    "longitude": "139.47243",
    "tel": "04-2925-9071",
    "address": "所沢市日吉町3-7",
    "access": "所沢駅西口プロペ通りを徒歩3分",
    "games": [
      "クイズマジックアカデミー"
    ]
  },
  {
    "name": "タイトーステーション立川北口店",
    "operation_time": "",
    "holiday": "",
    "latitude": "35.699058",
    "longitude": "139.412162",
    "tel": "042-512-9651",
    "address": "立川市曙町2-4-5OSJ TACHIKAWA2･3F",
    "access": "",
    "games": [
      "クイズマジックアカデミー"
    ]
  },
  {
    "name": "ウェアハウス三橋店",
    "operation_time": "一部24時間営業",
    "holiday": "無し",
    "latitude": "35.91589833",
    "longitude": "139.5959286",
    "tel": "048-795-8380",
    "address": "さいたま市西区三橋6-955-1",
    "access": "国道17号バイパス三橋六丁目交差点",
    "games": [
      "クイズマジックアカデミー"
    ]
  },
  {
    "name": "アピナ橋本店",
    "operation_time": "10:00～24:00",
    "holiday": "無し",
    "latitude": "35.597682",
    "longitude": "139.337035",
    "tel": "042-703-6033",
    "address": "相模原市緑区西橋本5-1-1ラ･フロール駐車場棟1F",
    "access": "橋本駅から徒歩10分 八王子バイパスから津久井街道へ繋がる側道に入ってすぐ",
    "games": [
      "クイズマジックアカデミー"
    ]
  },
  {
    "name": "キャロム 所沢店",
    "operation_time": "12:00～翌3:00/祝前日、土曜日翌5:00まで",
    "holiday": "無し",
    "latitude": "35.79106583",
    "longitude": "139.5042181",
    "tel": "042-946-2160",
    "address": "所沢市下安松969-1",
    "access": "旧463号沿い",
    "games": [
      "クイズマジックアカデミー"
    ]
  },
  {
    "name": "埼玉スポーツセンター内スクウェアワン サイスポ店",
    "operation_time": "",
    "holiday": "",
    "latitude": "35.823129",
    "longitude": "139.531631",
    "tel": "04-2902-6335",
    "address": "所沢市南永井1116",
    "access": "",
    "games": [
      "クイズマジックアカデミー"
    ]
  },
  {
    "name": "CLUB EXA2号館",
    "operation_time": "",
    "holiday": "",
    "latitude": "35.69616819",
    "longitude": "139.429228",
    "tel": "080-1569-7845",
    "address": "立川市羽衣町2-11-2プランドール立川1F",
    "access": "",
    "games": [
      "クイズマジックアカデミー"
    ]
  },
  {
    "name": "ビッグボウル杉戸",
    "operation_time": "10:00～翌1:00",
    "holiday": "無し",
    "latitude": "36.04028926",
    "longitude": "139.720837",
    "tel": "0480-34-7870",
    "address": "北葛飾郡杉戸町杉戸2338",
    "access": "東武伊勢崎線東武動物公園駅より徒歩30分 国道4号線沿い",
    "games": [
      "クイズマジックアカデミー"
    ]
  },
  {
    "name": "アピナ下館店",
    "operation_time": "10:00～24:00",
    "holiday": "無し",
    "latitude": "36.29325391",
    "longitude": "139.944075",
    "tel": "0296-28-0033",
    "address": "筑西市玉戸1012-3",
    "access": "R50号玉戸信号近く",
    "games": [
      "クイズマジックアカデミー"
    ]
  },
  {
    "name": "埼玉レジャーランド大宮駅東口店",
    "operation_time": "",
    "holiday": "",
    "latitude": "35.90800635",
    "longitude": "139.6245445",
    "tel": "048-788-4340",
    "address": "さいたま市大宮区宮町1-8大宮セントラルビルB1F-2F",
    "access": "",
    "games": [
      "クイズマジックアカデミー"
    ]
  },
  {
    "name": "タイトーステーション大宮店",
    "operation_time": "9:00～翌1:00",
    "holiday": "無し",
    "latitude": "35.907441",
    "longitude": "139.625505",
    "tel": "048-782-5461",
    "address": "さいたま市大宮区大門町1-1",
    "access": "大宮駅東口徒歩1分",
    "games": [
      "クイズマジックアカデミー"
    ]
  },
  {
    "name": "フリスポ下館",
    "operation_time": "",
    "holiday": "",
    "latitude": "36.30255879",
    "longitude": "139.9564543",
    "tel": "0296-22-7552",
    "address": "筑西市神分472",
    "access": "国道50号を下館から小山方面へ10分",
    "games": [
      "クイズマジックアカデミー"
    ]
  },
  {
    "name": "ウェアハウス一橋学園店",
    "operation_time": "",
    "holiday": "",
    "latitude": "35.723438",
    "longitude": "139.480703",
    "tel": "042-349-7600",
    "address": "小平市学園東町1-4-39平山ビル3F",
    "access": "",
    "games": [
      "クイズマジックアカデミー"
    ]
  },
  {
    "name": "GiGO相模原",
    "operation_time": "10:00～24:00",
    "holiday": "無し",
    "latitude": "35.57350902",
    "longitude": "139.3710322",
    "tel": "080-7465-6268",
    "address": "相模原市中央区中央2-1-5ムトス内",
    "access": "JR横浜線相模原駅徒歩15分国道16号線近く",
    "games": [
      "クイズマジックアカデミー"
    ]
  },
  {
    "name": "タイトーステーション国分寺店",
    "operation_time": "",
    "holiday": "",
    "latitude": "35.701889",
    "longitude": "139.480156",
    "tel": "042-401-0592",
    "address": "国分寺市本町3-5-11",
    "access": "",
    "games": [
      "クイズマジックアカデミー"
    ]
  },
  {
    "name": "Amusement&Game MAGHREB",
    "operation_time": "10:00～24:00",
    "holiday": "無し",
    "latitude": "35.624024",
    "longitude": "139.423196",
    "tel": "042-371-5556",
    "address": "多摩市落合1-39-2マグレブビル1F",
    "access": "京王線・小田急線 多摩センター駅 徒歩3分/多摩モノレール多摩センター駅 徒歩1分",
    "games": [
      "クイズマジックアカデミー"
    ]
  },
  {
    "name": "ウェアハウス岩槻店",
    "operation_time": "7:00～23:45",
    "holiday": "無し",
    "latitude": "35.94092949",
    "longitude": "139.6859268",
    "tel": "048-758-8755",
    "address": "さいたま市岩槻区加倉3-3-63",
    "access": "岩槻IC降りて直ぐ",
    "games": [
      "クイズマジックアカデミー"
    ]
  },
  {
    "name": "埼玉レジャーランド春日部店",
    "operation_time": "一部24時間",
    "holiday": "無し",
    "latitude": "35.95940469",
    "longitude": "139.7289621",
    "tel": "048-763-4061",
    "address": "春日部市大字増富字谷際163-1",
    "access": "国道16号線沿い春日部市増富地内",
    "games": [
      "クイズマジックアカデミー"
    ]
  },
  {
    "name": "タイトーステーション小田原店",
    "operation_time": "10:00～24:00",
    "holiday": "無し",
    "latitude": "35.25494514",
    "longitude": "139.1561641",
    "tel": "0465-23-2473",
    "address": "小田原市栄町1-3-12",
    "access": "小田原駅東口を出てすぐ",
    "games": [
      "クイズマジックアカデミー"
    ]
  },
  {
    "name": "アミューズメントクラブ浦和",
    "operation_time": "10:00～23:45",
    "holiday": "無し",
    "latitude": "35.86027333",
    "longitude": "139.6535096",
    "tel": "048-814-0200",
    "address": "さいたま市浦和区仲町1-10-7",
    "access": "浦和駅西口徒歩8分",
    "games": [
      "クイズマジックアカデミー"
    ]
  },
  {
    "name": "小田原メトロポリス",
    "operation_time": "10:00～24:00",
    "holiday": "無し",
    "latitude": "35.27873519",
    "longitude": "139.1940738",
    "tel": "0465-45-5682",
    "address": "小田原市前川219-4",
    "access": "小田原厚木道路 小田原東I.Cより約20分、富士見橋際交差点 巡礼街道すぐ入る。",
    "games": [
      "クイズマジックアカデミー"
    ]
  },
  {
    "name": "アドアーズ和光店",
    "operation_time": "10:00～23:30",
    "holiday": "無し",
    "latitude": "35.78829096",
    "longitude": "139.6116504",
    "tel": "048-463-5108",
    "address": "和光市本町3-5Million Annex 和光1-3F",
    "access": "和光市駅南口駅前交番前",
    "games": [
      "クイズマジックアカデミー"
    ]
  },
  {
    "name": "タイトーステーション和光店",
    "operation_time": "10:00～24:00",
    "holiday": "無し",
    "latitude": "35.78667068",
    "longitude": "139.613806",
    "tel": "048-465-7161",
    "address": "和光市丸山台1-4-5",
    "access": "東武東上線・和光市駅より徒歩5分",
    "games": [
      "クイズマジックアカデミー"
    ]
  },
  {
    "name": "神奈川レジャーランド厚木店",
    "operation_time": "一部24時間営業",
    "holiday": "無し",
    "latitude": "35.44802433",
    "longitude": "139.3431365",
    "tel": "050-1722-4336",
    "address": "厚木市戸室5-31-1",
    "access": "小田急本厚木駅よりバスにてアンリツ前バス停下車徒歩1分",
    "games": [
      "クイズマジックアカデミー"
    ]
  },
  {
    "name": "GiGO相模大野",
    "operation_time": "",
    "holiday": "",
    "latitude": "35.532177",
    "longitude": "139.436075",
    "tel": "042-741-8195",
    "address": "相模原市南区相模大野3-13-2フレスコビル3F",
    "access": "",
    "games": [
      "クイズマジックアカデミー"
    ]
  },
  {
    "name": "東京レジャーランド吉祥寺店",
    "operation_time": "",
    "holiday": "",
    "latitude": "35.7036243",
    "longitude": "139.5786419",
    "tel": "0422-27-2200",
    "address": "武蔵野市吉祥寺本町1-3-7YSビル",
    "access": "",
    "games": [
      "クイズマジックアカデミー"
    ]
  },
  {
    "name": "タイトーFステーション吉祥寺JOY",
    "operation_time": "",
    "holiday": "",
    "latitude": "35.70436",
    "longitude": "139.57963",
    "tel": "090-7265-2005",
    "address": "武蔵野市吉祥寺本町1-8-23河田ビル",
    "access": "",
    "games": [
      "クイズマジックアカデミー"
    ]
  },
  {
    "name": "タイトーステーション町田店",
    "operation_time": "10:00～24:00",
    "holiday": "無し",
    "latitude": "35.542593",
    "longitude": "139.448333",
    "tel": "042-739-6196",
    "address": "町田市原町田6-21-23松山ビル1F",
    "access": "JR横浜線町田駅より徒歩3分・小田急線町田駅より徒歩5分",
    "games": [
      "クイズマジックアカデミー"
    ]
  },
  {
    "name": "ウェアハウス越谷店",
    "operation_time": "10:00～24:00",
    "holiday": "無し",
    "latitude": "35.91195206",
    "longitude": "139.7637557",
    "tel": "048-973-4311",
    "address": "越谷市大字南荻島841-1",
    "access": "越谷岩槻線沿い、国道4号から車で1分",
    "games": [
      "クイズマジックアカデミー"
    ]
  },
  {
    "name": "タイトーステーション海老名ビナウォーク店",
    "operation_time": "10:00～24:00",
    "holiday": "無し",
    "latitude": "35.452455",
    "longitude": "139.395834",
    "tel": "046-292-5160",
    "address": "海老名市中央1-18-1ビナウォーク6番館2F",
    "access": "JR相模線、相鉄線、小田急線、海老名駅より徒歩5分",
    "games": [
      "クイズマジックアカデミー"
    ]
  },
  {
    "name": "ミラクル イン 中村橋",
    "operation_time": "10:00～24:00",
    "holiday": "無し",
    "latitude": "35.73696054",
    "longitude": "139.6383659",
    "tel": "03-5933-9312",
    "address": "練馬区貫井1-1-2",
    "access": "西武池袋線中村橋駅徒歩2分",
    "games": [
      "クイズマジックアカデミー"
    ]
  },
  {
    "name": "アピナ野田七光台店",
    "operation_time": "",
    "holiday": "",
    "latitude": "35.98235422",
    "longitude": "139.8501674",
    "tel": "0471-27-1137",
    "address": "野田市七光台4-2ロックタウン内",
    "access": "",
    "games": [
      "クイズマジックアカデミー"
    ]
  },
  {
    "name": "タイトーFステーション向ヶ丘遊園店",
    "operation_time": "",
    "holiday": "",
    "latitude": "35.616404",
    "longitude": "139.565109",
    "tel": "044-281-3500",
    "address": "川崎市多摩区登戸2718-1",
    "access": "",
    "games": [
      "クイズマジックアカデミー"
    ]
  },
  {
    "name": "千葉レジャーランド野田店",
    "operation_time": "一部24時間営業",
    "holiday": "無し",
    "latitude": "35.97154747",
    "longitude": "139.8653487",
    "tel": "04-7120-3535",
    "address": "野田市吉春776-1",
    "access": "国道16号線沿い野田市吉春地内",
    "games": [
      "クイズマジックアカデミー"
    ]
  },
  {
    "name": "ゲームシティ川口店",
    "operation_time": "10:00～23:50",
    "holiday": "無し",
    "latitude": "35.80263316",
    "longitude": "139.7255584",
    "tel": "048-250-3855",
    "address": "川口市栄町1-10-5",
    "access": "JR川口駅東口徒歩10分",
    "games": [
      "クイズマジックアカデミー"
    ]
  },
  {
    "name": "ゲームスタジオキューブ高円寺",
    "operation_time": "10:00～翌1:00",
    "holiday": "無し",
    "latitude": "35.7049194",
    "longitude": "139.6495113",
    "tel": "03-3315-4448",
    "address": "杉並区高円寺南4-26-12福丸ビルB1F",
    "access": "JR中央線高円寺駅徒歩2分",
    "games": [
      "クイズマジックアカデミー"
    ]
  },
  {
    "name": "GiGO赤羽",
    "operation_time": "",
    "holiday": "",
    "latitude": "35.778926",
    "longitude": "139.722383",
    "tel": "070-1458-9465",
    "address": "北区赤羽1-7-9赤羽第一葉山ビルB1F",
    "access": "",
    "games": [
      "クイズマジックアカデミー"
    ]
  },
  {
    "name": "ゲームW店",
    "operation_time": "10:00～24:00",
    "holiday": "不定休",
    "latitude": "35.72942259",
    "longitude": "139.6828924",
    "tel": "03-5983-7880",
    "address": "豊島区南長崎5-27-6",
    "access": "西武池袋線 東長崎駅より徒歩2分",
    "games": [
      "クイズマジックアカデミー"
    ]
  },
  {
    "name": "ゲームサファリ大山",
    "operation_time": "10:00～24:00",
    "holiday": "無し",
    "latitude": "35.74900603",
    "longitude": "139.7022497",
    "tel": "03-5248-4743",
    "address": "板橋区大山東町60-10パチンコやすだ2F",
    "access": "東武東上線大山駅徒歩1分",
    "games": [
      "クイズマジックアカデミー"
    ]
  },
  {
    "name": "ウェアハウス入谷店",
    "operation_time": "10:00～24:00",
    "holiday": "無し",
    "latitude": "35.80112943",
    "longitude": "139.760997",
    "tel": "03-3856-5833",
    "address": "足立区入谷7-8-11",
    "access": "足立ICから車で3分",
    "games": [
      "クイズマジックアカデミー"
    ]
  },
  {
    "name": "ユーズランド越谷店",
    "operation_time": "10:00～21:00",
    "holiday": "無し",
    "latitude": "35.87763779",
    "longitude": "139.8247477",
    "tel": "048-934-3342",
    "address": "越谷市レイクタウン4-2-2イオンレイクタウンKAZE 3F",
    "access": "武蔵野線レイクタウン駅下車徒歩1分",
    "games": [
      "クイズマジックアカデミー"
    ]
  },
  {
    "name": "タイトーステーション池袋ロサ店",
    "operation_time": "10:00～24:00",
    "holiday": "無し",
    "latitude": "35.732483",
    "longitude": "139.709305",
    "tel": "03-3982-1270",
    "address": "豊島区西池袋1-37-12ロサ会館1F",
    "access": "JR池袋駅西口、北口より徒歩3分",
    "games": [
      "クイズマジックアカデミー"
    ]
  },
  {
    "name": "タイトーステーション池袋西口店",
    "operation_time": "",
    "holiday": "",
    "latitude": "35.73058948",
    "longitude": "139.709706",
    "tel": "03-6907-3560",
    "address": "豊島区西池袋1-15-9第一西池ビル",
    "access": "",
    "games": [
      "クイズマジックアカデミー"
    ]
  },
  {
    "name": "ゲームサファリ池袋",
    "operation_time": "10:00～24:00",
    "holiday": "無し",
    "latitude": "35.73224113",
    "longitude": "139.7133267",
    "tel": "03-3981-2544",
    "address": "豊島区東池袋1-42-3やすだ東池袋ビル2F",
    "access": "JR山手線池袋駅東口徒歩4分(ビックカメラ本店裏)",
    "games": [
      "クイズマジックアカデミー"
    ]
  },
  {
    "name": "GiGO総本店",
    "operation_time": "",
    "holiday": "",
    "latitude": "35.72930775",
    "longitude": "139.7150562",
    "tel": "080-7018-7351",
    "address": "豊島区東池袋1-13-6ロクマルゲート池袋B1F-3F",
    "access": "",
    "games": [
      "クイズマジックアカデミー"
    ]
  },
  {
    "name": "タイトーステーションBIGBOX高田馬場",
    "operation_time": "10:00～24:00",
    "holiday": "無し",
    "latitude": "35.712933",
    "longitude": "139.70419",
    "tel": "03-5272-9855",
    "address": "新宿区高田馬場1-35-3BIGBOX6F",
    "access": "西武新宿線・高田馬場駅より徒歩1分",
    "games": [
      "クイズマジックアカデミー"
    ]
  },
  {
    "name": "タイトーステーション溝の口店",
    "operation_time": "",
    "holiday": "",
    "latitude": "35.600042",
    "longitude": "139.61245",
    "tel": "044-328-9262",
    "address": "川崎市高津区溝口1-11-8",
    "access": "",
    "games": [
      "クイズマジックアカデミー"
    ]
  },
  {
    "name": "ゲームファクトリーマグマ",
    "operation_time": "～24:00",
    "holiday": "無し",
    "latitude": "35.82819969",
    "longitude": "139.8024875",
    "tel": "0489-24-9800",
    "address": "草加市氷川町2125-1",
    "access": "東武伊勢崎線草加駅徒歩1分",
    "games": [
      "クイズマジックアカデミー"
    ]
  },
  {
    "name": "ゲームパニック新宿歌舞伎町",
    "operation_time": "",
    "holiday": "",
    "latitude": "35.69606337",
    "longitude": "139.7012777",
    "tel": "03-6265-9021",
    "address": "新宿区歌舞伎町1-20-1ヒューマックスパビリオン1-2F",
    "access": "",
    "games": [
      "クイズマジックアカデミー"
    ]
  },
  {
    "name": "GiGO新宿西口",
    "operation_time": "",
    "holiday": "",
    "latitude": "35.68945769",
    "longitude": "139.6973935",
    "tel": "03-3349-0257",
    "address": "新宿区西新宿1-12-5",
    "access": "",
    "games": [
      "クイズマジックアカデミー"
    ]
  },
  {
    "name": "タイトーステーション新宿東口店",
    "operation_time": "10:00～翌1:00",
    "holiday": "無し",
    "latitude": "35.693289",
    "longitude": "139.70154",
    "tel": "03-5362-5108",
    "address": "新宿区新宿3-22-7指田ビル",
    "access": "JR新宿駅東口より徒歩3分 スタジオアルタ裏",
    "games": [
      "クイズマジックアカデミー"
    ]
  },
  {
    "name": "タイトーステーション新宿南口ゲームワールド店",
    "operation_time": "10:00～25:00",
    "holiday": "無し",
    "latitude": "35.689926",
    "longitude": "139.702372",
    "tel": "03-3226-0395",
    "address": "新宿区新宿3-35-8",
    "access": "JR・新宿駅より徒歩1分",
    "games": [
      "クイズマジックアカデミー"
    ]
  },
  {
    "name": "ビリヤードウェアハウス草加店",
    "operation_time": "10:00～24:00",
    "holiday": "無し",
    "latitude": "35.83027597",
    "longitude": "139.8209349",
    "tel": "048-930-5033",
    "address": "草加市稲荷2-36-33",
    "access": "草加産業道路沿いウェアハウス草加店隣り",
    "games": [
      "クイズマジックアカデミー"
    ]
  },
  {
    "name": "ウェアハウス保木間店",
    "operation_time": "10:00～24:00",
    "holiday": "無し",
    "latitude": "35.78913885",
    "longitude": "139.8032547",
    "tel": "03-3860-7822",
    "address": "足立区保木間1-1-19-1F",
    "access": "竹の塚駅より車で7分",
    "games": [
      "クイズマジックアカデミー"
    ]
  },
  {
    "name": "ドラマ港北インター店",
    "operation_time": "10:00～24:00",
    "holiday": "無し",
    "latitude": "35.51925659",
    "longitude": "139.5847927",
    "tel": "045-474-6604",
    "address": "横浜市都筑区東方町321-6",
    "access": "第三京浜港北IC右側交差点左折約500M",
    "games": [
      "クイズマジックアカデミー"
    ]
  },
  {
    "name": "ゲームパニック三郷",
    "operation_time": "",
    "holiday": "",
    "latitude": "35.84215546",
    "longitude": "139.8548102",
    "tel": "048-953-8295",
    "address": "三郷市ピアラシティ1-1-200",
    "access": "",
    "games": [
      "クイズマジックアカデミー"
    ]
  },
  {
    "name": "GAMESPOT VERSUS",
    "operation_time": "10:00～翌1:00",
    "holiday": "無し",
    "latitude": "35.73191",
    "longitude": "139.76804",
    "tel": "03-6806-6343",
    "address": "荒川区西日暮里5-15-10",
    "access": "JR西日暮里駅徒歩5分",
    "games": [
      "クイズマジックアカデミー"
    ]
  },
  {
    "name": "ドラマ藤沢店",
    "operation_time": "10:00～24:00",
    "holiday": "無し",
    "latitude": "35.35751243",
    "longitude": "139.4682681",
    "tel": "0466-82-0328",
    "address": "藤沢市本藤沢5-6-8",
    "access": "小田急江ノ島線善行駅より徒歩15分",
    "games": [
      "クイズマジックアカデミー"
    ]
  },
  {
    "name": "ASO:VIBA!",
    "operation_time": "10:00～24:00",
    "holiday": "無し",
    "latitude": "35.64677066",
    "longitude": "139.7109583",
    "tel": "03-3444-4912",
    "address": "渋谷区恵比寿1-10-5",
    "access": "JR山手線恵比寿駅徒歩1分",
    "games": [
      "クイズマジックアカデミー"
    ]
  },
  {
    "name": "タイトーステーション上野アメ横店",
    "operation_time": "10:00～24:00",
    "holiday": "無し",
    "latitude": "35.710538",
    "longitude": "139.774356",
    "tel": "03-3831-5800",
    "address": "台東区上野4-10-17",
    "access": "上野駅から徒歩2分!アメヤ横丁入ってすぐ",
    "games": [
      "クイズマジックアカデミー"
    ]
  },
  {
    "name": "GiGO綱島",
    "operation_time": "",
    "holiday": "",
    "latitude": "35.5364623",
    "longitude": "139.6324113",
    "tel": "045-547-1199",
    "address": "横浜市港北区綱島西2-6-29城田ビル3F",
    "access": "",
    "games": [
      "クイズマジックアカデミー"
    ]
  },
  {
    "name": "東京レジャーランド秋葉原店",
    "operation_time": "10:00～25:00",
    "holiday": "無し",
    "latitude": "35.69887947",
    "longitude": "139.7701404",
    "tel": "03-5298-1360",
    "address": "千代田区外神田1-9-5",
    "access": "JR秋葉原駅徒歩5分",
    "games": [
      "クイズマジックアカデミー"
    ]
  },
  {
    "name": "東京レジャーランド秋葉原2号店",
    "operation_time": "10:00～25:00",
    "holiday": "無し",
    "latitude": "35.70073433",
    "longitude": "139.7718424",
    "tel": "03-5209-5650",
    "address": "千代田区外神田4-3-3",
    "access": "JR秋葉原駅より徒歩5分",
    "games": [
      "クイズマジックアカデミー"
    ]
  },
  {
    "name": "タイトーステーション秋葉原店",
    "operation_time": "10:00～24:00",
    "holiday": "無し",
    "latitude": "35.70025258",
    "longitude": "139.7716985",
    "tel": "03-5289-8445",
    "address": "千代田区外神田4-2-2貴三ビル",
    "access": "JR秋葉原駅電気街口を出て徒歩3分",
    "games": [
      "クイズマジックアカデミー"
    ]
  },
  {
    "name": "Hey(タイトー)",
    "operation_time": "10:00～24:00",
    "holiday": "無し",
    "latitude": "35.698992",
    "longitude": "139.77108",
    "tel": "03-5209-2030",
    "address": "千代田区外神田1-10-5広瀬本社ビル2F",
    "access": "JR秋葉原駅電気街口を出て徒歩2分",
    "games": [
      "クイズマジックアカデミー"
    ]
  },
  {
    "name": "ゲームパニック秋葉原",
    "operation_time": "",
    "holiday": "",
    "latitude": "35.69891",
    "longitude": "139.77165",
    "tel": "03-6285-2820",
    "address": "千代田区外神田1-13-1第122東京ビル",
    "access": "",
    "games": [
      "クイズマジックアカデミー"
    ]
  },
  {
    "name": "タイトーステーション戸塚西口店",
    "operation_time": "10:00～24:00",
    "holiday": "無し",
    "latitude": "35.399502",
    "longitude": "139.531856",
    "tel": "045-881-6757",
    "address": "横浜市戸塚区戸塚町4023",
    "access": "JR戸塚駅西口・市営地下鉄戸塚駅より徒歩5分。",
    "games": [
      "クイズマジックアカデミー"
    ]
  },
  {
    "name": "ウェアハウス南流山店",
    "operation_time": "10:00～24:00",
    "holiday": "無し",
    "latitude": "35.84020798",
    "longitude": "139.9050111",
    "tel": "04-7159-2351",
    "address": "流山市南流山4-16-6",
    "access": "南流山駅から徒歩3分",
    "games": [
      "クイズマジックアカデミー"
    ]
  },
  {
    "name": "ユーズランド水戸内原店",
    "operation_time": "10:00～21:00",
    "holiday": "",
    "latitude": "36.374428",
    "longitude": "140.3590138",
    "tel": "029-259-1218",
    "address": "水戸市内原2-1イオンモール水戸内原2F",
    "access": "",
    "games": [
      "クイズマジックアカデミー"
    ]
  },
  {
    "name": "東京レジャーランド亀有店",
    "operation_time": "",
    "holiday": "",
    "latitude": "35.765462",
    "longitude": "139.84798",
    "tel": "03-5680-8893",
    "address": "葛飾区亀有3-21-2",
    "access": "",
    "games": [
      "クイズマジックアカデミー"
    ]
  },
  {
    "name": "GiGOデイズタウンつくば",
    "operation_time": "10:00～24:00",
    "holiday": "無休",
    "latitude": "36.07768145",
    "longitude": "140.1153322",
    "tel": "070-1459-0875",
    "address": "つくば市竹園1-9-2デイズタウンつくばB1F",
    "access": "つくば駅徒歩5分デイズタウンつくばB1F",
    "games": [
      "クイズマジックアカデミー"
    ]
  },
  {
    "name": "嶺宝スポーツセンター",
    "operation_time": "11:00～23:00",
    "holiday": "火曜日",
    "latitude": "36.97400283",
    "longitude": "140.8903913",
    "tel": "0246-58-8093",
    "address": "いわき市小名浜住吉字折返2-2",
    "access": "6号バイパス住吉交差点横",
    "games": [
      "クイズマジックアカデミー"
    ]
  },
  {
    "name": "タイトーステーション横浜西口五番街店",
    "operation_time": "平日10:00～23:50 土日祝日9:00～23:50",
    "holiday": "無し",
    "latitude": "35.464648",
    "longitude": "139.619593",
    "tel": "045-411-5288",
    "address": "横浜市西区南幸1-12-9",
    "access": "JR・相鉄線・東横線・みなとみらい線 横浜駅より徒歩3分",
    "games": [
      "クイズマジックアカデミー"
    ]
  },
  {
    "name": "タイトーFステーションオリナス錦糸町店",
    "operation_time": "10:00～23:45",
    "holiday": "無し",
    "latitude": "35.700721",
    "longitude": "139.816024",
    "tel": "03-5610-7376",
    "address": "墨田区太平4-1-2オリナスB1F",
    "access": "JR総武線錦糸町駅北口から徒歩5分",
    "games": [
      "クイズマジックアカデミー"
    ]
  },
  {
    "name": "シルクハット大船",
    "operation_time": "9:00～23:45",
    "holiday": "無し",
    "latitude": "35.35325232",
    "longitude": "139.5325488",
    "tel": "",
    "address": "鎌倉市大船1-24大船駅前ビル1-3F",
    "access": "JR大船駅徒歩1分",
    "games": [
      "クイズマジックアカデミー"
    ]
  },
  {
    "name": "タイトーステーション錦糸町楽天地店",
    "operation_time": "10:00～24:00",
    "holiday": "無し",
    "latitude": "35.696456",
    "longitude": "139.815836",
    "tel": "03-5638-0701",
    "address": "墨田区江東橋4-27-14楽天地ビルB1F",
    "access": "東京メトロ半蔵門線・錦糸町駅2番出口直通!東京楽天地ビル地下1階",
    "games": [
      "クイズマジックアカデミー"
    ]
  },
  {
    "name": "GiGO大森",
    "operation_time": "",
    "holiday": "",
    "latitude": "35.590043",
    "longitude": "139.72823",
    "tel": "03-5709-0669",
    "address": "大田区山王2-1-5大森駅ララビル2F",
    "access": "",
    "games": [
      "クイズマジックアカデミー"
    ]
  },
  {
    "name": "シルクハット蒲田西口",
    "operation_time": "10:00～24:45",
    "holiday": "",
    "latitude": "35.56301591",
    "longitude": "139.7158447",
    "tel": "",
    "address": "大田区西蒲田7-2-3第二醍醐ビルB1-2F",
    "access": "",
    "games": [
      "クイズマジックアカデミー"
    ]
  },
  {
    "name": "namco松戸店",
    "operation_time": "",
    "holiday": "",
    "latitude": "35.783581",
    "longitude": "139.900789",
    "tel": "047-711-7274",
    "address": "松戸市松戸1230-1ピアザ松戸1F",
    "access": "",
    "games": [
      "クイズマジックアカデミー"
    ]
  },
  {
    "name": "ゲームセンターアルファ",
    "operation_time": "10:00～24:00",
    "holiday": "無し",
    "latitude": "35.86153036",
    "longitude": "139.970926",
    "tel": "04-7163-2816",
    "address": "柏市柏1-1-11丸井B1F",
    "access": "JR常磐線柏駅東口駅前丸井柏店地下1階",
    "games": [
      "クイズマジックアカデミー"
    ]
  },
  {
    "name": "タイトーステーション柏店",
    "operation_time": "10:00～24:00",
    "holiday": "無し",
    "latitude": "35.86145714",
    "longitude": "139.972664",
    "tel": "04-7164-0866",
    "address": "柏市柏2-3-1",
    "access": "JR常磐線・柏駅より徒歩3分",
    "games": [
      "クイズマジックアカデミー"
    ]
  },
  {
    "name": "シルクハット川崎ダイス",
    "operation_time": "9:00～24:45",
    "holiday": "無し",
    "latitude": "35.5314121",
    "longitude": "139.7002166",
    "tel": "",
    "address": "川崎市川崎区駅前本町8ダイスビルB2F",
    "access": "JR川崎駅アゼリア地下街と直結、京急川崎駅中央口徒歩1分",
    "games": [
      "クイズマジックアカデミー"
    ]
  },
  {
    "name": "AMFマーズ",
    "operation_time": "8:30～翌1:00",
    "holiday": "無し",
    "latitude": "35.44284793",
    "longitude": "139.6311041",
    "tel": "045-243-6033",
    "address": "横浜市中区長者町6-106",
    "access": "JR「関内駅」下車徒歩3分",
    "games": [
      "クイズマジックアカデミー"
    ]
  },
  {
    "name": "GiGO八柱",
    "operation_time": "",
    "holiday": "",
    "latitude": "35.79133049",
    "longitude": "139.937777",
    "tel": "047-392-4661",
    "address": "松戸市日暮1-1-1八柱駅第2ビル2F",
    "access": "",
    "games": [
      "クイズマジックアカデミー"
    ]
  },
  {
    "name": "ゲームパニックつくば",
    "operation_time": "",
    "holiday": "",
    "latitude": "36.04632758",
    "longitude": "140.1679958",
    "tel": "080-3350-1839",
    "address": "土浦市中村東1-1-1",
    "access": "",
    "games": [
      "クイズマジックアカデミー"
    ]
  },
  {
    "name": "GiGO水戸南",
    "operation_time": "",
    "holiday": "",
    "latitude": "36.350325",
    "longitude": "140.443003",
    "tel": "029-244-1045",
    "address": "水戸市千波町2017-1",
    "access": "",
    "games": [
      "クイズマジックアカデミー"
    ]
  },
  {
    "name": "GiGO水戸",
    "operation_time": "",
    "holiday": "",
    "latitude": "36.369467",
    "longitude": "140.474532",
    "tel": "029-231-1002",
    "address": "水戸市宮町1-7-44コムボックス310 3F",
    "access": "",
    "games": [
      "クイズマジックアカデミー"
    ]
  },
  {
    "name": "ゲームメガ日立店",
    "operation_time": "10:00～24:00",
    "holiday": "無し",
    "latitude": "36.54818909",
    "longitude": "140.6305166",
    "tel": "0294-32-1983",
    "address": "日立市東多賀町5-10-10",
    "access": "常陸多賀駅徒歩5分",
    "games": [
      "クイズマジックアカデミー"
    ]
  },
  {
    "name": "大慶園",
    "operation_time": "一部24時間営業",
    "holiday": "無し",
    "latitude": "35.76304297",
    "longitude": "139.96933",
    "tel": "047-337-5001",
    "address": "市川市大町359",
    "access": "JR市川大野駅下車 市川植物園行きバス乗車 市川斎場前下車徒歩10分・北総線大町駅から車5分",
    "games": [
      "クイズマジックアカデミー"
    ]
  },
  {
    "name": "ゲームプラザセントラル浦安店",
    "operation_time": "10:00～24:00",
    "holiday": "無し",
    "latitude": "35.66516962",
    "longitude": "139.8933569",
    "tel": "0473-55-2447",
    "address": "浦安市北栄1-16-15",
    "access": "地下鉄東西線浦安駅前",
    "games": [
      "クイズマジックアカデミー"
    ]
  },
  {
    "name": "アミューズメントパレスワンダーヴュー阿見店",
    "operation_time": "",
    "holiday": "",
    "latitude": "36.04223085",
    "longitude": "140.2100215",
    "tel": "0476-23-0561",
    "address": "稲敷郡阿見町大字阿見2958ショッピングセンターマイ･アミ2F",
    "access": "",
    "games": [
      "クイズマジックアカデミー"
    ]
  },
  {
    "name": "タイトーFステーション市川妙典店",
    "operation_time": "施設の営業時間に準じる",
    "holiday": "施設の営業日に準じる",
    "latitude": "35.69246485",
    "longitude": "139.9267286",
    "tel": "047-318-3933",
    "address": "市川市妙典4-1-1イオン市川妙典店2番街2F",
    "access": "",
    "games": [
      "クイズマジックアカデミー"
    ]
  },
  {
    "name": "アミューズビバ",
    "operation_time": "",
    "holiday": "",
    "latitude": "36.40636031",
    "longitude": "140.5317325",
    "tel": "029-274-7311",
    "address": "ひたちなか市東大島2-11-11-1Fゲームコーナー",
    "access": "勝田駅東口より北へ1km",
    "games": [
      "クイズマジックアカデミー"
    ]
  },
  {
    "name": "ゲームメガ水戸けやき台店",
    "operation_time": "10:00～24:00",
    "holiday": "無し",
    "latitude": "36.33805576",
    "longitude": "140.4832773",
    "tel": "029-247-1983",
    "address": "水戸市酒門町3276-1",
    "access": "50号バイパス沿い",
    "games": [
      "クイズマジックアカデミー"
    ]
  },
  {
    "name": "GiGOイオン新浦安ｼｮｯﾋﾟﾝｸﾞｾﾝﾀｰ",
    "operation_time": "9:00～24:00",
    "holiday": "無し",
    "latitude": "35.64896456",
    "longitude": "139.9148303",
    "tel": "070-1201-3891",
    "address": "浦安市入船1-4-1イオン新浦安4F",
    "access": "JR京葉線新浦安駅より徒歩5分 ダイエーショッパーズプラザ4F",
    "games": [
      "クイズマジックアカデミー"
    ]
  },
  {
    "name": "タイトーステーション船橋店",
    "operation_time": "",
    "holiday": "",
    "latitude": "35.699888",
    "longitude": "139.98597",
    "tel": "047-436-8135",
    "address": "船橋市本町1-6-1",
    "access": "",
    "games": [
      "クイズマジックアカデミー"
    ]
  },
  {
    "name": "アミューズメントエース津田沼",
    "operation_time": "9:00～24:00",
    "holiday": "無し",
    "latitude": "35.69228053",
    "longitude": "140.0201572",
    "tel": "047-475-8918",
    "address": "船橋市前原西2-15-1ファミービル1-3F",
    "access": "JR「津田沼駅」下車北口より徒歩1分",
    "games": [
      "クイズマジックアカデミー"
    ]
  },
  {
    "name": "GiGOひたちなか",
    "operation_time": "",
    "holiday": "",
    "latitude": "36.34756197",
    "longitude": "140.5803556",
    "tel": "070-1449-2941",
    "address": "ひたちなか市田中後40-11",
    "access": "",
    "games": [
      "クイズマジックアカデミー"
    ]
  },
  {
    "name": "キャッツアイ八千代店",
    "operation_time": "日～木・祝日:10:00～翌1:00  金・土・祝前日:10:00～翌2:00",
    "holiday": "",
    "latitude": "35.73361854",
    "longitude": "140.0724826",
    "tel": "047-480-0231",
    "address": "八千代市緑が丘西2-13-3ism緑が丘内",
    "access": "",
    "games": [
      "クイズマジックアカデミー"
    ]
  },
  {
    "name": "ラッキー佐倉店",
    "operation_time": "10:00～23:45",
    "holiday": "無し",
    "latitude": "35.71839979",
    "longitude": "140.1362206",
    "tel": "043-460-5165",
    "address": "佐倉市井野1475",
    "access": "京成線勝田台駅下車徒歩10分 国道296号沿い",
    "games": [
      "クイズマジックアカデミー"
    ]
  },
  {
    "name": "スポーツウェーブ鉄腕24稲毛長沼店",
    "operation_time": "一部24時間営業",
    "holiday": "無し",
    "latitude": "35.66179317",
    "longitude": "140.1264239",
    "tel": "043-215-5560",
    "address": "千葉市稲毛区長沼原町697",
    "access": "東関東自動車道 千葉北ICから約5分 千葉総合運動場そば",
    "games": [
      "クイズマジックアカデミー"
    ]
  },
  {
    "name": "イスカンダル木更津店",
    "operation_time": "10:00～24:00",
    "holiday": "無し",
    "latitude": "35.36956684",
    "longitude": "139.9172944",
    "tel": "0120-010-267",
    "address": "木更津市潮見4-1-2",
    "access": "木更津市役所より車で1分",
    "games": [
      "クイズマジックアカデミー"
    ]
  },
  {
    "name": "ラッキー中央店(フェリシダ)",
    "operation_time": "9:00～24:50",
    "holiday": "無し",
    "latitude": "35.61028144",
    "longitude": "140.1182438",
    "tel": "043-222-5610",
    "address": "千葉市中央区富士見2-8-1",
    "access": "JR千葉駅より徒歩5分",
    "games": [
      "クイズマジックアカデミー"
    ]
  },
  {
    "name": "ゲームチャリオット五井店",
    "operation_time": "10:00～24:00",
    "holiday": "無し",
    "latitude": "35.51363106",
    "longitude": "140.0899562",
    "tel": "0436-23-5533",
    "address": "市原市五井中央西2-1-2",
    "access": "JR五井駅西口駅前",
    "games": [
      "クイズマジックアカデミー"
    ]
  },
  {
    "name": "ゲームチャリオット辰巳店",
    "operation_time": "10:00～24:00",
    "holiday": "無し",
    "latitude": "35.52471801",
    "longitude": "140.121946",
    "tel": "0436-41-9211",
    "address": "市原市市原500-1",
    "access": "館山自動車道蘇我ICより車で10分、国道297号線沿い",
    "games": [
      "クイズマジックアカデミー"
    ]
  },
  {
    "name": "フリスポ佐原",
    "operation_time": "",
    "holiday": "",
    "latitude": "35.90115035",
    "longitude": "140.493442",
    "tel": "0478-54-6160",
    "address": "香取市佐原イ-4200",
    "access": "",
    "games": [
      "クイズマジックアカデミー"
    ]
  },
  {
    "name": "GiGO神栖",
    "operation_time": "10:00～24:00",
    "holiday": "無し",
    "latitude": "35.89792811",
    "longitude": "140.6444633",
    "tel": "070-1458-2514",
    "address": "神栖市神栖1-8-1",
    "access": "東関東自動車道:潮来I.Cから約10分",
    "games": [
      "クイズマジックアカデミー"
    ]
  },
  {
    "name": "千葉レジャーランド成東店",
    "operation_time": "一部24時間営業",
    "holiday": "無し",
    "latitude": "35.58828462",
    "longitude": "140.3904243",
    "tel": "047-580-1777",
    "address": "山武市姫島111-1",
    "access": "国道126号線成東町姫島地内ローソン奥",
    "games": [
      "クイズマジックアカデミー"
    ]
  },
  {
    "name": "タイトーステーション旭サンモール店",
    "operation_time": "9:00～24:00",
    "holiday": "無し",
    "latitude": "35.725157",
    "longitude": "140.658686",
    "tel": "0479-62-5215",
    "address": "旭市イ-2676-1サンモール3F",
    "access": "旭駅から歩いて5分。 イオン、サンモールの看板が目印",
    "games": [
      "クイズマジックアカデミー"
    ]
  }
]