[
  {
    "name": "三冠王",
    "operation_time": "10:00～24:00",
    "holiday": "無し",
    "latitude": "33.19079873",
    "longitude": "129.6528712",
    "tel": "0956-47-2141",
    "address": "佐世保市相浦町2689-1",
    "access": "松浦電鉄「相浦」下車車10分ほど。",
    "games": [
      "SOUND VOLTEX -Valkyrie model-"
    ]
  },
  {
    "name": "アミパラ佐世保店",
    "operation_time": "10:00～24:00",
    "holiday": "無し",
    "latitude": "33.15005741",
    "longitude": "129.7804145",
    "tel": "0956-34-8880",
    "address": "佐世保市大塔町18-15",
    "access": "JR大塔駅徒歩3分",
    "games": [
      "SOUND VOLTEX -Valkyrie model-"
    ]
  },
  {
    "name": "ソニックワールド伊万里店",
    "operation_time": "10:00～24:00",
    "holiday": "無し",
    "latitude": "33.27857609",
    "longitude": "129.8722306",
    "tel": "0955-22-1104",
    "address": "伊万里市二里町八谷搦189-3",
    "access": "",
    "games": [
      "SOUND VOLTEX -Valkyrie model-"
    ]
  },
  {
    "name": "楽市楽座イオンモール福岡伊都店",
    "operation_time": "10:00～22:00",
    "holiday": "施設の営業日に準じる",
    "latitude": "33.577027",
    "longitude": "130.256399",
    "tel": "092-805-8900",
    "address": "福岡市西区北原1-3-1イオン伊都ショッピンクセンター別館",
    "access": "JR筑肥線 九大学研都市駅 南口すぐ",
    "games": [
      "SOUND VOLTEX -Valkyrie model-"
    ]
  },
  {
    "name": "パスカランド福重店",
    "operation_time": "",
    "holiday": "",
    "latitude": "33.567254",
    "longitude": "130.314875",
    "tel": "092-407-1802",
    "address": "福岡市西区拾六町1-7-1MEGAドンキホーテ福重3F",
    "access": "",
    "games": [
      "SOUND VOLTEX -Valkyrie model-"
    ]
  },
  {
    "name": "ソニックワールド大村店",
    "operation_time": "10:00～24:00",
    "holiday": "無し",
    "latitude": "32.92727946",
    "longitude": "129.9394753",
    "tel": "0957-50-2555",
    "address": "大村市古賀島町383-1",
    "access": "長崎自動車道「大村IC」下車車10分",
    "games": [
      "SOUND VOLTEX -Valkyrie model-"
    ]
  },
  {
    "name": "namcoアミュプラザ長崎新館店",
    "operation_time": "",
    "holiday": "",
    "latitude": "32.75182377",
    "longitude": "129.8704117",
    "tel": "095-893-8002",
    "address": "長崎市尾上町1-1アミュプラザ長崎新館4F",
    "access": "",
    "games": [
      "SOUND VOLTEX -Valkyrie model-"
    ]
  },
  {
    "name": "G-STAGE浜町店",
    "operation_time": "",
    "holiday": "",
    "latitude": "32.74478285",
    "longitude": "129.8775841",
    "tel": "095-895-5523",
    "address": "長崎市浜町2-26",
    "access": "",
    "games": [
      "SOUND VOLTEX -Valkyrie model-"
    ]
  },
  {
    "name": "G-STAGE七隈店",
    "operation_time": "10:00～24:00",
    "holiday": "無し",
    "latitude": "33.55178855",
    "longitude": "130.3649354",
    "tel": "092-861-4856",
    "address": "福岡市城南区七隈8-4-8",
    "access": "七隈ファミリープラザ内",
    "games": [
      "SOUND VOLTEX -Valkyrie model-"
    ]
  },
  {
    "name": "タイトーステーション福岡天神店",
    "operation_time": "10:00～翌1:00",
    "holiday": "無し",
    "latitude": "33.5896519",
    "longitude": "130.3962521",
    "tel": "092-737-5500",
    "address": "福岡市中央区天神2-6-35サザンクロスビル",
    "access": "西鉄福岡駅北口より徒歩2分",
    "games": [
      "SOUND VOLTEX -Valkyrie model-"
    ]
  },
  {
    "name": "GiGO福岡天神",
    "operation_time": "",
    "holiday": "",
    "latitude": "33.589905",
    "longitude": "130.396633",
    "tel": "092-771-8121",
    "address": "福岡市中央区天神2-7-6天神DADAビル",
    "access": "",
    "games": [
      "SOUND VOLTEX -Valkyrie model-"
    ]
  },
  {
    "name": "ラウンドワン福岡天神店",
    "operation_time": "",
    "holiday": "",
    "latitude": "33.58960223",
    "longitude": "130.3968402",
    "tel": "092-720-8101",
    "address": "福岡市中央区天神2-6-12",
    "access": "",
    "games": [
      "SOUND VOLTEX -Valkyrie model-"
    ]
  },
  {
    "name": "楽市街道箱崎店2F",
    "operation_time": "10:00～27:00",
    "holiday": "無し",
    "latitude": "33.62410817",
    "longitude": "130.4195897",
    "tel": "092-642-0760",
    "address": "福岡市東区箱崎5-1-8楽市街道箱崎店内2F",
    "access": "",
    "games": [
      "SOUND VOLTEX -Valkyrie model-"
    ]
  },
  {
    "name": "namco博多バスターミナル店",
    "operation_time": "",
    "holiday": "",
    "latitude": "33.591529",
    "longitude": "130.419887",
    "tel": "092-434-3721",
    "address": "福岡市博多区博多駅中央街2-1博多バスターミナル7F",
    "access": "",
    "games": [
      "SOUND VOLTEX -Valkyrie model-"
    ]
  },
  {
    "name": "楽市楽座くりえいと宗像店",
    "operation_time": "10:00～24:00",
    "holiday": "無し",
    "latitude": "33.81047701",
    "longitude": "130.563611",
    "tel": "0940-35-6644",
    "address": "宗像市くりえいと1-4-4",
    "access": "県道97号沿いショッピングセンターくりえいと宗像敷地内",
    "games": [
      "SOUND VOLTEX -Valkyrie model-"
    ]
  },
  {
    "name": "最後の5$",
    "operation_time": "一部24時間営業",
    "holiday": "無し",
    "latitude": "33.60926671",
    "longitude": "130.4453319",
    "tel": "092-612-8080",
    "address": "糟屋郡粕屋町大字仲原2706",
    "access": "国道3号線博多バイパスを空港口交差点から北へ5分ほど。",
    "games": [
      "SOUND VOLTEX -Valkyrie model-"
    ]
  },
  {
    "name": "ラウンドワン博多半道橋店",
    "operation_time": "",
    "holiday": "",
    "latitude": "33.58394157",
    "longitude": "130.4382666",
    "tel": "092-475-6611",
    "address": "福岡市博多区半道橋2-2-8",
    "access": "",
    "games": [
      "SOUND VOLTEX -Valkyrie model-"
    ]
  },
  {
    "name": "遊道楽 嘉瀬店",
    "operation_time": "11:00～24:00",
    "holiday": "無し",
    "latitude": "33.24215325",
    "longitude": "130.2565663",
    "tel": "0952-40-0952",
    "address": "佐賀市嘉瀬町大字中原2488-1",
    "access": "207号線沿い",
    "games": [
      "SOUND VOLTEX -Valkyrie model-"
    ]
  },
  {
    "name": "ラウンドワン佐賀店",
    "operation_time": "",
    "holiday": "",
    "latitude": "33.27533631",
    "longitude": "130.3015536",
    "tel": "0952-36-7070",
    "address": "佐賀市兵庫北4-2-1",
    "access": "",
    "games": [
      "SOUND VOLTEX -Valkyrie model-"
    ]
  },
  {
    "name": "ラウンドワン大野城店",
    "operation_time": "",
    "holiday": "",
    "latitude": "33.54646948",
    "longitude": "130.4822214",
    "tel": "092-504-7411",
    "address": "大野城市御笠川1-18-16",
    "access": "",
    "games": [
      "SOUND VOLTEX -Valkyrie model-"
    ]
  },
  {
    "name": "GiGO中間",
    "operation_time": "",
    "holiday": "",
    "latitude": "33.8231005",
    "longitude": "130.721697",
    "tel": "093-246-1941",
    "address": "中間市上蓮花寺3-1-1",
    "access": "",
    "games": [
      "SOUND VOLTEX -Valkyrie model-"
    ]
  },
  {
    "name": "楽市楽座黒崎店",
    "operation_time": "10:00～24:00",
    "holiday": "無し",
    "latitude": "33.86569306",
    "longitude": "130.7560829",
    "tel": "093-621-4800",
    "address": "北九州市八幡西区桜ヶ丘町1-3フレスポ黒崎2F",
    "access": "JR黒崎駅近く国道3号線沿い",
    "games": [
      "SOUND VOLTEX -Valkyrie model-"
    ]
  },
  {
    "name": "G-STAGE飯塚",
    "operation_time": "10:00～24:00",
    "holiday": "無し",
    "latitude": "33.636493",
    "longitude": "130.676011",
    "tel": "050-3539-3593",
    "address": "飯塚市枝国680-2",
    "access": "",
    "games": [
      "SOUND VOLTEX -Valkyrie model-"
    ]
  },
  {
    "name": "ラウンドワン小倉店",
    "operation_time": "",
    "holiday": "",
    "latitude": "33.89742877",
    "longitude": "130.8598475",
    "tel": "093-562-8805",
    "address": "北九州市小倉北区西港町15-65",
    "access": "",
    "games": [
      "SOUND VOLTEX -Valkyrie model-"
    ]
  },
  {
    "name": "PEP魚町",
    "operation_time": "10:00～翌1:00",
    "holiday": "無し",
    "latitude": "33.88396547",
    "longitude": "130.880026",
    "tel": "093-513-1511",
    "address": "北九州市小倉北区魚町2-4-20",
    "access": "モノレール平和通り駅徒歩1分",
    "games": [
      "SOUND VOLTEX -Valkyrie model-"
    ]
  },
  {
    "name": "G-STAGE小倉店",
    "operation_time": "10:00～20:00",
    "holiday": "無し",
    "latitude": "33.88758128",
    "longitude": "130.8847829",
    "tel": "093-551-3133",
    "address": "北九州市小倉北区浅野2-14-5",
    "access": "小倉駅前あるあるシティ2F",
    "games": [
      "SOUND VOLTEX -Valkyrie model-"
    ]
  },
  {
    "name": "楽市楽座砂津店",
    "operation_time": "10:00～24:00",
    "holiday": "無し",
    "latitude": "33.88338123",
    "longitude": "130.8887517",
    "tel": "093-531-2236",
    "address": "北九州市小倉北区砂津3-1-1チャチャタウン小倉B棟3F",
    "access": "小倉駅近くチャチャタウン内",
    "games": [
      "SOUND VOLTEX -Valkyrie model-"
    ]
  },
  {
    "name": "アミパラ下関長府店",
    "operation_time": "10:00～24:00",
    "holiday": "無し",
    "latitude": "34.02547781",
    "longitude": "131.0073811",
    "tel": "083-248-5008",
    "address": "下関市長府才川1-42-48",
    "access": "JR長府駅徒歩12分",
    "games": [
      "SOUND VOLTEX -Valkyrie model-"
    ]
  },
  {
    "name": "サープラ下関長府あそびタウン",
    "operation_time": "",
    "holiday": "",
    "latitude": "34.03023331",
    "longitude": "131.0127927",
    "tel": "083-249-0055",
    "address": "下関市ゆめタウン1-1",
    "access": "",
    "games": [
      "SOUND VOLTEX -Valkyrie model-"
    ]
  },
  {
    "name": "G-pala小倉店",
    "operation_time": "",
    "holiday": "",
    "latitude": "33.83945824",
    "longitude": "130.9109857",
    "tel": "093-953-7405",
    "address": "北九州市小倉南区上葛原1-14-1",
    "access": "",
    "games": [
      "SOUND VOLTEX -Valkyrie model-"
    ]
  },
  {
    "name": "パスカワールドグリーンランド",
    "operation_time": "10:00～翌3:00",
    "holiday": "無し",
    "latitude": "32.98790587",
    "longitude": "130.4711246",
    "tel": "0968-69-3001",
    "address": "荒尾市本井手1574-54",
    "access": "三井グリーンランドウルトラマンランド横",
    "games": [
      "SOUND VOLTEX -Valkyrie model-"
    ]
  },
  {
    "name": "アレックス",
    "operation_time": "9:00～24:00",
    "holiday": "",
    "latitude": "33.999394",
    "longitude": "131.220089",
    "tel": "0836-39-3587",
    "address": "宇部市西宇部南3-5-53",
    "access": "",
    "games": [
      "SOUND VOLTEX -Valkyrie model-"
    ]
  },
  {
    "name": "カッタの湯宇部店",
    "operation_time": "10:00～24:00",
    "holiday": "無し",
    "latitude": "33.95841927",
    "longitude": "131.2615641",
    "tel": "0836-37-2626",
    "address": "宇部市海南町1675カッタの湯",
    "access": "",
    "games": [
      "SOUND VOLTEX -Valkyrie model-"
    ]
  },
  {
    "name": "G-pala日田店",
    "operation_time": "10:00～24:00",
    "holiday": "無し",
    "latitude": "33.32522467",
    "longitude": "130.9114515",
    "tel": "0973-25-5262",
    "address": "日田市友田997-1",
    "access": "",
    "games": [
      "SOUND VOLTEX -Valkyrie model-"
    ]
  },
  {
    "name": "フェスタ山鹿店",
    "operation_time": "店舗にてご確認ください",
    "holiday": "無し",
    "latitude": "33.00470816",
    "longitude": "130.72302",
    "tel": "096-844-5654",
    "address": "山鹿市方保田字鳥越3468-1",
    "access": "九州自動車道「植木IC」下車車10分",
    "games": [
      "SOUND VOLTEX -Valkyrie model-"
    ]
  },
  {
    "name": "サープラ山口あそびタウン",
    "operation_time": "9:00～24:00",
    "holiday": "無し",
    "latitude": "34.1647908",
    "longitude": "131.4517343",
    "tel": "083-933-0307",
    "address": "山口市湯田温泉6-8-3",
    "access": "JR山口線 湯田温泉駅下車 湯田自動車学校方面徒歩10分",
    "games": [
      "SOUND VOLTEX -Valkyrie model-"
    ]
  },
  {
    "name": "ラウンドワン熊本店",
    "operation_time": "",
    "holiday": "",
    "latitude": "32.78499883",
    "longitude": "130.6775647",
    "tel": "096-325-7200",
    "address": "熊本市西区春日7-25-15",
    "access": "",
    "games": [
      "SOUND VOLTEX -Valkyrie model-"
    ]
  },
  {
    "name": "サープラ下通りあそびタウン",
    "operation_time": "",
    "holiday": "",
    "latitude": "32.8026522",
    "longitude": "130.7092883",
    "tel": "096-355-2888",
    "address": "熊本市中央区手取本町4-12",
    "access": "",
    "games": [
      "SOUND VOLTEX -Valkyrie model-"
    ]
  },
  {
    "name": "namcoワンダーシティ南熊本店",
    "operation_time": "",
    "holiday": "",
    "latitude": "32.78695703",
    "longitude": "130.7146907",
    "tel": "096-375-1131",
    "address": "熊本市中央区九品寺6-9-1",
    "access": "",
    "games": [
      "SOUND VOLTEX -Valkyrie model-"
    ]
  },
  {
    "name": "トライセン中津店",
    "operation_time": "10:00～24:00",
    "holiday": "無し",
    "latitude": "33.58950451",
    "longitude": "131.2110968",
    "tel": "0979-85-0688",
    "address": "中津市下池永67-3",
    "access": "",
    "games": [
      "SOUND VOLTEX -Valkyrie model-"
    ]
  },
  {
    "name": "ユーズランド三光店",
    "operation_time": "10:00～21:00",
    "holiday": "",
    "latitude": "33.559002",
    "longitude": "131.192857",
    "tel": "0979-43-6562",
    "address": "中津市三光佐知1032イオン三光SC2F",
    "access": "",
    "games": [
      "SOUND VOLTEX -Valkyrie model-"
    ]
  },
  {
    "name": "パスカワールド宇土店",
    "operation_time": "日曜～木曜 10:00～23:00  金曜・土曜 10:00～24:00",
    "holiday": "無し",
    "latitude": "32.68271108",
    "longitude": "130.6679513",
    "tel": "0964-22-5311",
    "address": "宇土市善道寺町綾織95",
    "access": "松橋ICより車で10分、宇土シティーショッピングセンター内",
    "games": [
      "SOUND VOLTEX -Valkyrie model-"
    ]
  },
  {
    "name": "タイトーFステーションニシムタ出水",
    "operation_time": "",
    "holiday": "",
    "latitude": "32.106272",
    "longitude": "130.345224",
    "tel": "0996-68-8150",
    "address": "出水市六月田町347",
    "access": "",
    "games": [
      "SOUND VOLTEX -Valkyrie model-"
    ]
  },
  {
    "name": "ネオブラボー",
    "operation_time": "8:00～24:00",
    "holiday": "無し",
    "latitude": "34.05495583",
    "longitude": "131.5592054",
    "tel": "0835-23-9570",
    "address": "防府市高倉1-3-30",
    "access": "防府西IC、防府東ICより車で10分",
    "games": [
      "SOUND VOLTEX -Valkyrie model-"
    ]
  },
  {
    "name": "PALO防府",
    "operation_time": "",
    "holiday": "",
    "latitude": "34.0522015",
    "longitude": "131.5685841",
    "tel": "070-3100-3731",
    "address": "防府市中央町1-3イオン防府店3F",
    "access": "",
    "games": [
      "SOUND VOLTEX -Valkyrie model-"
    ]
  },
  {
    "name": "ゲームスポットSPEED",
    "operation_time": "9:00～24:00",
    "holiday": "無し",
    "latitude": "34.03418509",
    "longitude": "131.8347616",
    "tel": "0834-36-2828",
    "address": "周南市久米3219",
    "access": "",
    "games": [
      "SOUND VOLTEX -Valkyrie model-"
    ]
  },
  {
    "name": "アミパラ周南久米店",
    "operation_time": "",
    "holiday": "",
    "latitude": "34.03737576",
    "longitude": "131.8441913",
    "tel": "083-436-1234",
    "address": "周南市久米中央5-6-1イオンタウン周南久米内",
    "access": "",
    "games": [
      "SOUND VOLTEX -Valkyrie model-"
    ]
  },
  {
    "name": "フェスタ人吉店",
    "operation_time": "10:00～24:00",
    "holiday": "無し",
    "latitude": "32.2120774",
    "longitude": "130.7482481",
    "tel": "0966-24-6210",
    "address": "人吉市宝来町1307-1人吉レックス内",
    "access": "人吉駅より車で5分",
    "games": [
      "SOUND VOLTEX -Valkyrie model-"
    ]
  },
  {
    "name": "モーリーファンタジー那覇",
    "operation_time": "10:00～22:00",
    "holiday": "無し",
    "latitude": "26.19689585",
    "longitude": "127.6658336",
    "tel": "070-3100-5314",
    "address": "那覇市金城5-10-2イオン那覇3F",
    "access": "モノレール 小禄駅 正面 ジャスコ那覇店内3F",
    "games": [
      "SOUND VOLTEX -Valkyrie model-"
    ]
  },
  {
    "name": "ラウンドワン沖縄･宜野湾店",
    "operation_time": "",
    "holiday": "",
    "latitude": "26.27580261",
    "longitude": "127.7310389",
    "tel": "098-870-2110",
    "address": "宜野湾市真志喜3-28-8",
    "access": "",
    "games": [
      "SOUND VOLTEX -Valkyrie model-"
    ]
  },
  {
    "name": "GiGO別府",
    "operation_time": "",
    "holiday": "",
    "latitude": "33.29561901",
    "longitude": "131.5030598",
    "tel": "0977-25-3206",
    "address": "別府市餅ケ浜町161-2",
    "access": "",
    "games": [
      "SOUND VOLTEX -Valkyrie model-"
    ]
  },
  {
    "name": "ラウンドワン沖縄･南風原店",
    "operation_time": "",
    "holiday": "",
    "latitude": "26.19509176",
    "longitude": "127.7210653",
    "tel": "098-940-6670",
    "address": "島尻郡南風原町字兼城下茂原552",
    "access": "",
    "games": [
      "SOUND VOLTEX -Valkyrie model-"
    ]
  },
  {
    "name": "楽市楽座イオンモール沖縄ライカム店",
    "operation_time": "10:00～23:00",
    "holiday": "",
    "latitude": "26.315223",
    "longitude": "127.794331",
    "tel": "098-923-5525",
    "address": "中頭郡北中城村字ライカム1イオンモール沖縄ライカム店4032",
    "access": "",
    "games": [
      "SOUND VOLTEX -Valkyrie model-"
    ]
  },
  {
    "name": "ラウンドワン鹿児島宇宿店",
    "operation_time": "",
    "holiday": "",
    "latitude": "31.54388304",
    "longitude": "130.5427759",
    "tel": "099-284-0655",
    "address": "鹿児島市宇宿2-2-2",
    "access": "",
    "games": [
      "SOUND VOLTEX -Valkyrie model-"
    ]
  },
  {
    "name": "FESTAフリーモールわさだ店",
    "operation_time": "店舗にてご確認ください",
    "holiday": "無し",
    "latitude": "33.18472246",
    "longitude": "131.5680754",
    "tel": "097-542-1883",
    "address": "大分市木上字鉾手2102",
    "access": "大分自動車道「大分光吉IC」下車車10分",
    "games": [
      "SOUND VOLTEX -Valkyrie model-"
    ]
  },
  {
    "name": "アミューズメントスペース遊ランド稚内店",
    "operation_time": "",
    "holiday": "",
    "latitude": "45.40077226",
    "longitude": "141.6807113",
    "tel": "0162-22-2233",
    "address": "稚内市港5-8-15",
    "access": "",
    "games": [
      "SOUND VOLTEX -Valkyrie model-"
    ]
  },
  {
    "name": "タイトーFステーションセントポルタ大分店",
    "operation_time": "",
    "holiday": "",
    "latitude": "33.235334",
    "longitude": "131.606448",
    "tel": "097-533-2716",
    "address": "大分市中央町2-1-1",
    "access": "",
    "games": [
      "SOUND VOLTEX -Valkyrie model-"
    ]
  },
  {
    "name": "ラウンドワン大分店",
    "operation_time": "",
    "holiday": "",
    "latitude": "33.24885259",
    "longitude": "131.6402543",
    "tel": "097-573-2800",
    "address": "大分市萩原2-13-17",
    "access": "",
    "games": [
      "SOUND VOLTEX -Valkyrie model-"
    ]
  },
  {
    "name": "GiGO高城",
    "operation_time": "",
    "holiday": "",
    "latitude": "33.24179967",
    "longitude": "131.6373957",
    "tel": "0975-56-9072",
    "address": "大分市牧1-161-8",
    "access": "",
    "games": [
      "SOUND VOLTEX -Valkyrie model-"
    ]
  },
  {
    "name": "アミパラ広島店",
    "operation_time": "10:00～24:00",
    "holiday": "無し",
    "latitude": "34.39350431",
    "longitude": "132.4360428",
    "tel": "082-297-7135",
    "address": "広島市西区西観音町3-17",
    "access": "平和大通り沿い、西区区役所から東へすぐ",
    "games": [
      "SOUND VOLTEX -Valkyrie model-"
    ]
  },
  {
    "name": "ラウンドワン広島店",
    "operation_time": "",
    "holiday": "",
    "latitude": "34.39365895",
    "longitude": "132.4600423",
    "tel": "082-545-8910",
    "address": "広島市中区立町3-11",
    "access": "",
    "games": [
      "SOUND VOLTEX -Valkyrie model-"
    ]
  },
  {
    "name": "GiGO海田",
    "operation_time": "",
    "holiday": "",
    "latitude": "34.36767083",
    "longitude": "132.533669",
    "tel": "082-824-5550",
    "address": "安芸郡海田町南大正町3-35",
    "access": "",
    "games": [
      "SOUND VOLTEX -Valkyrie model-"
    ]
  },
  {
    "name": "アピナ米子店",
    "operation_time": "",
    "holiday": "",
    "latitude": "35.44222402",
    "longitude": "133.330521",
    "tel": "0859-33-8777",
    "address": "米子市米原2-1-1MEGAドン･キホーテ米子店内",
    "access": "",
    "games": [
      "SOUND VOLTEX -Valkyrie model-"
    ]
  },
  {
    "name": "アミパラがいな店",
    "operation_time": "10:00 ～ 24:00",
    "holiday": "無し",
    "latitude": "35.43797411",
    "longitude": "133.3392651",
    "tel": "0859-39-1800",
    "address": "米子市日ノ出町1-8-13",
    "access": "米子しんまち天満屋から南西へ300m",
    "games": [
      "SOUND VOLTEX -Valkyrie model-"
    ]
  },
  {
    "name": "アミパラここじゃ店",
    "operation_time": "10:00～24:00",
    "holiday": "無し",
    "latitude": "34.40752689",
    "longitude": "132.7155261",
    "tel": "082-424-4747",
    "address": "東広島市西条町下見6-10-19山手電気内",
    "access": "広島大学前の交差点より西へすぐ。山手電気内",
    "games": [
      "SOUND VOLTEX -Valkyrie model-"
    ]
  },
  {
    "name": "GiGO広",
    "operation_time": "10:00～24:00",
    "holiday": "無し",
    "latitude": "34.22860722",
    "longitude": "132.6293589",
    "tel": "070-1459-4743",
    "address": "呉市広中町1-9フタバ図書TSUTAYA広店2F",
    "access": "呉線広駅前下車すぐ185号線沿いフタバ図書内",
    "games": [
      "SOUND VOLTEX -Valkyrie model-"
    ]
  },
  {
    "name": "フェスタコスモタウン佐伯店",
    "operation_time": "",
    "holiday": "",
    "latitude": "32.9610561",
    "longitude": "131.8662353",
    "tel": "0972-22-3660",
    "address": "佐伯市鶴岡西町2-163コスモタウン佐伯内",
    "access": "",
    "games": [
      "SOUND VOLTEX -Valkyrie model-"
    ]
  },
  {
    "name": "ラウンドワン宮崎店",
    "operation_time": "",
    "holiday": "",
    "latitude": "31.89458335",
    "longitude": "131.4170876",
    "tel": "0985-63-1210",
    "address": "宮崎市中村東3-4-60",
    "access": "",
    "games": [
      "SOUND VOLTEX -Valkyrie model-"
    ]
  },
  {
    "name": "楽市楽座イオンモール宮崎店",
    "operation_time": "9:00～22:00",
    "holiday": "",
    "latitude": "31.92272139",
    "longitude": "131.4562427",
    "tel": "0985-23-8281",
    "address": "宮崎市新別府町江口862-1イオンモール宮崎店2F",
    "access": "",
    "games": [
      "SOUND VOLTEX -Valkyrie model-"
    ]
  },
  {
    "name": "ラウンドワン松山店",
    "operation_time": "",
    "holiday": "",
    "latitude": "33.8664873",
    "longitude": "132.751593",
    "tel": "089-911-5511",
    "address": "松山市東長戸1-3-10",
    "access": "",
    "games": [
      "SOUND VOLTEX -Valkyrie model-"
    ]
  },
  {
    "name": "アミューズメントパークMGキスケ店",
    "operation_time": "",
    "holiday": "無し",
    "latitude": "33.84135404",
    "longitude": "132.753158",
    "tel": "089-933-2737",
    "address": "松山市宮田町4キスケボール1F内ゲームコーナー",
    "access": "JR松山駅より徒歩3分",
    "games": [
      "SOUND VOLTEX -Valkyrie model-"
    ]
  },
  {
    "name": "アミューズメントパークMG大街道店",
    "operation_time": "",
    "holiday": "",
    "latitude": "33.837872",
    "longitude": "132.769877",
    "tel": "089-968-2440",
    "address": "松山市大街道1-4-17",
    "access": "",
    "games": [
      "SOUND VOLTEX -Valkyrie model-"
    ]
  },
  {
    "name": "アミューズメントパークMGジアス店",
    "operation_time": "",
    "holiday": "無し",
    "latitude": "34.44068975",
    "longitude": "133.2607402",
    "tel": "084-939-7733",
    "address": "福山市柳津町1-7-60",
    "access": "",
    "games": [
      "SOUND VOLTEX -Valkyrie model-"
    ]
  },
  {
    "name": "ラウンドワン福山店",
    "operation_time": "",
    "holiday": "",
    "latitude": "34.489155",
    "longitude": "133.3925782",
    "tel": "084-973-9891",
    "address": "福山市明神町1-9-28",
    "access": "",
    "games": [
      "SOUND VOLTEX -Valkyrie model-"
    ]
  },
  {
    "name": "アミューズメントパークMG西条店",
    "operation_time": "",
    "holiday": "",
    "latitude": "33.92670287",
    "longitude": "133.1828145",
    "tel": "0897-47-4470",
    "address": "西条市新田字北新田235フジグラン西条別棟",
    "access": "フジグラン西条別棟",
    "games": [
      "SOUND VOLTEX -Valkyrie model-"
    ]
  },
  {
    "name": "ファンタジスタ",
    "operation_time": "12:00～24:00",
    "holiday": "店舗にお問合わせください",
    "latitude": "34.5583269",
    "longitude": "133.6767549",
    "tel": "086-526-0438",
    "address": "倉敷市新倉敷駅前5-194",
    "access": "JR西日本山陽本線「新倉敷」駅から南西に徒歩10分",
    "games": [
      "SOUND VOLTEX -Valkyrie model-"
    ]
  },
  {
    "name": "ユーズランド倉敷店",
    "operation_time": "10:00～21:00",
    "holiday": "無し",
    "latitude": "34.60290341",
    "longitude": "133.7454258",
    "tel": "086-430-5234",
    "address": "倉敷市水江1イオン倉敷ショッピングセンター2F",
    "access": "イオン倉敷SC2F倉敷駅北口1番乗場よりバスで10分山陽自動車道倉敷ICより約7分",
    "games": [
      "SOUND VOLTEX -Valkyrie model-"
    ]
  },
  {
    "name": "アミパラ倉敷店",
    "operation_time": "10:00～24:00",
    "holiday": "無し",
    "latitude": "34.58364137",
    "longitude": "133.7712207",
    "tel": "086-430-2111",
    "address": "倉敷市西中新田624-1アミパラボウル1F",
    "access": "倉敷市役所前、アミパラボウル1F",
    "games": [
      "SOUND VOLTEX -Valkyrie model-"
    ]
  },
  {
    "name": "ラウンドワン岡山妹尾店",
    "operation_time": "",
    "holiday": "",
    "latitude": "34.62318926",
    "longitude": "133.8694608",
    "tel": "086-282-8851",
    "address": "岡山市南区妹尾3413-1",
    "access": "",
    "games": [
      "SOUND VOLTEX -Valkyrie model-"
    ]
  },
  {
    "name": "アミパラテクノランド店",
    "operation_time": "10:00～24:00",
    "holiday": "",
    "latitude": "34.679221",
    "longitude": "133.927419",
    "tel": "086-225-3377",
    "address": "岡山市北区大和町1-7-12",
    "access": "法界院駅から徒歩10分",
    "games": [
      "SOUND VOLTEX -Valkyrie model-"
    ]
  },
  {
    "name": "GiGOイオンモール岡山",
    "operation_time": "",
    "holiday": "",
    "latitude": "34.66214987",
    "longitude": "133.9177027",
    "tel": "086-227-7681",
    "address": "岡山市北区下石井1-2-1イオンモール岡山6F",
    "access": "",
    "games": [
      "SOUND VOLTEX -Valkyrie model-"
    ]
  },
  {
    "name": "アミパラ岡山店",
    "operation_time": "10:00～24:00",
    "holiday": "無し",
    "latitude": "34.63615978",
    "longitude": "133.919988",
    "tel": "086-235-3332",
    "address": "岡山市北区青江1-13-8",
    "access": "2号線バイパス・青江交差点から北へすぐ",
    "games": [
      "SOUND VOLTEX -Valkyrie model-"
    ]
  },
  {
    "name": "アミューズメントパークMG伊予三島店",
    "operation_time": "",
    "holiday": "",
    "latitude": "33.97450223",
    "longitude": "133.5286622",
    "tel": "0896-72-7177",
    "address": "四国中央市中之庄町汐汲道75-1",
    "access": "",
    "games": [
      "SOUND VOLTEX -Valkyrie model-"
    ]
  },
  {
    "name": "ウェアハウス四万十店",
    "operation_time": "9:00～22:00",
    "holiday": "無し",
    "latitude": "32.98710457",
    "longitude": "132.9393438",
    "tel": "0880-31-0152",
    "address": "四万十市右山五月町8-13アピアさつき2F",
    "access": "",
    "games": [
      "SOUND VOLTEX -Valkyrie model-"
    ]
  },
  {
    "name": "マックスプラザ善通寺",
    "operation_time": "",
    "holiday": "",
    "latitude": "34.24362494",
    "longitude": "133.7639965",
    "tel": "0877-63-4333",
    "address": "善通寺市中村町1798-2",
    "access": "",
    "games": [
      "SOUND VOLTEX -Valkyrie model-"
    ]
  },
  {
    "name": "アミパラ丸亀店",
    "operation_time": "10:00～24:00",
    "holiday": "無し",
    "latitude": "34.28466398",
    "longitude": "133.8209638",
    "tel": "0877-24-6666",
    "address": "丸亀市飯野町西分字川縁甲584-1ハローズ棟",
    "access": "坂出ICから5分国道11号線沿い ニトリ隣",
    "games": [
      "SOUND VOLTEX -Valkyrie model-"
    ]
  },
  {
    "name": "GiGOイオン札幌手稲駅前SC",
    "operation_time": "ゲームコーナー9:00～26:00 / メダルコーナー9:00～24:00",
    "holiday": "無し",
    "latitude": "43.12045749",
    "longitude": "141.2452406",
    "tel": "080-7127-7065",
    "address": "札幌市手稲区前田1条11-3F",
    "access": "西友手稲店3F",
    "games": [
      "SOUND VOLTEX -Valkyrie model-"
    ]
  },
  {
    "name": "namco豊岡店",
    "operation_time": "",
    "holiday": "",
    "latitude": "35.554983",
    "longitude": "134.811837",
    "tel": "0796-24-2908",
    "address": "豊岡市中陰町字大工617-3F",
    "access": "",
    "games": [
      "SOUND VOLTEX -Valkyrie model-"
    ]
  },
  {
    "name": "ラウンドワン札幌北21条店",
    "operation_time": "",
    "holiday": "",
    "latitude": "43.08681907",
    "longitude": "141.3495671",
    "tel": "011-733-8801",
    "address": "札幌市東区北21条東1-1-21",
    "access": "",
    "games": [
      "SOUND VOLTEX -Valkyrie model-"
    ]
  },
  {
    "name": "GiGO札幌駅西口",
    "operation_time": "",
    "holiday": "",
    "latitude": "43.06749301",
    "longitude": "141.3465097",
    "tel": "080-7173-6552",
    "address": "札幌市北区北6条西6-1-1WEST6",
    "access": "",
    "games": [
      "SOUND VOLTEX -Valkyrie model-"
    ]
  },
  {
    "name": "GiGOすすきの",
    "operation_time": "",
    "holiday": "",
    "latitude": "43.05644251",
    "longitude": "141.3528308",
    "tel": "080-4856-7703",
    "address": "札幌市中央区南3条西4-1-1",
    "access": "",
    "games": [
      "SOUND VOLTEX -Valkyrie model-"
    ]
  },
  {
    "name": "タイトーステーション札幌狸小路2丁目店",
    "operation_time": "",
    "holiday": "",
    "latitude": "43.05729",
    "longitude": "141.355525",
    "tel": "011-213-1115",
    "address": "札幌市中央区南三条西2-14ニコービル",
    "access": "",
    "games": [
      "SOUND VOLTEX -Valkyrie model-"
    ]
  },
  {
    "name": "ラウンドワン札幌すすきの店",
    "operation_time": "",
    "holiday": "",
    "latitude": "43.05431311",
    "longitude": "141.3540587",
    "tel": "011-520-1022",
    "address": "札幌市中央区南五条西3-6-1札幌東宝公楽ビル",
    "access": "",
    "games": [
      "SOUND VOLTEX -Valkyrie model-"
    ]
  },
  {
    "name": "えの木高松店",
    "operation_time": "平日14:00～24:00 土日祝10:00～24:00",
    "holiday": "火曜日/水曜日",
    "latitude": "34.33588169",
    "longitude": "134.0537351",
    "tel": "",
    "address": "高松市藤塚町3-3-3",
    "access": "",
    "games": [
      "SOUND VOLTEX -Valkyrie model-"
    ]
  },
  {
    "name": "キャッツアイミュンヘン大橋店",
    "operation_time": "日～木・祝日:10:00～翌1:00 金・土・祝前日:10:00～翌3:00",
    "holiday": "無し",
    "latitude": "43.01406358",
    "longitude": "141.3550209",
    "tel": "011-816-0168",
    "address": "札幌市豊平区平岸1条23-1-21",
    "access": "「ミュンヘン大橋」より車3分",
    "games": [
      "SOUND VOLTEX -Valkyrie model-"
    ]
  },
  {
    "name": "ラウンドワン高松店",
    "operation_time": "",
    "holiday": "",
    "latitude": "34.33898638",
    "longitude": "134.0669994",
    "tel": "087-812-6115",
    "address": "高松市松島町2-7-43",
    "access": "",
    "games": [
      "SOUND VOLTEX -Valkyrie model-"
    ]
  },
  {
    "name": "ラウンドワン高知店",
    "operation_time": "",
    "holiday": "",
    "latitude": "33.55793713",
    "longitude": "133.554676",
    "tel": "088-804-3070",
    "address": "高知市南宝永町4-12",
    "access": "",
    "games": [
      "SOUND VOLTEX -Valkyrie model-"
    ]
  },
  {
    "name": "ラウンドワン札幌白石本通店",
    "operation_time": "",
    "holiday": "",
    "latitude": "43.03673108",
    "longitude": "141.4328227",
    "tel": "011-865-8051",
    "address": "札幌市白石区本通-16-北1-50",
    "access": "",
    "games": [
      "SOUND VOLTEX -Valkyrie model-"
    ]
  },
  {
    "name": "キャッツアイ新札幌店",
    "operation_time": "10:00～24:00",
    "holiday": "無し",
    "latitude": "43.04493545",
    "longitude": "141.4754191",
    "tel": "011-899-1500",
    "address": "札幌市厚別区厚別東5条1-2-10",
    "access": "JR、札幌市営地下鉄新札幌駅下車徒歩20分",
    "games": [
      "SOUND VOLTEX -Valkyrie model-"
    ]
  },
  {
    "name": "キャッツアイ清田店",
    "operation_time": "10:00～24:00",
    "holiday": "無し",
    "latitude": "43.00286736",
    "longitude": "141.4364379",
    "tel": "011-884-2828",
    "address": "札幌市清田区清田1条1-20-1",
    "access": "国道36号線、札幌ドームより車5分",
    "games": [
      "SOUND VOLTEX -Valkyrie model-"
    ]
  },
  {
    "name": "アミパラ高知店",
    "operation_time": "10:00～24:00",
    "holiday": "無し",
    "latitude": "33.56792315",
    "longitude": "133.6344447",
    "tel": "088-863-4343",
    "address": "南国市篠原194-1",
    "access": "南国ICを降りて南に突き当たり、東へ1km",
    "games": [
      "SOUND VOLTEX -Valkyrie model-"
    ]
  },
  {
    "name": "遊ランド春光店",
    "operation_time": "11:00～翌4:00",
    "holiday": "無し",
    "latitude": "43.798192",
    "longitude": "142.373983",
    "tel": "0166-55-3355",
    "address": "旭川市春光1条7-2-25",
    "access": "JR旭川駅車20分",
    "games": [
      "SOUND VOLTEX -Valkyrie model-"
    ]
  },
  {
    "name": "ラウンドワン旭川店",
    "operation_time": "",
    "holiday": "",
    "latitude": "43.78651521",
    "longitude": "142.397308",
    "tel": "0166-49-5071",
    "address": "旭川市永山3条1-4-7",
    "access": "",
    "games": [
      "SOUND VOLTEX -Valkyrie model-"
    ]
  },
  {
    "name": "ゲームアイビス太子店",
    "operation_time": "10:00～24:00",
    "holiday": "無し",
    "latitude": "34.83203126",
    "longitude": "134.6001053",
    "tel": "0792-77-2320",
    "address": "揖保郡太子町太田2148-1",
    "access": "姫路バイパス太子ランプより相生方面へ車で5分",
    "games": [
      "SOUND VOLTEX -Valkyrie model-"
    ]
  },
  {
    "name": "遊ランド西御料店",
    "operation_time": "平日12:00～翌3:00 金・土・祝前日11:00～翌5:00",
    "holiday": "無し",
    "latitude": "43.723884",
    "longitude": "142.368924",
    "tel": "0166-60-5050",
    "address": "旭川市西御料5条2-64-19",
    "access": "旭川環状線1号から美瑛・富良野方面へお進み下さいませ",
    "games": [
      "SOUND VOLTEX -Valkyrie model-"
    ]
  },
  {
    "name": "MEGAGET室蘭",
    "operation_time": "10:00～24:00",
    "holiday": "無し",
    "latitude": "42.35370861",
    "longitude": "141.014187",
    "tel": "0143-44-5222",
    "address": "室蘭市中島本町2-8-1",
    "access": "ショッピングセンターモルエ(MORUE)中島 側",
    "games": [
      "SOUND VOLTEX -Valkyrie model-"
    ]
  },
  {
    "name": "GiGO姫路駅前",
    "operation_time": "",
    "holiday": "",
    "latitude": "34.828977",
    "longitude": "134.69114",
    "tel": "0792-22-6455",
    "address": "姫路市駅前町254姫路OSビルB1F",
    "access": "",
    "games": [
      "SOUND VOLTEX -Valkyrie model-"
    ]
  },
  {
    "name": "ラウンドワン姫路飾磨店",
    "operation_time": "",
    "holiday": "",
    "latitude": "34.79228629",
    "longitude": "134.6871127",
    "tel": "079-243-1830",
    "address": "姫路市飾磨区中島1-254",
    "access": "",
    "games": [
      "SOUND VOLTEX -Valkyrie model-"
    ]
  },
  {
    "name": "タイトーステーション千歳店",
    "operation_time": "10:00-24:00",
    "holiday": "無し",
    "latitude": "42.833396",
    "longitude": "141.6439587",
    "tel": "0123-42-4195",
    "address": "千歳市北栄2-12-5",
    "access": "千歳駅から札幌方面に徒歩10分",
    "games": [
      "SOUND VOLTEX -Valkyrie model-"
    ]
  },
  {
    "name": "あそVIVA本店",
    "operation_time": "9:00～24:00",
    "holiday": "無し",
    "latitude": "35.28971907",
    "longitude": "135.1348229",
    "tel": "0773-25-5055",
    "address": "福知山市字堀小字上高田2146-1あそVIVA1F",
    "access": "",
    "games": [
      "SOUND VOLTEX -Valkyrie model-"
    ]
  },
  {
    "name": "ラウンドワン函館店",
    "operation_time": "",
    "holiday": "",
    "latitude": "41.82459206",
    "longitude": "140.7173548",
    "tel": "0138-49-8401",
    "address": "函館市西桔梗町848-11",
    "access": "",
    "games": [
      "SOUND VOLTEX -Valkyrie model-"
    ]
  },
  {
    "name": "ラウンドワン加古川店",
    "operation_time": "",
    "holiday": "",
    "latitude": "34.74708002",
    "longitude": "134.836935",
    "tel": "0794-29-2513",
    "address": "加古川市尾上町安田字小河原325番6号",
    "access": "",
    "games": [
      "SOUND VOLTEX -Valkyrie model-"
    ]
  },
  {
    "name": "GiGOイオンモール苫小牧",
    "operation_time": "ゲームコーナー9:00～24:00 / メダルコーナー9:00～23:30",
    "holiday": "無し",
    "latitude": "42.65619751",
    "longitude": "141.6419704",
    "tel": "0144-52-1212",
    "address": "苫小牧市柳町3-1-20イオンモール苫小牧2F",
    "access": "JR苫小牧駅よりバス20分",
    "games": [
      "SOUND VOLTEX -Valkyrie model-"
    ]
  },
  {
    "name": "トップラン",
    "operation_time": "10:00～24:00",
    "holiday": "無し",
    "latitude": "34.717655",
    "longitude": "134.928895",
    "tel": "078-969-2700",
    "address": "神戸市西区岩岡町古郷1474-1",
    "access": "第二神明道路大久保ICから車で5分",
    "games": [
      "SOUND VOLTEX -Valkyrie model-"
    ]
  },
  {
    "name": "ホムスタ玉津店",
    "operation_time": "10:00～24:00",
    "holiday": "無し",
    "latitude": "34.67922481",
    "longitude": "134.9831791",
    "tel": "078-920-3337",
    "address": "神戸市西区丸塚2-9-18メガパレス2F",
    "access": "第二神名玉津IC下車車5分",
    "games": [
      "SOUND VOLTEX -Valkyrie model-"
    ]
  },
  {
    "name": "ラウンドワン徳島･万代店",
    "operation_time": "",
    "holiday": "",
    "latitude": "34.064828",
    "longitude": "134.564699",
    "tel": "088-612-0025",
    "address": "徳島市万代町4-19-1",
    "access": "",
    "games": [
      "SOUND VOLTEX -Valkyrie model-"
    ]
  },
  {
    "name": "アミューズメント ミール",
    "operation_time": "10:00～24:00",
    "holiday": "無し",
    "latitude": "34.88047252",
    "longitude": "135.2295927",
    "tel": "0795-64-5678",
    "address": "三田市対中町5-21",
    "access": "神戸電鉄三田本町駅下車国道176号線側へ徒歩5分。車の場合はガリバー三田店より176号を三田方面へ、ブックプラザ三田店の向かい。",
    "games": [
      "SOUND VOLTEX -Valkyrie model-"
    ]
  },
  {
    "name": "ベティ",
    "operation_time": "",
    "holiday": "",
    "latitude": "37.06731535",
    "longitude": "136.9070025",
    "tel": "0767-68-6211",
    "address": "七尾市舟尾町ウ-38",
    "access": "国道249号線沿い田鶴浜町地内",
    "games": [
      "SOUND VOLTEX -Valkyrie model-"
    ]
  },
  {
    "name": "アルゴ",
    "operation_time": "11:15～23:30",
    "holiday": "無し",
    "latitude": "34.69392181",
    "longitude": "135.1914556",
    "tel": "078-334-3031",
    "address": "神戸市中央区下山手通1-1-8",
    "access": "JR三ノ宮駅下車徒歩5分生田神社前",
    "games": [
      "SOUND VOLTEX -Valkyrie model-"
    ]
  },
  {
    "name": "GiGO三宮北口",
    "operation_time": "",
    "holiday": "",
    "latitude": "34.69312229",
    "longitude": "135.192177",
    "tel": "070-6949-3872",
    "address": "神戸市中央区北長狭通1-8-1コスモビルB1F-2F",
    "access": "",
    "games": [
      "SOUND VOLTEX -Valkyrie model-"
    ]
  },
  {
    "name": "タイトーFステーション三宮西館店",
    "operation_time": "",
    "holiday": "",
    "latitude": "34.691146",
    "longitude": "135.191142",
    "tel": "078-335-8348",
    "address": "神戸市中央区三宮町2-11-1センタープラザ西館3F",
    "access": "",
    "games": [
      "SOUND VOLTEX -Valkyrie model-"
    ]
  },
  {
    "name": "遊･スペース マジカル",
    "operation_time": "9:00～24:00",
    "holiday": "無し",
    "latitude": "34.69551577",
    "longitude": "135.1950261",
    "tel": "078-414-8844",
    "address": "神戸市中央区琴ノ緒町5-2-3協律三宮センタービル3F",
    "access": "JR三ノ宮駅下車徒歩5分",
    "games": [
      "SOUND VOLTEX -Valkyrie model-"
    ]
  },
  {
    "name": "ラウンドワン三宮駅前店",
    "operation_time": "",
    "holiday": "",
    "latitude": "34.69403073",
    "longitude": "135.1973402",
    "tel": "078-252-7200",
    "address": "神戸市中央区小野柄通り6-1-17",
    "access": "",
    "games": [
      "SOUND VOLTEX -Valkyrie model-"
    ]
  },
  {
    "name": "バイパスレジャーランド加賀店",
    "operation_time": "一部24時間営業",
    "holiday": "無し",
    "latitude": "36.32515503",
    "longitude": "136.4113746",
    "tel": "0761-74-8007",
    "address": "加賀市箱宮町ヲ1-1",
    "access": "国道8号線加賀産業道路終点近く",
    "games": [
      "SOUND VOLTEX -Valkyrie model-"
    ]
  },
  {
    "name": "バイパスレジャーランド藤江新館",
    "operation_time": "",
    "holiday": "",
    "latitude": "36.58375651",
    "longitude": "136.6206642",
    "tel": "076-268-7518",
    "address": "金沢市藤江南2-105",
    "access": "",
    "games": [
      "SOUND VOLTEX -Valkyrie model-"
    ]
  },
  {
    "name": "フクイレジャーランドワイプラザ店",
    "operation_time": "一部24時間営業",
    "holiday": "無し",
    "latitude": "36.08750805",
    "longitude": "136.2494211",
    "tel": "0776-57-0433",
    "address": "福井市新保北1-303ヤスサキワイプラザB棟2F",
    "access": "国道8号線沿い福井市内新保交差点近くワイプラザ内",
    "games": [
      "SOUND VOLTEX -Valkyrie model-"
    ]
  },
  {
    "name": "バイパスレジャーランド御経塚店",
    "operation_time": "",
    "holiday": "",
    "latitude": "36.5479306",
    "longitude": "136.6012358",
    "tel": "076-214-6615",
    "address": "野々市市御経塚4-46",
    "access": "",
    "games": [
      "SOUND VOLTEX -Valkyrie model-"
    ]
  },
  {
    "name": "GiGO福井",
    "operation_time": "",
    "holiday": "",
    "latitude": "36.073357",
    "longitude": "136.243038",
    "tel": "0776-52-0806",
    "address": "福井市丸山町1-410",
    "access": "",
    "games": [
      "SOUND VOLTEX -Valkyrie model-"
    ]
  },
  {
    "name": "福井レジャーランド板垣店",
    "operation_time": "",
    "holiday": "",
    "latitude": "36.042283",
    "longitude": "136.233748",
    "tel": "0776-33-5510",
    "address": "福井市下馬3-112",
    "access": "",
    "games": [
      "SOUND VOLTEX -Valkyrie model-"
    ]
  },
  {
    "name": "ラウンドワン金沢店",
    "operation_time": "",
    "holiday": "",
    "latitude": "36.54211559",
    "longitude": "136.626054",
    "tel": "076-245-1850",
    "address": "金沢市横川6-120-1",
    "access": "",
    "games": [
      "SOUND VOLTEX -Valkyrie model-"
    ]
  },
  {
    "name": "ラウンドワン伊丹店",
    "operation_time": "",
    "holiday": "",
    "latitude": "34.77891327",
    "longitude": "135.3932572",
    "tel": "0727-75-4150",
    "address": "伊丹市昆陽7-29",
    "access": "",
    "games": [
      "SOUND VOLTEX -Valkyrie model-"
    ]
  },
  {
    "name": "ジョイランド敦賀店",
    "operation_time": "10:00～24:00",
    "holiday": "無し",
    "latitude": "35.64473762",
    "longitude": "136.0430148",
    "tel": "0770-37-1616",
    "address": "敦賀市木崎40-土三田12USAアリーナ内",
    "access": "",
    "games": [
      "SOUND VOLTEX -Valkyrie model-"
    ]
  },
  {
    "name": "ラウンドワンJR尼崎駅前店",
    "operation_time": "",
    "holiday": "",
    "latitude": "34.73331738",
    "longitude": "135.4329448",
    "tel": "06-6495-4177",
    "address": "尼崎市潮江1-4-5プラストいきいきビル4F",
    "access": "",
    "games": [
      "SOUND VOLTEX -Valkyrie model-"
    ]
  },
  {
    "name": "PALO五所川原",
    "operation_time": "",
    "holiday": "",
    "latitude": "40.80095013",
    "longitude": "140.4614581",
    "tel": "070-3100-5496",
    "address": "五所川原市大字唐笠柳字藤巻641-1",
    "access": "",
    "games": [
      "SOUND VOLTEX -Valkyrie model-"
    ]
  },
  {
    "name": "ラウンドワン豊中店",
    "operation_time": "",
    "holiday": "",
    "latitude": "34.75733488",
    "longitude": "135.465555",
    "tel": "06-6865-2200",
    "address": "豊中市名神口1-1-1",
    "access": "",
    "games": [
      "SOUND VOLTEX -Valkyrie model-"
    ]
  },
  {
    "name": "ユーズランド和歌山店",
    "operation_time": "10:00～21:00",
    "holiday": "",
    "latitude": "34.275743",
    "longitude": "135.149066",
    "tel": "073-452-1668",
    "address": "和歌山市ふじと台23イオンモール和歌山2F",
    "access": "",
    "games": [
      "SOUND VOLTEX -Valkyrie model-"
    ]
  },
  {
    "name": "ピタゴラス和歌山店",
    "operation_time": "",
    "holiday": "",
    "latitude": "34.25253983",
    "longitude": "135.1463143",
    "tel": "070-1479-6710",
    "address": "和歌山市土入73-1",
    "access": "",
    "games": [
      "SOUND VOLTEX -Valkyrie model-"
    ]
  },
  {
    "name": "Feedy Diner&Arcade茨木店",
    "operation_time": "10:00～23:00",
    "holiday": "無し",
    "latitude": "34.8107727",
    "longitude": "135.5584064",
    "tel": "070-3100-4308",
    "address": "茨木市松ヶ本町8-30-5イオンモール茨木4F",
    "access": "JR茨木駅西徒歩5分 マイカル茨木 4F",
    "games": [
      "SOUND VOLTEX -Valkyrie model-"
    ]
  },
  {
    "name": "ゲームSPOT207",
    "operation_time": "7:00～24:00",
    "holiday": "無し",
    "latitude": "36.73235328",
    "longitude": "137.0023356",
    "tel": "0766-26-2070",
    "address": "高岡市鐘紡町1655-3",
    "access": "JR高岡駅から車で15分",
    "games": [
      "SOUND VOLTEX -Valkyrie model-"
    ]
  },
  {
    "name": "あそVIVA阪急茨木店",
    "operation_time": "",
    "holiday": "",
    "latitude": "34.817929",
    "longitude": "135.576325",
    "tel": "072-631-6606",
    "address": "茨木市永代町6-2スポーツプラザ茨木2F",
    "access": "",
    "games": [
      "SOUND VOLTEX -Valkyrie model-"
    ]
  },
  {
    "name": "ラウンドワン東淀川店",
    "operation_time": "",
    "holiday": "",
    "latitude": "34.74289355",
    "longitude": "135.5255278",
    "tel": "06-6160-2221",
    "address": "大阪市東淀川区菅原7-14-29",
    "access": "",
    "games": [
      "SOUND VOLTEX -Valkyrie model-"
    ]
  },
  {
    "name": "namco梅田店",
    "operation_time": "",
    "holiday": "",
    "latitude": "34.70278573",
    "longitude": "135.5003716",
    "tel": "06-6313-0778",
    "address": "大阪市北区小松原町3-3OSビル2F",
    "access": "",
    "games": [
      "SOUND VOLTEX -Valkyrie model-"
    ]
  },
  {
    "name": "ラウンドワン梅田店",
    "operation_time": "",
    "holiday": "",
    "latitude": "34.70337769",
    "longitude": "135.5009178",
    "tel": "06-6312-6800",
    "address": "大阪市北区小松原町4-16",
    "access": "",
    "games": [
      "SOUND VOLTEX -Valkyrie model-"
    ]
  },
  {
    "name": "GiGO大阪第4ビル",
    "operation_time": "",
    "holiday": "",
    "latitude": "34.69990767",
    "longitude": "135.4988323",
    "tel": "06-6344-5270",
    "address": "大阪市北区梅田1-11-4駅前第4ビルB1F",
    "access": "",
    "games": [
      "SOUND VOLTEX -Valkyrie model-"
    ]
  },
  {
    "name": "アミューズメントCUE京都円町店",
    "operation_time": "",
    "holiday": "",
    "latitude": "35.01880055",
    "longitude": "135.7309726",
    "tel": "075-462-9316",
    "address": "京都市中京区西ノ京西円町40",
    "access": "",
    "games": [
      "SOUND VOLTEX -Valkyrie model-"
    ]
  },
  {
    "name": "ユーズランド高岡店",
    "operation_time": "10:00～21:00",
    "holiday": "無し",
    "latitude": "36.72378877",
    "longitude": "137.016935",
    "tel": "0766-27-2411",
    "address": "高岡市下伏間江383イオンモール高岡2F",
    "access": "イオン高岡SC2FJR高岡駅よりバスで10分能越自動車道高岡ICより東へ約3km",
    "games": [
      "SOUND VOLTEX -Valkyrie model-"
    ]
  },
  {
    "name": "サービスエリアイン高岡店",
    "operation_time": "5:00～24:00",
    "holiday": "無し",
    "latitude": "36.76070699",
    "longitude": "137.0468366",
    "tel": "0766-28-1028",
    "address": "高岡市石瀬下石瀬857-1",
    "access": "国道8号線高新大橋超えてすぐ。",
    "games": [
      "SOUND VOLTEX -Valkyrie model-"
    ]
  },
  {
    "name": "ゲームパニック堺",
    "operation_time": "10:00～23:45",
    "holiday": "無し",
    "latitude": "34.597817",
    "longitude": "135.447433",
    "tel": "072-224-8295",
    "address": "堺市堺区築港八幡町1-1堺浜シーサイド内堺浜えんため館",
    "access": "南海バス20系統「堺市内北回り」 堺駅西口→堺浜シーサイドステージ約17分 堺東駅→堺浜シーサイドステージ約25分",
    "games": [
      "SOUND VOLTEX -Valkyrie model-"
    ]
  },
  {
    "name": "ザ･インドアゲーム",
    "operation_time": "平日12:00～24:00 土日祝11:00～24:00",
    "holiday": "無し",
    "latitude": "34.72953957",
    "longitude": "135.5440365",
    "tel": "06-6955-4494",
    "address": "大阪市旭区中宮5-6-19",
    "access": "大阪工業大学正門前通り",
    "games": [
      "SOUND VOLTEX -Valkyrie model-"
    ]
  },
  {
    "name": "GiGO大阪道頓堀本店",
    "operation_time": "",
    "holiday": "",
    "latitude": "34.66848732",
    "longitude": "135.5017054",
    "tel": "070-1458-4741",
    "address": "大阪市中央区道頓堀1-8-22頓座ビル1F-3F",
    "access": "",
    "games": [
      "SOUND VOLTEX -Valkyrie model-"
    ]
  },
  {
    "name": "ラウンドワン千日前店",
    "operation_time": "",
    "holiday": "",
    "latitude": "34.667424",
    "longitude": "135.5026714",
    "tel": "06-4708-2600",
    "address": "大阪市中央区難波1-3-1",
    "access": "",
    "games": [
      "SOUND VOLTEX -Valkyrie model-"
    ]
  },
  {
    "name": "タイトーステーション難波店",
    "operation_time": "10:00～24:00",
    "holiday": "無し",
    "latitude": "34.66333204",
    "longitude": "135.5031684",
    "tel": "06-6641-0185",
    "address": "大阪市中央区難波千日前15-12",
    "access": "南海難波駅北館東出口から徒歩2分 赤い看板のスペースインベーダーが目印",
    "games": [
      "SOUND VOLTEX -Valkyrie model-"
    ]
  },
  {
    "name": "GiGO難波アビオン",
    "operation_time": "",
    "holiday": "",
    "latitude": "34.66278737",
    "longitude": "135.5032116",
    "tel": "070-1458-1437",
    "address": "大阪市浪速区難波中2-3-15MMOビル1-2F",
    "access": "",
    "games": [
      "SOUND VOLTEX -Valkyrie model-"
    ]
  },
  {
    "name": "タイトーステーション大阪日本橋店",
    "operation_time": "10:00～24:00",
    "holiday": "無し",
    "latitude": "34.660362",
    "longitude": "135.506113",
    "tel": "06-6630-7270",
    "address": "大阪市浪速区日本橋4-9-14",
    "access": "地下鉄なんば駅・日本橋駅・恵美須町駅から約7分ほど。",
    "games": [
      "SOUND VOLTEX -Valkyrie model-"
    ]
  },
  {
    "name": "ラウンドワン高槻店",
    "operation_time": "",
    "holiday": "",
    "latitude": "34.83266921",
    "longitude": "135.6301782",
    "tel": "072-672-9933",
    "address": "高槻市辻子3-6-4",
    "access": "",
    "games": [
      "SOUND VOLTEX -Valkyrie model-"
    ]
  },
  {
    "name": "ラウンドワン和歌山店",
    "operation_time": "",
    "holiday": "",
    "latitude": "34.19849168",
    "longitude": "135.1859428",
    "tel": "073-421-8210",
    "address": "和歌山市小雑賀739-3",
    "access": "",
    "games": [
      "SOUND VOLTEX -Valkyrie model-"
    ]
  },
  {
    "name": "ラウンドワン京都河原町店",
    "operation_time": "",
    "holiday": "",
    "latitude": "35.00699573",
    "longitude": "135.7685149",
    "tel": "075-213-8400",
    "address": "京都市中京区河原町通り三条下ル山崎町250",
    "access": "",
    "games": [
      "SOUND VOLTEX -Valkyrie model-"
    ]
  },
  {
    "name": "ラウンドワン守口店",
    "operation_time": "",
    "holiday": "",
    "latitude": "34.7562488",
    "longitude": "135.5886793",
    "tel": "06-6907-9270",
    "address": "守口市佐太東町2-6-14ジャガーグリーン2F",
    "access": "",
    "games": [
      "SOUND VOLTEX -Valkyrie model-"
    ]
  },
  {
    "name": "GiGOあべのアポロ",
    "operation_time": "10:00～24:00",
    "holiday": "",
    "latitude": "34.646623",
    "longitude": "135.511677",
    "tel": "06-6647-0716",
    "address": "大阪市阿倍野区阿倍野筋1-5-31アポロビル3F･4F",
    "access": "JR 天王寺駅・近鉄あべの橋駅より徒歩3分 アポロビル 3F",
    "games": [
      "SOUND VOLTEX -Valkyrie model-"
    ]
  },
  {
    "name": "泉大津フタバボウル",
    "operation_time": "10:00～翌3:00",
    "holiday": "無し",
    "latitude": "34.5109011",
    "longitude": "135.4157314",
    "tel": "0725-22-8128",
    "address": "泉大津市松之浜町1-2-53",
    "access": "南海本線松ノ浜駅下車徒歩5分",
    "games": [
      "SOUND VOLTEX -Valkyrie model-"
    ]
  },
  {
    "name": "ラウンドワン堺駅前店",
    "operation_time": "",
    "holiday": "",
    "latitude": "34.58340412",
    "longitude": "135.468425",
    "tel": "072-222-0120",
    "address": "堺市堺区戎島町4-44-3",
    "access": "",
    "games": [
      "SOUND VOLTEX -Valkyrie model-"
    ]
  },
  {
    "name": "ラウンドワン岸和田店",
    "operation_time": "",
    "holiday": "",
    "latitude": "34.45649962",
    "longitude": "135.3885278",
    "tel": "072-429-1100",
    "address": "岸和田市八阪町2-11-1",
    "access": "",
    "games": [
      "SOUND VOLTEX -Valkyrie model-"
    ]
  },
  {
    "name": "YAZ寝屋川店",
    "operation_time": "",
    "holiday": "",
    "latitude": "34.78044073",
    "longitude": "135.6193889",
    "tel": "072-830-7755",
    "address": "寝屋川市石津中町25-26",
    "access": "",
    "games": [
      "SOUND VOLTEX -Valkyrie model-"
    ]
  },
  {
    "name": "ラウンドワン城東放出店",
    "operation_time": "",
    "holiday": "",
    "latitude": "34.69651235",
    "longitude": "135.559648",
    "tel": "06-6936-0100",
    "address": "大阪市城東区今福南3-4-38",
    "access": "",
    "games": [
      "SOUND VOLTEX -Valkyrie model-"
    ]
  },
  {
    "name": "モンキートリック",
    "operation_time": "10:00～24:00",
    "holiday": "無し",
    "latitude": "34.78316526",
    "longitude": "135.628799",
    "tel": "072-835-6361",
    "address": "寝屋川市香里南之町32-5",
    "access": "京阪本線香里園駅下車徒歩2分",
    "games": [
      "SOUND VOLTEX -Valkyrie model-"
    ]
  },
  {
    "name": "ラウンドワン京都伏見店",
    "operation_time": "",
    "holiday": "",
    "latitude": "34.93599659",
    "longitude": "135.746198",
    "tel": "075-622-9911",
    "address": "京都市伏見区下鳥羽平塚町131",
    "access": "",
    "games": [
      "SOUND VOLTEX -Valkyrie model-"
    ]
  },
  {
    "name": "クァトロブーム小杉",
    "operation_time": "",
    "holiday": "",
    "latitude": "36.7205",
    "longitude": "137.092912",
    "tel": "0766-57-8219",
    "address": "射水市三ケ2602",
    "access": "",
    "games": [
      "SOUND VOLTEX -Valkyrie model-"
    ]
  },
  {
    "name": "GiGO布施",
    "operation_time": "",
    "holiday": "",
    "latitude": "34.66416946",
    "longitude": "135.5628455",
    "tel": "06-6783-6999",
    "address": "東大阪市長堂1-1-1ロンモール布施内",
    "access": "",
    "games": [
      "SOUND VOLTEX -Valkyrie model-"
    ]
  },
  {
    "name": "GiGO枚方",
    "operation_time": "",
    "holiday": "",
    "latitude": "34.81956439",
    "longitude": "135.675398",
    "tel": "072-898-9019",
    "address": "枚方市須山町83-1サンシャインプラザ枚方内",
    "access": "",
    "games": [
      "SOUND VOLTEX -Valkyrie model-"
    ]
  },
  {
    "name": "GiGO北見",
    "operation_time": "10:00～24:00",
    "holiday": "無し",
    "latitude": "43.79655355",
    "longitude": "143.8426866",
    "tel": "080-7437-9057",
    "address": "北見市西三輪5-1-16",
    "access": "国道39号 大雪大通沿い",
    "games": [
      "SOUND VOLTEX -Valkyrie model-"
    ]
  },
  {
    "name": "エースレーン堅田",
    "operation_time": "10:00～23:45",
    "holiday": "無し",
    "latitude": "35.12458935",
    "longitude": "135.9194764",
    "tel": "077-571-1226",
    "address": "大津市今堅田2-40-10ACT堅田ビル2F",
    "access": "JR湖西線堅田駅下車徒歩10分",
    "games": [
      "SOUND VOLTEX -Valkyrie model-"
    ]
  },
  {
    "name": "BIG BANG北見",
    "operation_time": "",
    "holiday": "無し",
    "latitude": "43.796167",
    "longitude": "143.850753",
    "tel": "0157-36-9190",
    "address": "北見市中央三輪7-446-1",
    "access": "",
    "games": [
      "SOUND VOLTEX -Valkyrie model-"
    ]
  },
  {
    "name": "PALOむつ",
    "operation_time": "",
    "holiday": "",
    "latitude": "41.2869745",
    "longitude": "141.1838083",
    "tel": "070-3100-4671",
    "address": "むつ市中央2-7-8",
    "access": "",
    "games": [
      "SOUND VOLTEX -Valkyrie model-"
    ]
  },
  {
    "name": "ラウンドワンららぽーと和泉店",
    "operation_time": "",
    "holiday": "",
    "latitude": "34.435599",
    "longitude": "135.447876",
    "tel": "0725-51-2100",
    "address": "和泉市あゆみ野4-4-7ららぽーと和泉店 4F 42100",
    "access": "",
    "games": [
      "SOUND VOLTEX -Valkyrie model-"
    ]
  },
  {
    "name": "ラウンドワン堺中央環状店",
    "operation_time": "",
    "holiday": "",
    "latitude": "34.55707895",
    "longitude": "135.5362412",
    "tel": "072-253-9559",
    "address": "堺市東区石原町2-241",
    "access": "",
    "games": [
      "SOUND VOLTEX -Valkyrie model-"
    ]
  },
  {
    "name": "ラウンドワン東大阪店",
    "operation_time": "",
    "holiday": "",
    "latitude": "34.6531932",
    "longitude": "135.60637",
    "tel": "06-6224-1700",
    "address": "東大阪市若江南町1-2-12",
    "access": "",
    "games": [
      "SOUND VOLTEX -Valkyrie model-"
    ]
  },
  {
    "name": "ラウンドワン浜大津アーカス店",
    "operation_time": "",
    "holiday": "",
    "latitude": "35.010557",
    "longitude": "135.866804",
    "tel": "077-526-8722",
    "address": "大津市浜町2-1浜大津アーカス4F",
    "access": "",
    "games": [
      "SOUND VOLTEX -Valkyrie model-"
    ]
  },
  {
    "name": "トヤマレジャーランド呉羽店",
    "operation_time": "一部24時間営業",
    "holiday": "無し",
    "latitude": "36.71545083",
    "longitude": "137.1579046",
    "tel": "076-434-5336",
    "address": "富山市高木字貝塚2054",
    "access": "県道44号線沿い呉羽本町交差点を富山方面方向に車で3分",
    "games": [
      "SOUND VOLTEX -Valkyrie model-"
    ]
  },
  {
    "name": "滋賀レジャーランド大津店",
    "operation_time": "",
    "holiday": "",
    "latitude": "35.003875",
    "longitude": "135.883431",
    "tel": "077-548-7851",
    "address": "大津市におの浜3-1-43",
    "access": "",
    "games": [
      "SOUND VOLTEX -Valkyrie model-"
    ]
  },
  {
    "name": "ラウンドワン青森店",
    "operation_time": "",
    "holiday": "",
    "latitude": "40.79867718",
    "longitude": "140.7483213",
    "tel": "017-762-3591",
    "address": "青森市浜田3-1-1",
    "access": "",
    "games": [
      "SOUND VOLTEX -Valkyrie model-"
    ]
  },
  {
    "name": "アピナ富山豊田店",
    "operation_time": "10:00～24:00",
    "holiday": "無し",
    "latitude": "36.7211336",
    "longitude": "137.2352552",
    "tel": "076-433-3355",
    "address": "富山市豊田町2-12-66",
    "access": "国道8号線豊田東交差点近く",
    "games": [
      "SOUND VOLTEX -Valkyrie model-"
    ]
  },
  {
    "name": "GiGOエイスクエア草津",
    "operation_time": "",
    "holiday": "",
    "latitude": "35.02456418",
    "longitude": "135.9591575",
    "tel": "077-561-6577",
    "address": "草津市西渋川1-23-23A-SQUARE SARA新棟2F",
    "access": "",
    "games": [
      "SOUND VOLTEX -Valkyrie model-"
    ]
  },
  {
    "name": "エースレーン守山",
    "operation_time": "10:00～24:00",
    "holiday": "無し",
    "latitude": "35.06802993",
    "longitude": "135.9957195",
    "tel": "077-514-2455",
    "address": "守山市播磨田町231-4ACT守山3番館内",
    "access": "名神高速道栗東IC出て国道8号線彦根方面向かい辻交差点左折し15分 JR守山駅よりタクシー5分",
    "games": [
      "SOUND VOLTEX -Valkyrie model-"
    ]
  },
  {
    "name": "エースレーン草津",
    "operation_time": "10:00～24:00",
    "holiday": "無し",
    "latitude": "34.99965692",
    "longitude": "135.9463199",
    "tel": "077-569-0472",
    "address": "草津市野路3-1-11",
    "access": "JR東海道線南草津駅より徒歩10分。国道1号線南田山交差点そば",
    "games": [
      "SOUND VOLTEX -Valkyrie model-"
    ]
  },
  {
    "name": "アミューズメントパークイオンモール奈良登美ヶ丘店",
    "operation_time": "10:00～24:00",
    "holiday": "無し",
    "latitude": "34.72591981",
    "longitude": "135.7503866",
    "tel": "0743-78-4160",
    "address": "生駒市鹿畑町3027イオンモール奈良登美が丘3F",
    "access": "イオン奈良登美が丘SC専門店街3階",
    "games": [
      "SOUND VOLTEX -Valkyrie model-"
    ]
  },
  {
    "name": "富山レジャーランド掛尾店",
    "operation_time": "",
    "holiday": "",
    "latitude": "36.66605175",
    "longitude": "137.208892",
    "tel": "076-413-2606",
    "address": "富山市掛尾町360-1",
    "access": "",
    "games": [
      "SOUND VOLTEX -Valkyrie model-"
    ]
  },
  {
    "name": "アピナ富山南店",
    "operation_time": "10:00～24:00",
    "holiday": "無し",
    "latitude": "36.665007",
    "longitude": "137.217248",
    "tel": "076-461-6644",
    "address": "富山市堀川町355-3",
    "access": "富山マイプラザ店内",
    "games": [
      "SOUND VOLTEX -Valkyrie model-"
    ]
  },
  {
    "name": "エースレーン近江八幡",
    "operation_time": "月～木・日・祝09:00～24:00 金・土・祝前日09:00～翌2:00",
    "holiday": "無し",
    "latitude": "35.13185244",
    "longitude": "136.1023481",
    "tel": "0748-31-2468",
    "address": "近江八幡市出町736",
    "access": "",
    "games": [
      "SOUND VOLTEX -Valkyrie model-"
    ]
  },
  {
    "name": "タイトーFステーションイオン近江八幡店",
    "operation_time": "",
    "holiday": "",
    "latitude": "35.12047338",
    "longitude": "136.1037493",
    "tel": "0748-38-5172",
    "address": "近江八幡市鷹飼町190-9イオン近江八幡2番街 1F",
    "access": "",
    "games": [
      "SOUND VOLTEX -Valkyrie model-"
    ]
  },
  {
    "name": "ゲームスポットアップル",
    "operation_time": "",
    "holiday": "",
    "latitude": "36.8255737",
    "longitude": "137.4142933",
    "tel": "0765-24-7740",
    "address": "魚津市吉島2-407-1",
    "access": "",
    "games": [
      "SOUND VOLTEX -Valkyrie model-"
    ]
  },
  {
    "name": "プレイランド黒部",
    "operation_time": "5:00～24:00",
    "holiday": "無し",
    "latitude": "36.88891002",
    "longitude": "137.4646533",
    "tel": "0765-52-5141",
    "address": "黒部市沓掛645",
    "access": "国道8号線沿い黒部IC入口交差点近く",
    "games": [
      "SOUND VOLTEX -Valkyrie model-"
    ]
  },
  {
    "name": "ラウンドワン奈良ミナーラ店",
    "operation_time": "",
    "holiday": "",
    "latitude": "34.685231",
    "longitude": "135.802224",
    "tel": "0742-32-3900",
    "address": "奈良市二条大路南1-3-1ミ･ナーラ5F",
    "access": "",
    "games": [
      "SOUND VOLTEX -Valkyrie model-"
    ]
  },
  {
    "name": "アミューズメントCUE奈良三条店",
    "operation_time": "10:00～24:00",
    "holiday": "無し",
    "latitude": "34.68177805",
    "longitude": "135.8221257",
    "tel": "0742-25-5115",
    "address": "奈良市三条町478-1",
    "access": "JR奈良駅から三条通りを東へすぐ",
    "games": [
      "SOUND VOLTEX -Valkyrie model-"
    ]
  },
  {
    "name": "彦根パスカ",
    "operation_time": "13:00～24:00",
    "holiday": "無し",
    "latitude": "35.25868777",
    "longitude": "136.2653241",
    "tel": "070-3166-4833",
    "address": "彦根市西沼波町166",
    "access": "近江鉄道ひこね芹川駅下車徒歩10分",
    "games": [
      "SOUND VOLTEX -Valkyrie model-"
    ]
  },
  {
    "name": "GiGOドリームタウン白樺",
    "operation_time": "9:00～翌3:00",
    "holiday": "無し",
    "latitude": "42.91947724",
    "longitude": "143.174195",
    "tel": "080-7422-4566",
    "address": "帯広市白樺16条西2ドリームタウン白樺内",
    "access": "ドリームタウン白樺内",
    "games": [
      "SOUND VOLTEX -Valkyrie model-"
    ]
  },
  {
    "name": "アミューズメントCUE大和高田",
    "operation_time": "10:00～24:00",
    "holiday": "無し",
    "latitude": "34.49978101",
    "longitude": "135.7354379",
    "tel": "0745-25-3335",
    "address": "大和高田市東中2-11-16",
    "access": "国道166号線東宝交差点そば",
    "games": [
      "SOUND VOLTEX -Valkyrie model-"
    ]
  },
  {
    "name": "GiGO帯広稲田",
    "operation_time": "平日・祝日10:00～24:00 / 土日8:00～24:00",
    "holiday": "無し",
    "latitude": "42.89057652",
    "longitude": "143.1965812",
    "tel": "080-7351-3976",
    "address": "帯広市稲田町南8線西12-1スズランボウル内",
    "access": "イトーヨーカドー帯広店隣り",
    "games": [
      "SOUND VOLTEX -Valkyrie model-"
    ]
  },
  {
    "name": "アミパラ橿原店",
    "operation_time": "",
    "holiday": "",
    "latitude": "34.52935645",
    "longitude": "135.7966131",
    "tel": "0744-25-0550",
    "address": "橿原市十市町1222-1ツインゲート橿原1F",
    "access": "",
    "games": [
      "SOUND VOLTEX -Valkyrie model-"
    ]
  },
  {
    "name": "ラウンドワン秋田店",
    "operation_time": "",
    "holiday": "",
    "latitude": "39.70235247",
    "longitude": "140.1092394",
    "tel": "018-896-6711",
    "address": "秋田市卸町1-1-2",
    "access": "",
    "games": [
      "SOUND VOLTEX -Valkyrie model-"
    ]
  },
  {
    "name": "ドリーム キャンディ",
    "operation_time": "一部24時間",
    "holiday": "無し",
    "latitude": "34.775269",
    "longitude": "136.122796",
    "tel": "0595-26-7568",
    "address": "伊賀市小田町711-1",
    "access": "西大手駅から約13分",
    "games": [
      "SOUND VOLTEX -Valkyrie model-"
    ]
  },
  {
    "name": "ラウンドワンモレラ岐阜店",
    "operation_time": "",
    "holiday": "",
    "latitude": "35.455121",
    "longitude": "136.672955",
    "tel": "058-323-6600",
    "address": "本巣市三橋1100",
    "access": "",
    "games": [
      "SOUND VOLTEX -Valkyrie model-"
    ]
  },
  {
    "name": "大垣メトロポリス",
    "operation_time": "10:00～24:00",
    "holiday": "無し",
    "latitude": "35.36694278",
    "longitude": "136.6291725",
    "tel": "0584-75-5734",
    "address": "大垣市三塚町字西沼523-1",
    "access": "",
    "games": [
      "SOUND VOLTEX -Valkyrie model-"
    ]
  },
  {
    "name": "岐阜レジャーランド穂積店",
    "operation_time": "7:00～24:00",
    "holiday": "無し",
    "latitude": "35.38432479",
    "longitude": "136.6846653",
    "tel": "058-326-1133",
    "address": "瑞穂市稲里630",
    "access": "国道21号線沿い瑞穂市野田新田交差点近く",
    "games": [
      "SOUND VOLTEX -Valkyrie model-"
    ]
  },
  {
    "name": "モーリーファンタジーf岐阜",
    "operation_time": "10:00～22:00",
    "holiday": "無し",
    "latitude": "35.44803841",
    "longitude": "136.7447554",
    "tel": "070-3100-3566",
    "address": "岐阜市正木中1-2-1マーサ21 北館3F",
    "access": "ジャスコ岐阜店北側3階",
    "games": [
      "SOUND VOLTEX -Valkyrie model-"
    ]
  },
  {
    "name": "モーリーファンタジー本荘",
    "operation_time": "",
    "holiday": "",
    "latitude": "39.39161012",
    "longitude": "140.026304",
    "tel": "080-3476-8892",
    "address": "由利本荘市石脇字田中138イオンスーパーセンター本荘店1F",
    "access": "",
    "games": [
      "SOUND VOLTEX -Valkyrie model-"
    ]
  },
  {
    "name": "ゲームファンタジアン柳津店",
    "operation_time": "一部24時間営業",
    "holiday": "無し",
    "latitude": "35.37596826",
    "longitude": "136.7145391",
    "tel": "058-279-0085",
    "address": "岐阜市柳津町上佐波西3-68",
    "access": "岐阜県ふれあい会館から南に4分",
    "games": [
      "SOUND VOLTEX -Valkyrie model-"
    ]
  },
  {
    "name": "A.Cグランド",
    "operation_time": "9:00～24:00",
    "holiday": "無し",
    "latitude": "35.38308553",
    "longitude": "136.7461998",
    "tel": "058-275-0351",
    "address": "岐阜市茜部大川1-77",
    "access": "名鉄新岐阜駅15分",
    "games": [
      "SOUND VOLTEX -Valkyrie model-"
    ]
  },
  {
    "name": "楽市楽座イオンモール東員店",
    "operation_time": "10:00～21:00",
    "holiday": "",
    "latitude": "35.06180221",
    "longitude": "136.5796692",
    "tel": "0594-84-6462",
    "address": "員弁郡東員大字長深字築田510-1イオンモール東員店3F",
    "access": "三岐鉄道北勢線「東員駅」 もしくは 三岐線「北勢中央公園駅」からバスで約15分  桑名ICより車で約15分",
    "games": [
      "SOUND VOLTEX -Valkyrie model-"
    ]
  },
  {
    "name": "アピナ各務原店",
    "operation_time": "10:00～24:00",
    "holiday": "",
    "latitude": "35.41215",
    "longitude": "136.84817",
    "tel": "058-383-9911",
    "address": "各務原市蘇原花園町2-9-1",
    "access": "",
    "games": [
      "SOUND VOLTEX -Valkyrie model-"
    ]
  },
  {
    "name": "GiGO尾西",
    "operation_time": "",
    "holiday": "",
    "latitude": "35.309294",
    "longitude": "136.77153",
    "tel": "0586-47-5700",
    "address": "一宮市篭屋3-9-7アソビックスびさい1F",
    "access": "",
    "games": [
      "SOUND VOLTEX -Valkyrie model-"
    ]
  },
  {
    "name": "GiGOマーゴ関",
    "operation_time": "",
    "holiday": "",
    "latitude": "35.479716",
    "longitude": "136.900472",
    "tel": "0575-23-6617",
    "address": "関市倉知516マーゴシネマ館2F",
    "access": "",
    "games": [
      "SOUND VOLTEX -Valkyrie model-"
    ]
  },
  {
    "name": "上越レジャーランボウル",
    "operation_time": "一部24時間営業",
    "holiday": "無し",
    "latitude": "37.16405087",
    "longitude": "138.2489336",
    "tel": "0255-31-2030",
    "address": "上越市下門前薬島827-2",
    "access": "国道8号線沿い高岡市内関川大橋そば",
    "games": [
      "SOUND VOLTEX -Valkyrie model-"
    ]
  },
  {
    "name": "タイトーFステーション上越店",
    "operation_time": "",
    "holiday": "",
    "latitude": "37.148097",
    "longitude": "138.259034",
    "tel": "025-530-7115",
    "address": "上越市富岡3524J-maxシアター内1F",
    "access": "J-MAXシアター1F",
    "games": [
      "SOUND VOLTEX -Valkyrie model-"
    ]
  },
  {
    "name": "ユーズランド下田店",
    "operation_time": "10:00～21:00",
    "holiday": "無し",
    "latitude": "40.60188383",
    "longitude": "141.4176032",
    "tel": "0178-50-3237",
    "address": "上北郡おいらせ町中野平40-1イオンモール下田1F",
    "access": "イオン下田SC1・2FJR下田駅よりバスで10分八戸市より車で約15km、三沢市より車で約15km",
    "games": [
      "SOUND VOLTEX -Valkyrie model-"
    ]
  },
  {
    "name": "ゲームピコ鵜沼",
    "operation_time": "",
    "holiday": "",
    "latitude": "35.40109361",
    "longitude": "136.9365717",
    "tel": "080-7661-4285",
    "address": "各務原市鵜沼西町3-309イオンタウン各務原鵜沼店1F",
    "access": "",
    "games": [
      "SOUND VOLTEX -Valkyrie model-"
    ]
  },
  {
    "name": "GiGOトナリエ四日市",
    "operation_time": "",
    "holiday": "",
    "latitude": "34.96844971",
    "longitude": "136.6166023",
    "tel": "059-356-3385",
    "address": "四日市市安島1-3-31トナリエ四日市5F",
    "access": "",
    "games": [
      "SOUND VOLTEX -Valkyrie model-"
    ]
  },
  {
    "name": "アミューズメントスペースコミ丸四日市店",
    "operation_time": "",
    "holiday": "",
    "latitude": "34.96631",
    "longitude": "136.61633",
    "tel": "059-325-7685",
    "address": "四日市市鵜の森1-3-19",
    "access": "",
    "games": [
      "SOUND VOLTEX -Valkyrie model-"
    ]
  },
  {
    "name": "GiGO桑名",
    "operation_time": "",
    "holiday": "",
    "latitude": "35.05323043",
    "longitude": "136.6824249",
    "tel": "070-5375-3894",
    "address": "桑名市江場1578",
    "access": "",
    "games": [
      "SOUND VOLTEX -Valkyrie model-"
    ]
  },
  {
    "name": "アピナ四日市店",
    "operation_time": "",
    "holiday": "",
    "latitude": "34.94000426",
    "longitude": "136.6070666",
    "tel": "059-349-5011",
    "address": "四日市市泊小柳町4-34",
    "access": "",
    "games": [
      "SOUND VOLTEX -Valkyrie model-"
    ]
  },
  {
    "name": "ラウンドワン名古屋西春店",
    "operation_time": "",
    "holiday": "",
    "latitude": "35.25506282",
    "longitude": "136.8439405",
    "tel": "0568-26-4001",
    "address": "北名古屋市宇福寺神明15",
    "access": "",
    "games": [
      "SOUND VOLTEX -Valkyrie model-"
    ]
  },
  {
    "name": "ラウンドワンみえ川越IC店",
    "operation_time": "",
    "holiday": "",
    "latitude": "35.02319916",
    "longitude": "136.6836502",
    "tel": "059-361-2130",
    "address": "三重郡川越町大字南福崎851-1",
    "access": "",
    "games": [
      "SOUND VOLTEX -Valkyrie model-"
    ]
  },
  {
    "name": "楽市街道022名古屋店1F",
    "operation_time": "10:00～24:00",
    "holiday": "無し",
    "latitude": "35.23957843",
    "longitude": "136.848742",
    "tel": "0568-27-2622",
    "address": "北名古屋市中之郷字神明45-1-1F",
    "access": "22号線バイパス沿い",
    "games": [
      "SOUND VOLTEX -Valkyrie model-"
    ]
  },
  {
    "name": "アミューズメントワールドメトロポリス小牧店",
    "operation_time": "平日10:00～23:50 土日祝日前 9:00～23:50",
    "holiday": "無し",
    "latitude": "35.2951722",
    "longitude": "136.905659",
    "tel": "0568-71-0005",
    "address": "小牧市村中新町33",
    "access": "名神高速小牧インターより南へ1km R41号間々本町交差点角",
    "games": [
      "SOUND VOLTEX -Valkyrie model-"
    ]
  },
  {
    "name": "ラウンドワン新潟店",
    "operation_time": "",
    "holiday": "",
    "latitude": "37.88807436",
    "longitude": "139.0177537",
    "tel": "025-280-1322",
    "address": "新潟市中央区美咲町2-1-38",
    "access": "",
    "games": [
      "SOUND VOLTEX -Valkyrie model-"
    ]
  },
  {
    "name": "オリエンタルバッティングセンター可児店",
    "operation_time": "",
    "holiday": "",
    "latitude": "35.4295369",
    "longitude": "137.0390315",
    "tel": "0574-61-3991",
    "address": "可児市今渡695-1",
    "access": "",
    "games": [
      "SOUND VOLTEX -Valkyrie model-"
    ]
  },
  {
    "name": "GiGO万代シティバスセンタービル",
    "operation_time": "",
    "holiday": "",
    "latitude": "37.91635836",
    "longitude": "139.0556061",
    "tel": "080-7525-6569",
    "address": "新潟市中央区万代1-6-1万代シティバスセンタービル2-3F",
    "access": "",
    "games": [
      "SOUND VOLTEX -Valkyrie model-"
    ]
  },
  {
    "name": "メジャーロード黒埼店",
    "operation_time": "8:00～24:00",
    "holiday": "無し",
    "latitude": "37.8682122",
    "longitude": "139.0173084",
    "tel": "025-370-7300",
    "address": "新潟市西区山田3303",
    "access": "黒埼IC降りて国道8号を白根方面へ走りサントノーレ裏。",
    "games": [
      "SOUND VOLTEX -Valkyrie model-"
    ]
  },
  {
    "name": "プレイハウスエリナ",
    "operation_time": "",
    "holiday": "",
    "latitude": "37.71741366",
    "longitude": "138.8908286",
    "tel": "0256-82-4541",
    "address": "新潟市西蒲区津雲田640",
    "access": "JR「岩室駅」より車で5分。駅より国道116号を南下し国道沿い右側。",
    "games": [
      "SOUND VOLTEX -Valkyrie model-"
    ]
  },
  {
    "name": "ファンタジープラザ名古屋店",
    "operation_time": "10:00～翌5:00",
    "holiday": "無し",
    "latitude": "35.22569311",
    "longitude": "136.908786",
    "tel": "052-938-3461",
    "address": "名古屋市北区玄馬町234-1クロスタウン2F",
    "access": "比良駅徒歩6分/大我麻交差点付近",
    "games": [
      "SOUND VOLTEX -Valkyrie model-"
    ]
  },
  {
    "name": "namco新潟店",
    "operation_time": "",
    "holiday": "",
    "latitude": "37.90823",
    "longitude": "139.064009",
    "tel": "025-384-4980",
    "address": "新潟市中央区南笹口1-1-1ひもろぎビル2F",
    "access": "",
    "games": [
      "SOUND VOLTEX -Valkyrie model-"
    ]
  },
  {
    "name": "GiGO春日井",
    "operation_time": "",
    "holiday": "",
    "latitude": "35.26954",
    "longitude": "136.96052",
    "tel": "0568-89-3081",
    "address": "春日井市岩野町4180",
    "access": "",
    "games": [
      "SOUND VOLTEX -Valkyrie model-"
    ]
  },
  {
    "name": "コムテックタワー",
    "operation_time": "平日10:00～24:00、土日祝9:00～24:00",
    "holiday": "",
    "latitude": "35.16941986",
    "longitude": "136.885993",
    "tel": "052-565-6471",
    "address": "名古屋市中村区名駅4-10-20",
    "access": "JR名古屋駅徒歩5分",
    "games": [
      "SOUND VOLTEX -Valkyrie model-"
    ]
  },
  {
    "name": "ラウンドワン津･高茶屋店",
    "operation_time": "",
    "holiday": "",
    "latitude": "34.6726828",
    "longitude": "136.5194663",
    "tel": "059-238-0011",
    "address": "津市高茶屋小森町277-8",
    "access": "",
    "games": [
      "SOUND VOLTEX -Valkyrie model-"
    ]
  },
  {
    "name": "GiGOマーケットスクエアささしま",
    "operation_time": "",
    "holiday": "",
    "latitude": "35.162736",
    "longitude": "136.884929",
    "tel": "070-1458-1766",
    "address": "名古屋市中村区平池町4-60-14",
    "access": "",
    "games": [
      "SOUND VOLTEX -Valkyrie model-"
    ]
  },
  {
    "name": "ラウンドワン中川一号線店",
    "operation_time": "",
    "holiday": "",
    "latitude": "35.12338322",
    "longitude": "136.8636484",
    "tel": "052-665-5353",
    "address": "名古屋市中川区法蔵町2-23",
    "access": "",
    "games": [
      "SOUND VOLTEX -Valkyrie model-"
    ]
  },
  {
    "name": "GiGO八戸",
    "operation_time": "",
    "holiday": "",
    "latitude": "40.519862",
    "longitude": "141.498255",
    "tel": "0178-43-7817",
    "address": "八戸市城下4-25-14",
    "access": "",
    "games": [
      "SOUND VOLTEX -Valkyrie model-"
    ]
  },
  {
    "name": "アピナ鶴岡店",
    "operation_time": "",
    "holiday": "",
    "latitude": "38.75839782",
    "longitude": "139.8439993",
    "tel": "0235-29-1141",
    "address": "鶴岡市文下字広野1-1",
    "access": "",
    "games": [
      "SOUND VOLTEX -Valkyrie model-"
    ]
  },
  {
    "name": "アピナ名古屋栄店",
    "operation_time": "",
    "holiday": "",
    "latitude": "35.17020888",
    "longitude": "136.9063926",
    "tel": "052-959-5539",
    "address": "名古屋市中区錦3-17-15ドン･キホーテ栄本店B1F-B3F",
    "access": "",
    "games": [
      "SOUND VOLTEX -Valkyrie model-"
    ]
  },
  {
    "name": "キングジョイ",
    "operation_time": "9:00～24:00",
    "holiday": "無し",
    "latitude": "35.16797694",
    "longitude": "136.9050444",
    "tel": "052-241-9515",
    "address": "名古屋市中区栄3-3-32",
    "access": "地下鉄栄駅徒歩3分",
    "games": [
      "SOUND VOLTEX -Valkyrie model-"
    ]
  },
  {
    "name": "ゆりの木ボウル",
    "operation_time": "",
    "holiday": "",
    "latitude": "40.506688",
    "longitude": "141.493379",
    "tel": "0178-45-1022",
    "address": "八戸市鷹匠小路10-3",
    "access": "",
    "games": [
      "SOUND VOLTEX -Valkyrie model-"
    ]
  },
  {
    "name": "モーリーファンタジーf新潟亀田インター",
    "operation_time": "9:00～22:00",
    "holiday": "無し",
    "latitude": "37.87624975",
    "longitude": "139.0816577",
    "tel": "070-3100-4212",
    "address": "新潟市江南区下早通柳田1-1-1イオンモール新潟亀田インター2F",
    "access": "新潟亀田ICから約5分。 JR新潟駅から約4キロ、JR亀田駅から約2.5キロ",
    "games": [
      "SOUND VOLTEX -Valkyrie model-"
    ]
  },
  {
    "name": "ゲームパニック大須",
    "operation_time": "",
    "holiday": "",
    "latitude": "35.16021164",
    "longitude": "136.9053459",
    "tel": "052-228-2407",
    "address": "名古屋市中区大須3-30-93メガタウンB1F",
    "access": "",
    "games": [
      "SOUND VOLTEX -Valkyrie model-"
    ]
  },
  {
    "name": "タイトーステーションフェドラ大須店",
    "operation_time": "10:00～24:00",
    "holiday": "無し",
    "latitude": "35.15945319",
    "longitude": "136.9054236",
    "tel": "052-242-2011",
    "address": "名古屋市中区大須3-30-31萬松寺駐車場ビル1F･2F",
    "access": "地下鉄名城線上前津駅より徒歩1分",
    "games": [
      "SOUND VOLTEX -Valkyrie model-"
    ]
  },
  {
    "name": "ラウンドワンイーアス春日井店",
    "operation_time": "",
    "holiday": "",
    "latitude": "35.25898",
    "longitude": "136.98241",
    "tel": "0568-86-1600",
    "address": "春日井市六軒屋町東丘22区画番号3010",
    "access": "",
    "games": [
      "SOUND VOLTEX -Valkyrie model-"
    ]
  },
  {
    "name": "コムテックスクウェア金山",
    "operation_time": "9:00～24:00",
    "holiday": "",
    "latitude": "35.14401179",
    "longitude": "136.8999767",
    "tel": "052-321-5601",
    "address": "名古屋市中区金山1-16-8",
    "access": "名鉄金山駅徒歩3分",
    "games": [
      "SOUND VOLTEX -Valkyrie model-"
    ]
  },
  {
    "name": "GiGO金山",
    "operation_time": "",
    "holiday": "",
    "latitude": "35.14264312",
    "longitude": "136.9023578",
    "tel": "052-323-0121",
    "address": "名古屋市熱田区金山町1-19-2",
    "access": "",
    "games": [
      "SOUND VOLTEX -Valkyrie model-"
    ]
  },
  {
    "name": "ラウンドワン千種店",
    "operation_time": "",
    "holiday": "",
    "latitude": "35.16799971",
    "longitude": "136.9279985",
    "tel": "052-238-1615",
    "address": "名古屋市千種区新栄3-20-17タイホウ千種駅前南ビル8F",
    "access": "",
    "games": [
      "SOUND VOLTEX -Valkyrie model-"
    ]
  },
  {
    "name": "ADXマミー春日井出川店",
    "operation_time": "",
    "holiday": "",
    "latitude": "35.26729521",
    "longitude": "137.012739",
    "tel": "0568-54-8590",
    "address": "春日井市不二が丘1-5",
    "access": "",
    "games": [
      "SOUND VOLTEX -Valkyrie model-"
    ]
  },
  {
    "name": "名古屋レジャーランド内田橋店",
    "operation_time": "一部24時間営業",
    "holiday": "無し",
    "latitude": "35.1137072",
    "longitude": "136.9098069",
    "tel": "052-694-6051",
    "address": "名古屋市南区内田橋2-26-22",
    "access": "名鉄常滑線豊田本町駅近く",
    "games": [
      "SOUND VOLTEX -Valkyrie model-"
    ]
  },
  {
    "name": "ゲームチャオ松阪店",
    "operation_time": "10:00～24:00",
    "holiday": "無し",
    "latitude": "34.58867016",
    "longitude": "136.5257638",
    "tel": "0598-53-3918",
    "address": "松阪市船江町782",
    "access": "国道42号線沿い、松阪駅から車で5分",
    "games": [
      "SOUND VOLTEX -Valkyrie model-"
    ]
  },
  {
    "name": "ポート24八事店",
    "operation_time": "09:00～24:00",
    "holiday": "無休",
    "latitude": "35.1371687",
    "longitude": "136.964233",
    "tel": "052-834-9200",
    "address": "名古屋市昭和区広路町字北石坂102-4",
    "access": "地下鉄 八事駅  1分",
    "games": [
      "SOUND VOLTEX -Valkyrie model-"
    ]
  },
  {
    "name": "アピナ長岡店",
    "operation_time": "10:00～24:00",
    "holiday": "無し",
    "latitude": "37.45794202",
    "longitude": "138.8125194",
    "tel": "0258-22-5510",
    "address": "長岡市堺東町22",
    "access": "国道8号線長岡バイパス堺交差点近く",
    "games": [
      "SOUND VOLTEX -Valkyrie model-"
    ]
  },
  {
    "name": "メジャーロード見附店",
    "operation_time": "10:00～24:00",
    "holiday": "無し",
    "latitude": "37.54318868",
    "longitude": "138.8915351",
    "tel": "0258-66-8080",
    "address": "見附市上新田町516-1",
    "access": "高速「中之島見附IC」より車で5分。国道8号線を北上し「今町」交差点先の右側。",
    "games": [
      "SOUND VOLTEX -Valkyrie model-"
    ]
  },
  {
    "name": "ラウンドワン鳴海店",
    "operation_time": "",
    "holiday": "",
    "latitude": "35.09913151",
    "longitude": "136.9528735",
    "tel": "052-899-0700",
    "address": "名古屋市緑区鳴海町字杜若28",
    "access": "",
    "games": [
      "SOUND VOLTEX -Valkyrie model-"
    ]
  },
  {
    "name": "ゲームパニック大高",
    "operation_time": "9:00～23:45",
    "holiday": "無し",
    "latitude": "35.04850561",
    "longitude": "136.9496236",
    "tel": "052-625-5360",
    "address": "名古屋市緑区忠治山201グランドボウルB2F",
    "access": "国道23号線大高町共和IC側道グランドボウルB2階",
    "games": [
      "SOUND VOLTEX -Valkyrie model-"
    ]
  },
  {
    "name": "ゲームセンターテクノポリス",
    "operation_time": "10:00～24:00",
    "holiday": "無し",
    "latitude": "37.42498834",
    "longitude": "138.8377613",
    "tel": "0258-33-1516",
    "address": "長岡市要町1-8-50",
    "access": "JR「宮内駅」西口より徒歩で5分。県道498号線沿い。",
    "games": [
      "SOUND VOLTEX -Valkyrie model-"
    ]
  },
  {
    "name": "GiGO長久手",
    "operation_time": "9:00～24:00",
    "holiday": "無し",
    "latitude": "35.17139252",
    "longitude": "137.045573",
    "tel": "0561-64-5205",
    "address": "長久手市武蔵塚705",
    "access": "",
    "games": [
      "SOUND VOLTEX -Valkyrie model-"
    ]
  },
  {
    "name": "アピナ川中島店",
    "operation_time": "10:00～24:00",
    "holiday": "無し",
    "latitude": "36.597909",
    "longitude": "138.157802",
    "tel": "026-214-6699",
    "address": "長野市川中島町御厨967-1",
    "access": "77号線長野南郵便局隣",
    "games": [
      "SOUND VOLTEX -Valkyrie model-"
    ]
  },
  {
    "name": "アピナ大橋店",
    "operation_time": "10:00～24:00",
    "holiday": "無し",
    "latitude": "36.6265199",
    "longitude": "138.2003591",
    "tel": "026-225-8765",
    "address": "長野市若里7-9-12",
    "access": "R18号長野大橋北側",
    "games": [
      "SOUND VOLTEX -Valkyrie model-"
    ]
  },
  {
    "name": "ラウンドワン長野店",
    "operation_time": "",
    "holiday": "",
    "latitude": "36.65105714",
    "longitude": "138.225192",
    "tel": "026-254-5801",
    "address": "長野市大字東和田827-6",
    "access": "",
    "games": [
      "SOUND VOLTEX -Valkyrie model-"
    ]
  },
  {
    "name": "G3ポロス横手南店",
    "operation_time": "",
    "holiday": "",
    "latitude": "39.29452197",
    "longitude": "140.5520782",
    "tel": "0182-23-5415",
    "address": "横手市大字婦気大堤字中田4-1イオンスーパーセンター横手南店2F",
    "access": "",
    "games": [
      "SOUND VOLTEX -Valkyrie model-"
    ]
  },
  {
    "name": "ユーズランド東浦店",
    "operation_time": "10:00～21:00",
    "holiday": "無し",
    "latitude": "34.97885364",
    "longitude": "136.9741411",
    "tel": "0562-82-2782",
    "address": "知多郡東浦町大字緒川字旭13-2イオンモール東浦2F",
    "access": "イオン東浦SC2FJR緒川駅より徒歩5分知多半島道路東浦知多ICより約4km",
    "games": [
      "SOUND VOLTEX -Valkyrie model-"
    ]
  },
  {
    "name": "MEGAGET釧路",
    "operation_time": "",
    "holiday": "",
    "latitude": "43.00909715",
    "longitude": "144.4083287",
    "tel": "0154-38-1666",
    "address": "釧路郡釧路町木場2-1",
    "access": "",
    "games": [
      "SOUND VOLTEX -Valkyrie model-"
    ]
  },
  {
    "name": "M'sPARK刈谷店",
    "operation_time": "10:00～24:00",
    "holiday": "無し",
    "latitude": "35.00549344",
    "longitude": "137.0014494",
    "tel": "0566-27-5822",
    "address": "刈谷市稲場町3-206",
    "access": "155号沿い",
    "games": [
      "SOUND VOLTEX -Valkyrie model-"
    ]
  },
  {
    "name": "GiGOイオンタウン刈谷",
    "operation_time": "",
    "holiday": "",
    "latitude": "35.03882703",
    "longitude": "137.0267449",
    "tel": "0566-36-4338",
    "address": "刈谷市東境町京和1",
    "access": "",
    "games": [
      "SOUND VOLTEX -Valkyrie model-"
    ]
  },
  {
    "name": "半田メトロポリス",
    "operation_time": "平日10:00～23:50 土日祝日前 9:00～23:50",
    "holiday": "無し",
    "latitude": "34.87469206",
    "longitude": "136.9217723",
    "tel": "0569-24-5226",
    "address": "半田市旭町3-11-1半田コロナワールド内2F",
    "access": "JR武豊線東成岩駅より徒歩1分",
    "games": [
      "SOUND VOLTEX -Valkyrie model-"
    ]
  },
  {
    "name": "楽市楽座イオンモール松本店",
    "operation_time": "10:00～21:00",
    "holiday": "",
    "latitude": "36.23402",
    "longitude": "137.978381",
    "tel": "0263-87-3588",
    "address": "松本市中央4-9-51イオンモール松本店 風庭2F",
    "access": "",
    "games": [
      "SOUND VOLTEX -Valkyrie model-"
    ]
  },
  {
    "name": "ラウンドワン半田店",
    "operation_time": "",
    "holiday": "",
    "latitude": "34.88609688",
    "longitude": "136.9412056",
    "tel": "0569-25-7351",
    "address": "半田市瑞穂町6-7-8",
    "access": "",
    "games": [
      "SOUND VOLTEX -Valkyrie model-"
    ]
  },
  {
    "name": "アピナ松本",
    "operation_time": "10:00～24:00",
    "holiday": "無し",
    "latitude": "36.21052692",
    "longitude": "137.9610526",
    "tel": "0263-24-1133",
    "address": "松本市双葉19-10",
    "access": "国道19号線沿い、イトーヨーカドーそば",
    "games": [
      "SOUND VOLTEX -Valkyrie model-"
    ]
  },
  {
    "name": "GiGO伊勢",
    "operation_time": "",
    "holiday": "",
    "latitude": "34.492142",
    "longitude": "136.678061",
    "tel": "0596-21-1243",
    "address": "伊勢市中須町666",
    "access": "",
    "games": [
      "SOUND VOLTEX -Valkyrie model-"
    ]
  },
  {
    "name": "HapipiLand十日町店",
    "operation_time": "",
    "holiday": "",
    "latitude": "37.13648",
    "longitude": "138.7456",
    "tel": "080-7143-5507",
    "address": "十日町市丑735-1",
    "access": "",
    "games": [
      "SOUND VOLTEX -Valkyrie model-"
    ]
  },
  {
    "name": "GiGO豊田",
    "operation_time": "",
    "holiday": "",
    "latitude": "35.067883",
    "longitude": "137.123797",
    "tel": "0565-26-6777",
    "address": "豊田市深田町1-65-1",
    "access": "",
    "games": [
      "SOUND VOLTEX -Valkyrie model-"
    ]
  },
  {
    "name": "M'Sパーク豊田店",
    "operation_time": "一部24時間営業",
    "holiday": "",
    "latitude": "35.0565113",
    "longitude": "137.1404324",
    "tel": "0565-71-0027",
    "address": "豊田市寿町3-10-11",
    "access": "愛知環状鉄道三河豊田駅10分。名鉄三河線土橋駅より徒歩10分。",
    "games": [
      "SOUND VOLTEX -Valkyrie model-"
    ]
  },
  {
    "name": "GiGO安城",
    "operation_time": "",
    "holiday": "",
    "latitude": "34.94737219",
    "longitude": "137.0732623",
    "tel": "0566-77-2020",
    "address": "安城市百石町2-35-13",
    "access": "",
    "games": [
      "SOUND VOLTEX -Valkyrie model-"
    ]
  },
  {
    "name": "アピナ上田店",
    "operation_time": "",
    "holiday": "",
    "latitude": "36.416102",
    "longitude": "138.223307",
    "tel": "0268-75-8055",
    "address": "上田市秋和359-1",
    "access": "",
    "games": [
      "SOUND VOLTEX -Valkyrie model-"
    ]
  },
  {
    "name": "タイトーステーション盛岡マッハランド店",
    "operation_time": "10:00～24:00",
    "holiday": "無し",
    "latitude": "39.723902",
    "longitude": "141.126913",
    "tel": "019-648-1408",
    "address": "盛岡市上堂1-2-38",
    "access": "国道4号線沿い、マッハランド内。",
    "games": [
      "SOUND VOLTEX -Valkyrie model-"
    ]
  },
  {
    "name": "安城メトロポリス",
    "operation_time": "平日10:00～24:00、土日祝日9:00～24:00",
    "holiday": "無し",
    "latitude": "34.95485697",
    "longitude": "137.0975854",
    "tel": "0566-74-8238",
    "address": "安城市浜富町6-8",
    "access": "JR東海道本線安城駅より車で3分・徒歩10分",
    "games": [
      "SOUND VOLTEX -Valkyrie model-"
    ]
  },
  {
    "name": "ムー大陸 シャオ店",
    "operation_time": "",
    "holiday": "",
    "latitude": "34.86791458",
    "longitude": "137.0458015",
    "tel": "0563-57-8139",
    "address": "西尾市下町御城下23-1ゲームコーナームー大陸",
    "access": "",
    "games": [
      "SOUND VOLTEX -Valkyrie model-"
    ]
  },
  {
    "name": "ラウンドワン盛岡店",
    "operation_time": "",
    "holiday": "",
    "latitude": "39.70035197",
    "longitude": "141.133077",
    "tel": "019-654-9011",
    "address": "盛岡市盛岡駅西通2-10-35",
    "access": "",
    "games": [
      "SOUND VOLTEX -Valkyrie model-"
    ]
  },
  {
    "name": "ADXマミー岡崎店",
    "operation_time": "",
    "holiday": "",
    "latitude": "34.97692806",
    "longitude": "137.161659",
    "tel": "0564-83-6262",
    "address": "岡崎市井田新町6-1",
    "access": "",
    "games": [
      "SOUND VOLTEX -Valkyrie model-"
    ]
  },
  {
    "name": "GiGO北岡崎",
    "operation_time": "9:00～24:00",
    "holiday": "無し",
    "latitude": "34.97365547",
    "longitude": "137.1600268",
    "tel": "070-1393-5583",
    "address": "岡崎市錦町2-4",
    "access": "国道248号線沿い、愛知環状線北岡崎駅から徒歩3分",
    "games": [
      "SOUND VOLTEX -Valkyrie model-"
    ]
  },
  {
    "name": "GiGO新庄",
    "operation_time": "",
    "holiday": "",
    "latitude": "38.76416135",
    "longitude": "140.3089553",
    "tel": "080-7037-0268",
    "address": "新庄市金沢字沖1068",
    "access": "",
    "games": [
      "SOUND VOLTEX -Valkyrie model-"
    ]
  },
  {
    "name": "ポート24幸田",
    "operation_time": "10:00～24:00",
    "holiday": "無休",
    "latitude": "34.89016302",
    "longitude": "137.1632649",
    "tel": "0564-63-6588",
    "address": "額田郡幸田町大字高力字沖原15カメリアガーデン幸田内",
    "access": "東名高速音羽蒲郡ICから車で30分",
    "games": [
      "SOUND VOLTEX -Valkyrie model-"
    ]
  },
  {
    "name": "アピナ飯田店",
    "operation_time": "10:00～24:00",
    "holiday": "無し",
    "latitude": "35.52993571",
    "longitude": "137.8596325",
    "tel": "026-559-7711",
    "address": "飯田市座光寺3728-1",
    "access": "国道153号線座光寺交差点近く",
    "games": [
      "SOUND VOLTEX -Valkyrie model-"
    ]
  },
  {
    "name": "アピナ佐久インター店",
    "operation_time": "10:00～24:00",
    "holiday": "無し",
    "latitude": "36.284455",
    "longitude": "138.482344",
    "tel": "026-778-3399",
    "address": "佐久市岩村田北1-13-1",
    "access": "佐久インター近く",
    "games": [
      "SOUND VOLTEX -Valkyrie model-"
    ]
  },
  {
    "name": "豊川メトロポリス",
    "operation_time": "平日10:00～24:00 土日9:00～24:00",
    "holiday": "無し",
    "latitude": "34.80229218",
    "longitude": "137.3847976",
    "tel": "0533-85-6540",
    "address": "豊川市下長山町上アライ14-1",
    "access": "東名高速豊川インター南・国道151号線・城下交差点東へ500m",
    "games": [
      "SOUND VOLTEX -Valkyrie model-"
    ]
  },
  {
    "name": "アピナ豊橋店",
    "operation_time": "",
    "holiday": "",
    "latitude": "34.744231",
    "longitude": "137.3717807",
    "tel": "0532-46-8822",
    "address": "豊橋市藤沢町141ホリデイ･スクエアAM棟1F",
    "access": "",
    "games": [
      "SOUND VOLTEX -Valkyrie model-"
    ]
  },
  {
    "name": "GiGO豊橋飯村",
    "operation_time": "",
    "holiday": "",
    "latitude": "34.7491",
    "longitude": "137.414002",
    "tel": "0532-66-1001",
    "address": "豊橋市飯村町字西山25-121",
    "access": "",
    "games": [
      "SOUND VOLTEX -Valkyrie model-"
    ]
  },
  {
    "name": "GiGO天童",
    "operation_time": "10:00～24:00",
    "holiday": "無し",
    "latitude": "38.34302924",
    "longitude": "140.3739732",
    "tel": "023-656-9370",
    "address": "天童市南町1-5-26",
    "access": "JR「天童駅」より車で10分。国道13号線を南下し国道沿い左側。",
    "games": [
      "SOUND VOLTEX -Valkyrie model-"
    ]
  },
  {
    "name": "テクノワールド",
    "operation_time": "店舗にてご確認ください",
    "holiday": "無し",
    "latitude": "39.179225",
    "longitude": "141.162155",
    "tel": "0197-47-3619",
    "address": "奥州市江刺愛宕梁川127-1",
    "access": "",
    "games": [
      "SOUND VOLTEX -Valkyrie model-"
    ]
  },
  {
    "name": "ゲームゾーントレジャー北町店",
    "operation_time": "",
    "holiday": "",
    "latitude": "38.268738",
    "longitude": "140.329329",
    "tel": "023-682-3356",
    "address": "山形市北町2-2-45山形ファミリーボウル内",
    "access": "",
    "games": [
      "SOUND VOLTEX -Valkyrie model-"
    ]
  },
  {
    "name": "ラウンドワン豊橋店",
    "operation_time": "",
    "holiday": "",
    "latitude": "34.7239242",
    "longitude": "137.4323261",
    "tel": "0532-65-2212",
    "address": "豊橋市大岩町字岩田27-2",
    "access": "",
    "games": [
      "SOUND VOLTEX -Valkyrie model-"
    ]
  },
  {
    "name": "GiGO米沢",
    "operation_time": "",
    "holiday": "",
    "latitude": "37.91095607",
    "longitude": "140.133677",
    "tel": "0238-24-0666",
    "address": "米沢市大字花沢字タナコ原177",
    "access": "",
    "games": [
      "SOUND VOLTEX -Valkyrie model-"
    ]
  },
  {
    "name": "群馬レジャーランド渋川店",
    "operation_time": "",
    "holiday": "",
    "latitude": "36.4742053",
    "longitude": "139.0154654",
    "tel": "0279-25-0718",
    "address": "渋川市八木原1364",
    "access": "",
    "games": [
      "SOUND VOLTEX -Valkyrie model-"
    ]
  },
  {
    "name": "GiGO会津若松",
    "operation_time": "9:00～24:00",
    "holiday": "無し",
    "latitude": "37.51832577",
    "longitude": "139.9222191",
    "tel": "0242-37-0777",
    "address": "会津若松市町北町上荒久田字宮下142",
    "access": "磐越道会津若松IC側",
    "games": [
      "SOUND VOLTEX -Valkyrie model-"
    ]
  },
  {
    "name": "アピナ浜松店",
    "operation_time": "",
    "holiday": "",
    "latitude": "34.76741731",
    "longitude": "137.7080638",
    "tel": "053-430-4800",
    "address": "浜松市中央区葵西2-27-10ロックタウン内",
    "access": "",
    "games": [
      "SOUND VOLTEX -Valkyrie model-"
    ]
  },
  {
    "name": "ポート24浜松店",
    "operation_time": "10:00～24:00",
    "holiday": "無休",
    "latitude": "34.68017431",
    "longitude": "137.6443768",
    "tel": "053-440-5588",
    "address": "浜松市中央区坪井町4183",
    "access": "東名高速浜松西ICから車で15分",
    "games": [
      "SOUND VOLTEX -Valkyrie model-"
    ]
  },
  {
    "name": "ユーズランド高崎店",
    "operation_time": "10:00～21:00",
    "holiday": "",
    "latitude": "36.39047889",
    "longitude": "139.0067302",
    "tel": "027-310-9113",
    "address": "高崎市棟高町1400イオン高崎SC2F",
    "access": "",
    "games": [
      "SOUND VOLTEX -Valkyrie model-"
    ]
  },
  {
    "name": "楽市楽座サンストリート浜北店",
    "operation_time": "10:00～22:00",
    "holiday": "無し",
    "latitude": "34.79467266",
    "longitude": "137.7607979",
    "tel": "0535-84-6136",
    "address": "浜松市浜名区平口2861サンストリート浜北内 M-207",
    "access": "",
    "games": [
      "SOUND VOLTEX -Valkyrie model-"
    ]
  },
  {
    "name": "群馬レジャーランド高崎駅東口店",
    "operation_time": "一部24時間営業",
    "holiday": "無し",
    "latitude": "36.32992086",
    "longitude": "139.0128661",
    "tel": "027-330-3002",
    "address": "高崎市江木町333-1高崎EXビル2F",
    "access": "JR高崎駅東口徒歩10分",
    "games": [
      "SOUND VOLTEX -Valkyrie model-"
    ]
  },
  {
    "name": "群馬レジャーランド前橋店",
    "operation_time": "",
    "holiday": "",
    "latitude": "36.40497647",
    "longitude": "139.0794189",
    "tel": "050-1726-4972",
    "address": "前橋市日吉町4-37-1",
    "access": "",
    "games": [
      "SOUND VOLTEX -Valkyrie model-"
    ]
  },
  {
    "name": "ラウンドワン浜松店",
    "operation_time": "",
    "holiday": "",
    "latitude": "34.73795995",
    "longitude": "137.7638799",
    "tel": "053-461-1101",
    "address": "浜松市中央区天王町諏訪1981-17",
    "access": "",
    "games": [
      "SOUND VOLTEX -Valkyrie model-"
    ]
  },
  {
    "name": "マトリクス前橋店",
    "operation_time": "10:00～24:00",
    "holiday": "無し",
    "latitude": "36.37294244",
    "longitude": "139.059637",
    "tel": "027-212-3133",
    "address": "前橋市小相木町563-3",
    "access": "県道13号線小相木交差点を高崎方面へ150m",
    "games": [
      "SOUND VOLTEX -Valkyrie model-"
    ]
  },
  {
    "name": "サープラOZ浜松あそびタウン",
    "operation_time": "9:00～24:00",
    "holiday": "無し",
    "latitude": "34.72247074",
    "longitude": "137.7647101",
    "tel": "053-466-3387",
    "address": "浜松市中央区宮竹町322-1",
    "access": "東名高速浜松IC車で20分",
    "games": [
      "SOUND VOLTEX -Valkyrie model-"
    ]
  },
  {
    "name": "ラウンドワン前橋店",
    "operation_time": "",
    "holiday": "",
    "latitude": "36.36888377",
    "longitude": "139.1051864",
    "tel": "027-287-1501",
    "address": "前橋市天川大島町1101-1",
    "access": "",
    "games": [
      "SOUND VOLTEX -Valkyrie model-"
    ]
  },
  {
    "name": "ゲームパニック甲府",
    "operation_time": "",
    "holiday": "",
    "latitude": "35.64182781",
    "longitude": "138.547239",
    "tel": "080-3350-2893",
    "address": "甲府市国母5-20-24",
    "access": "",
    "games": [
      "SOUND VOLTEX -Valkyrie model-"
    ]
  },
  {
    "name": "アピナ富谷店",
    "operation_time": "",
    "holiday": "",
    "latitude": "38.36528256",
    "longitude": "140.8765988",
    "tel": "022-341-5177",
    "address": "富谷市大清水1-33-1イオンモール109シネマズ富谷1F",
    "access": "",
    "games": [
      "SOUND VOLTEX -Valkyrie model-"
    ]
  },
  {
    "name": "群馬レジャーランド藤岡店",
    "operation_time": "一部24時間営業",
    "holiday": "",
    "latitude": "36.27426745",
    "longitude": "139.0718857",
    "tel": "0274-40-2371",
    "address": "藤岡市中2002-1",
    "access": "県道13号沿い、上信越道藤岡IC北 カーオプション店『ピット100』2階",
    "games": [
      "SOUND VOLTEX -Valkyrie model-"
    ]
  },
  {
    "name": "GAME BANK",
    "operation_time": "9:00～24:00",
    "holiday": "無し",
    "latitude": "38.352801",
    "longitude": "140.877385",
    "tel": "022-776-5677",
    "address": "仙台市泉区大沢2-5-4",
    "access": "東北自動車道 泉インター直ぐ",
    "games": [
      "SOUND VOLTEX -Valkyrie model-"
    ]
  },
  {
    "name": "GiGOイオン仙台中山",
    "operation_time": "",
    "holiday": "",
    "latitude": "38.299061",
    "longitude": "140.828497",
    "tel": "022-347-3139",
    "address": "仙台市泉区南中山1-35-57イオン仙台中山店別館3F",
    "access": "",
    "games": [
      "SOUND VOLTEX -Valkyrie model-"
    ]
  },
  {
    "name": "ラウンドワンスタジアム仙台泉店",
    "operation_time": "",
    "holiday": "",
    "latitude": "38.35192551",
    "longitude": "140.8797545",
    "tel": "022-347-4471",
    "address": "仙台市泉区大沢2-12-4仙台泉インターシティ1F",
    "access": "",
    "games": [
      "SOUND VOLTEX -Valkyrie model-"
    ]
  },
  {
    "name": "インターワールド伊勢崎店",
    "operation_time": "10:00～24:00",
    "holiday": "無し",
    "latitude": "36.3315169",
    "longitude": "139.1624928",
    "tel": "0270-25-4338",
    "address": "伊勢崎市宮子町3425-4",
    "access": "関東自動車道駒形ICから5分。伊勢崎オートレース近く",
    "games": [
      "SOUND VOLTEX -Valkyrie model-"
    ]
  },
  {
    "name": "群馬レジャーランド伊勢崎店",
    "operation_time": "一部24時間営業",
    "holiday": "無し",
    "latitude": "36.31824274",
    "longitude": "139.1723592",
    "tel": "0270-40-5330",
    "address": "伊勢崎市連取町3066-1",
    "access": "伊勢崎市内県道2号線沿い伊勢崎オート近く",
    "games": [
      "SOUND VOLTEX -Valkyrie model-"
    ]
  },
  {
    "name": "GiGO仙台一番町",
    "operation_time": "",
    "holiday": "",
    "latitude": "38.26424",
    "longitude": "140.87121",
    "tel": "022-393-6746",
    "address": "仙台市青葉区一番町4-5-13サンシャインビル1F",
    "access": "",
    "games": [
      "SOUND VOLTEX -Valkyrie model-"
    ]
  },
  {
    "name": "ラウンドワンさいたま･上里店",
    "operation_time": "",
    "holiday": "",
    "latitude": "36.259925",
    "longitude": "139.137383",
    "tel": "0495-35-2201",
    "address": "児玉郡上里町大字金久保字周川394-1",
    "access": "",
    "games": [
      "SOUND VOLTEX -Valkyrie model-"
    ]
  },
  {
    "name": "タイトーステーション仙台クリスロード店",
    "operation_time": "9:00～24:00",
    "holiday": "無し",
    "latitude": "38.261006",
    "longitude": "140.875705",
    "tel": "022-262-2541",
    "address": "仙台市青葉区中央2-3-25",
    "access": "JR仙台駅・地下鉄仙台駅より徒歩8分(ハピナ名掛丁アーケード内)",
    "games": [
      "SOUND VOLTEX -Valkyrie model-"
    ]
  },
  {
    "name": "GiGO仙台",
    "operation_time": "",
    "holiday": "",
    "latitude": "38.26181",
    "longitude": "140.87675",
    "tel": "022-211-1922",
    "address": "仙台市青葉区中央2-5-5三経60ビル",
    "access": "",
    "games": [
      "SOUND VOLTEX -Valkyrie model-"
    ]
  },
  {
    "name": "GiGOスマーク伊勢崎",
    "operation_time": "",
    "holiday": "",
    "latitude": "36.339538",
    "longitude": "139.231968",
    "tel": "0270-62-3886",
    "address": "伊勢崎市西小保方町368スマーク伊勢崎3F302区画",
    "access": "",
    "games": [
      "SOUND VOLTEX -Valkyrie model-"
    ]
  },
  {
    "name": "ラウンドワン仙台苦竹店",
    "operation_time": "",
    "holiday": "",
    "latitude": "38.26828399",
    "longitude": "140.9172614",
    "tel": "022-788-2581",
    "address": "仙台市宮城野区苦竹1-7-10",
    "access": "",
    "games": [
      "SOUND VOLTEX -Valkyrie model-"
    ]
  },
  {
    "name": "GiGO利府",
    "operation_time": "10:00～24:00",
    "holiday": "無し",
    "latitude": "38.32801132",
    "longitude": "140.9756135",
    "tel": "080-7500-4898",
    "address": "宮城郡利府町加瀬字新前谷地55-1",
    "access": "三陸自動車道 利府中IC下車利府バイパス沿い車で5分",
    "games": [
      "SOUND VOLTEX -Valkyrie model-"
    ]
  },
  {
    "name": "ラウンドワン福島店",
    "operation_time": "",
    "holiday": "",
    "latitude": "37.75259469",
    "longitude": "140.4562354",
    "tel": "024-525-4731",
    "address": "福島市太田町14-18",
    "access": "",
    "games": [
      "SOUND VOLTEX -Valkyrie model-"
    ]
  },
  {
    "name": "ゲームワンダーランド2東店",
    "operation_time": "一部24時間",
    "holiday": "無し",
    "latitude": "36.32856",
    "longitude": "139.247267",
    "tel": "027-061-0891",
    "address": "伊勢崎市東小保方町3464-1",
    "access": "291号線沿い流通団地交差点近く",
    "games": [
      "SOUND VOLTEX -Valkyrie model-"
    ]
  },
  {
    "name": "GiGO福島南",
    "operation_time": "10:00～24:00",
    "holiday": "無し",
    "latitude": "37.72791083",
    "longitude": "140.4671033",
    "tel": "024-544-0280",
    "address": "福島市黒岩字中島7-2",
    "access": "高速福島西ICより車で15分。国道4号線を右折し「黒岩」交差点手前左側。",
    "games": [
      "SOUND VOLTEX -Valkyrie model-"
    ]
  },
  {
    "name": "ゲームコーナー東部",
    "operation_time": "9:00～24:00",
    "holiday": "無し",
    "latitude": "38.25101621",
    "longitude": "140.9438974",
    "tel": "022-287-5880",
    "address": "仙台市若林区六丁の目中町26-60",
    "access": "六丁目の交差点より多賀城方面へ向かい車で5分。産業通り沿い。",
    "games": [
      "SOUND VOLTEX -Valkyrie model-"
    ]
  },
  {
    "name": "GiGO名取",
    "operation_time": "",
    "holiday": "",
    "latitude": "38.1565798",
    "longitude": "140.8882353",
    "tel": "022-384-8950",
    "address": "名取市飯野坂字土城堀57-1",
    "access": "",
    "games": [
      "SOUND VOLTEX -Valkyrie model-"
    ]
  },
  {
    "name": "アップル島田店",
    "operation_time": "",
    "holiday": "",
    "latitude": "34.82659503",
    "longitude": "138.187415",
    "tel": "0547-54-4351",
    "address": "島田市宝来町8-5",
    "access": "",
    "games": [
      "SOUND VOLTEX -Valkyrie model-"
    ]
  },
  {
    "name": "ビデオゲームミュージアムロボット深谷店",
    "operation_time": "10:00～24:00",
    "holiday": "無し",
    "latitude": "36.17966807",
    "longitude": "139.2987761",
    "tel": "048-573-3951",
    "address": "深谷市上柴町西4-12-1",
    "access": "",
    "games": [
      "SOUND VOLTEX -Valkyrie model-"
    ]
  },
  {
    "name": "群馬レジャーランド太田店",
    "operation_time": "一部24時間営業",
    "holiday": "無し",
    "latitude": "36.26802219",
    "longitude": "139.3761382",
    "tel": "0276-47-8030",
    "address": "太田市西矢島町162-2",
    "access": "",
    "games": [
      "SOUND VOLTEX -Valkyrie model-"
    ]
  },
  {
    "name": "ユーズランド太田店",
    "operation_time": "10:00～21:00",
    "holiday": "無し",
    "latitude": "36.29327372",
    "longitude": "139.4001931",
    "tel": "0276-47-8722",
    "address": "太田市石原町81イオンモール太田2F",
    "access": "イオン太田SC2F東武伊勢崎線太田駅よりバスで10分東北道館林ICよりR354～R122(太田バイパス)経由約30分",
    "games": [
      "SOUND VOLTEX -Valkyrie model-"
    ]
  },
  {
    "name": "アピナ太田店",
    "operation_time": "10:00～24:00",
    "holiday": "無し",
    "latitude": "36.28282169",
    "longitude": "139.3983139",
    "tel": "0276-48-1489",
    "address": "太田市内ヶ島町907-1",
    "access": "太田駅より車で5分富士重工近く",
    "games": [
      "SOUND VOLTEX -Valkyrie model-"
    ]
  },
  {
    "name": "タイトーFステーション郡山オリエントパーク店",
    "operation_time": "",
    "holiday": "",
    "latitude": "37.37465045",
    "longitude": "140.3487929",
    "tel": "024-946-8222",
    "address": "郡山市安積町荒井字大久保35-1",
    "access": "",
    "games": [
      "SOUND VOLTEX -Valkyrie model-"
    ]
  },
  {
    "name": "ドラマ足利店",
    "operation_time": "10:00～24:00",
    "holiday": "無し",
    "latitude": "36.32220259",
    "longitude": "139.4503607",
    "tel": "0284-73-9559",
    "address": "足利市朝倉町244-1",
    "access": "東武伊勢崎線足利市駅より徒歩10分",
    "games": [
      "SOUND VOLTEX -Valkyrie model-"
    ]
  },
  {
    "name": "プレイタウンパル富士吉田店",
    "operation_time": "10:00～24:00",
    "holiday": "無し",
    "latitude": "35.48301003",
    "longitude": "138.7797075",
    "tel": "0555-22-8668",
    "address": "富士吉田市新西原4-12-15",
    "access": "富士急ハイランドそば",
    "games": [
      "SOUND VOLTEX -Valkyrie model-"
    ]
  },
  {
    "name": "ラウンドワン静岡･駿河店",
    "operation_time": "",
    "holiday": "",
    "latitude": "34.950991",
    "longitude": "138.360524",
    "tel": "054-201-1601",
    "address": "静岡市駿河区向手越1-10-1",
    "access": "",
    "games": [
      "SOUND VOLTEX -Valkyrie model-"
    ]
  },
  {
    "name": "サープラ焼津あそびタウン",
    "operation_time": "10:00-24:00",
    "holiday": "無し",
    "latitude": "34.878577",
    "longitude": "138.3078542",
    "tel": "054-628-6503",
    "address": "焼津市八楠3-18-5",
    "access": "東名高速焼津IC車で5分",
    "games": [
      "SOUND VOLTEX -Valkyrie model-"
    ]
  },
  {
    "name": "タイトーFステーション静岡店",
    "operation_time": "直接店舗にお問い合わせください",
    "holiday": "直接店舗にお問い合わせください",
    "latitude": "34.97439418",
    "longitude": "138.3832297",
    "tel": "054-251-3200",
    "address": "静岡市葵区呉服町2-5-4ふしみや第2ビル 5F",
    "access": "静岡駅より徒歩8分、新静岡駅より徒歩5分",
    "games": [
      "SOUND VOLTEX -Valkyrie model-"
    ]
  },
  {
    "name": "ラウンドワン郡山店",
    "operation_time": "",
    "holiday": "",
    "latitude": "37.40229903",
    "longitude": "140.3957065",
    "tel": "024-941-3191",
    "address": "郡山市向河原町4-55",
    "access": "",
    "games": [
      "SOUND VOLTEX -Valkyrie model-"
    ]
  },
  {
    "name": "namcoイオンタウン郡山店",
    "operation_time": "",
    "holiday": "",
    "latitude": "37.389283",
    "longitude": "140.390809",
    "tel": "024-943-2715",
    "address": "郡山市松木町2-88イオンタウン郡山",
    "access": "",
    "games": [
      "SOUND VOLTEX -Valkyrie model-"
    ]
  },
  {
    "name": "アップル新北街道店",
    "operation_time": "10:00～24:00",
    "holiday": "無休",
    "latitude": "34.99831803",
    "longitude": "138.4134069",
    "tel": "054-261-9109",
    "address": "静岡市葵区沓谷5-13-4",
    "access": "東名高速静岡ICから車で20分",
    "games": [
      "SOUND VOLTEX -Valkyrie model-"
    ]
  },
  {
    "name": "アミューズパーク郡山店",
    "operation_time": "店舗にてご確認ください",
    "holiday": "無し",
    "latitude": "37.37446344",
    "longitude": "140.3838207",
    "tel": "0249-44-9898",
    "address": "郡山市安積町日出山2-80",
    "access": "JR郡山駅より車で10分。東部幹線沿い。",
    "games": [
      "SOUND VOLTEX -Valkyrie model-"
    ]
  },
  {
    "name": "アップルグランリバー 大井川店",
    "operation_time": "10:00～24:00",
    "holiday": "無し",
    "latitude": "34.80971624",
    "longitude": "138.2732243",
    "tel": "054-270-3244",
    "address": "焼津市下江留1327",
    "access": "東名高速道路、吉田ICより車で10分",
    "games": [
      "SOUND VOLTEX -Valkyrie model-"
    ]
  },
  {
    "name": "スーパーウェーブ静岡店",
    "operation_time": "",
    "holiday": "",
    "latitude": "35.01361",
    "longitude": "138.43421",
    "tel": "054-340-5888",
    "address": "静岡市清水区鳥坂860フレスポ静岡2F西",
    "access": "",
    "games": [
      "SOUND VOLTEX -Valkyrie model-"
    ]
  },
  {
    "name": "GiGO西那須野",
    "operation_time": "",
    "holiday": "",
    "latitude": "36.895093",
    "longitude": "139.982317",
    "tel": "0287-37-3077",
    "address": "那須塩原市南郷屋2-106-27",
    "access": "",
    "games": [
      "SOUND VOLTEX -Valkyrie model-"
    ]
  },
  {
    "name": "アピナ焼津店",
    "operation_time": "",
    "holiday": "",
    "latitude": "34.83371431",
    "longitude": "138.3059489",
    "tel": "054-623-8555",
    "address": "焼津市道原585",
    "access": "",
    "games": [
      "SOUND VOLTEX -Valkyrie model-"
    ]
  },
  {
    "name": "タイトーFステーションイオン富士宮店",
    "operation_time": "",
    "holiday": "",
    "latitude": "35.220897",
    "longitude": "138.612227",
    "tel": "0544-21-4425",
    "address": "富士宮市浅間町1-8イオンモール富士宮3F",
    "access": "",
    "games": [
      "SOUND VOLTEX -Valkyrie model-"
    ]
  },
  {
    "name": "namcoフェドラP&D佐野店",
    "operation_time": "10:00～23:00 土日祝9:00～23:00",
    "holiday": "無し",
    "latitude": "36.29729",
    "longitude": "139.605644",
    "tel": "0283-85-9518",
    "address": "佐野市高萩町1340",
    "access": "",
    "games": [
      "SOUND VOLTEX -Valkyrie model-"
    ]
  },
  {
    "name": "ラウンドワン富士店",
    "operation_time": "",
    "holiday": "",
    "latitude": "35.15310644",
    "longitude": "138.6938016",
    "tel": "0545-51-3636",
    "address": "富士市八代町4-15",
    "access": "",
    "games": [
      "SOUND VOLTEX -Valkyrie model-"
    ]
  },
  {
    "name": "GiGOフジモール吹上",
    "operation_time": "",
    "holiday": "",
    "latitude": "36.09630596",
    "longitude": "139.4658445",
    "tel": "070-1458-5638",
    "address": "鴻巣市袋90-1フジモール吹上",
    "access": "",
    "games": [
      "SOUND VOLTEX -Valkyrie model-"
    ]
  },
  {
    "name": "シーサイドリゾート",
    "operation_time": "10:00～24:00",
    "holiday": "無し",
    "latitude": "36.56327652",
    "longitude": "139.8604649",
    "tel": "028-632-5006",
    "address": "宇都宮市睦町7-3",
    "access": "鹿沼街道沿い",
    "games": [
      "SOUND VOLTEX -Valkyrie model-"
    ]
  },
  {
    "name": "ラウンドワンさいたま･鴻巣店",
    "operation_time": "",
    "holiday": "",
    "latitude": "36.08064011",
    "longitude": "139.4902201",
    "tel": "048-595-2001",
    "address": "鴻巣市箕田3163-7",
    "access": "",
    "games": [
      "SOUND VOLTEX -Valkyrie model-"
    ]
  },
  {
    "name": "ラウンドワン宇都宮店",
    "operation_time": "",
    "holiday": "",
    "latitude": "36.54080987",
    "longitude": "139.8868656",
    "tel": "028-614-8171",
    "address": "宇都宮市江曽島町2072-1",
    "access": "",
    "games": [
      "SOUND VOLTEX -Valkyrie model-"
    ]
  },
  {
    "name": "namco宇都宮店",
    "operation_time": "",
    "holiday": "",
    "latitude": "36.54390559",
    "longitude": "139.8915705",
    "tel": "028-638-5011",
    "address": "宇都宮市簗瀬町1606-1P&Dビル",
    "access": "",
    "games": [
      "SOUND VOLTEX -Valkyrie model-"
    ]
  },
  {
    "name": "GiGO宇都宮",
    "operation_time": "",
    "holiday": "",
    "latitude": "36.558326",
    "longitude": "139.90882",
    "tel": "028-633-6082",
    "address": "宇都宮市東宿郷5-1-7",
    "access": "",
    "games": [
      "SOUND VOLTEX -Valkyrie model-"
    ]
  },
  {
    "name": "インターパークプラスワン 宇都宮店",
    "operation_time": "9:00～24:00",
    "holiday": "無し",
    "latitude": "36.48822111",
    "longitude": "139.9053211",
    "tel": "028-657-6789",
    "address": "宇都宮市インターパーク6-5-1",
    "access": "国道4号線、北関東自動車道、宇都宮上三川インターインター降りてすぐ",
    "games": [
      "SOUND VOLTEX -Valkyrie model-"
    ]
  },
  {
    "name": "アピナ宇都宮店",
    "operation_time": "",
    "holiday": "",
    "latitude": "36.4848566",
    "longitude": "139.9081935",
    "tel": "0285-38-6337",
    "address": "河内郡上三川町磯岡421-1ジョイフル本田宇都宮店2F",
    "access": "",
    "games": [
      "SOUND VOLTEX -Valkyrie model-"
    ]
  },
  {
    "name": "ラウンドワン入間店",
    "operation_time": "",
    "holiday": "",
    "latitude": "35.82812299",
    "longitude": "139.3755366",
    "tel": "042-960-1521",
    "address": "入間市小谷田3-7-25",
    "access": "",
    "games": [
      "SOUND VOLTEX -Valkyrie model-"
    ]
  },
  {
    "name": "GiGO福生",
    "operation_time": "",
    "holiday": "",
    "latitude": "35.744653",
    "longitude": "139.324251",
    "tel": "042-553-6290",
    "address": "福生市福生1076-1",
    "access": "",
    "games": [
      "SOUND VOLTEX -Valkyrie model-"
    ]
  },
  {
    "name": "フェスタ古河店",
    "operation_time": "10:00～24:00",
    "holiday": "無し",
    "latitude": "36.20960151",
    "longitude": "139.7086044",
    "tel": "0280-32-1138",
    "address": "古河市松並2-18-10マーケットシティ古河内",
    "access": "マーケットシティ古河内",
    "games": [
      "SOUND VOLTEX -Valkyrie model-"
    ]
  },
  {
    "name": "ドラマ瑞穂店",
    "operation_time": "10:00～24:00",
    "holiday": "無し",
    "latitude": "35.76337213",
    "longitude": "139.3568934",
    "tel": "042-556-6605",
    "address": "西多摩郡瑞穂町武蔵382-1",
    "access": "JR八高線「箱根ヶ崎駅」から武蔵村山市方面に徒歩25分",
    "games": [
      "SOUND VOLTEX -Valkyrie model-"
    ]
  },
  {
    "name": "タイトーFステーションクレアモール川越店",
    "operation_time": "",
    "holiday": "",
    "latitude": "35.91384483",
    "longitude": "139.482921",
    "tel": "049-298-8963",
    "address": "川越市新富町2-1-13本川越SSビル1-4F",
    "access": "",
    "games": [
      "SOUND VOLTEX -Valkyrie model-"
    ]
  },
  {
    "name": "モナコ川越店",
    "operation_time": "9:00～24:00",
    "holiday": "無し",
    "latitude": "35.91326113",
    "longitude": "139.483165",
    "tel": "0492-24-2454",
    "address": "川越市新富町2-4-1",
    "access": "東武東上線川越駅徒歩5分",
    "games": [
      "SOUND VOLTEX -Valkyrie model-"
    ]
  },
  {
    "name": "アピナ小山店",
    "operation_time": "10:00～24:00",
    "holiday": "無し",
    "latitude": "36.300419",
    "longitude": "139.809126",
    "tel": "0285-31-0050",
    "address": "小山市駅南町4-27-18",
    "access": "国道50号線沿い駅南町交差点",
    "games": [
      "SOUND VOLTEX -Valkyrie model-"
    ]
  },
  {
    "name": "GiGO小山",
    "operation_time": "",
    "holiday": "",
    "latitude": "36.29908128",
    "longitude": "139.8101531",
    "tel": "0285-28-6281",
    "address": "小山市東城南1-1-18",
    "access": "",
    "games": [
      "SOUND VOLTEX -Valkyrie model-"
    ]
  },
  {
    "name": "GiGO入間",
    "operation_time": "",
    "holiday": "",
    "latitude": "35.81911",
    "longitude": "139.418219",
    "tel": "070-1458-7167",
    "address": "入間市東藤沢2-18",
    "access": "",
    "games": [
      "SOUND VOLTEX -Valkyrie model-"
    ]
  },
  {
    "name": "ゲームパドック プラスワン",
    "operation_time": "9:00～24:00",
    "holiday": "無し",
    "latitude": "36.2067047",
    "longitude": "139.7580433",
    "tel": "0280-98-5161",
    "address": "古河市小堤1916-1",
    "access": "国道125号、古河方面から下妻方面に走行、新幹線のガードをくくって500m左手",
    "games": [
      "SOUND VOLTEX -Valkyrie model-"
    ]
  },
  {
    "name": "サープラ沼津あそびタウン",
    "operation_time": "10:00～24:00",
    "holiday": "無し",
    "latitude": "35.10266451",
    "longitude": "138.8598883",
    "tel": "055-926-7739",
    "address": "沼津市大手町1-1-5",
    "access": "JR沼津駅徒歩5分",
    "games": [
      "SOUND VOLTEX -Valkyrie model-"
    ]
  },
  {
    "name": "アピナ上尾店",
    "operation_time": "",
    "holiday": "",
    "latitude": "35.987191",
    "longitude": "139.579877",
    "tel": "048-783-4747",
    "address": "上尾市緑丘3-3-11-2プリンセス棟別棟",
    "access": "",
    "games": [
      "SOUND VOLTEX -Valkyrie model-"
    ]
  },
  {
    "name": "アピナ川越店",
    "operation_time": "10:00～24:00",
    "holiday": "無し",
    "latitude": "35.9037481",
    "longitude": "139.5155363",
    "tel": "049-230-1068",
    "address": "川越市泉町1-1",
    "access": "JR川越線南古谷駅徒歩3分",
    "games": [
      "SOUND VOLTEX -Valkyrie model-"
    ]
  },
  {
    "name": "ラウンドワン武蔵村山店",
    "operation_time": "",
    "holiday": "",
    "latitude": "35.73563714",
    "longitude": "139.3826993",
    "tel": "042-520-3211",
    "address": "武蔵村山市伊奈平3-1-1",
    "access": "",
    "games": [
      "SOUND VOLTEX -Valkyrie model-"
    ]
  },
  {
    "name": "ラウンドワンさいたま･栗橋店",
    "operation_time": "",
    "holiday": "",
    "latitude": "36.12348469",
    "longitude": "139.7152159",
    "tel": "0480-55-0831",
    "address": "久喜市小右衛門192-1",
    "access": "",
    "games": [
      "SOUND VOLTEX -Valkyrie model-"
    ]
  },
  {
    "name": "ウェアハウス上尾店",
    "operation_time": "10:00～24:00",
    "holiday": "無し",
    "latitude": "35.98142891",
    "longitude": "139.5998843",
    "tel": "048-770-3332",
    "address": "上尾市二ツ宮1044",
    "access": "R17号より蓮田、伊奈方面車で3分",
    "games": [
      "SOUND VOLTEX -Valkyrie model-"
    ]
  },
  {
    "name": "ゲームプラザセントラル八王子店",
    "operation_time": "10:00～翌1:00",
    "holiday": "無し",
    "latitude": "35.65802575",
    "longitude": "139.338208",
    "tel": "0426-44-0078",
    "address": "八王子市東町12-15第5セントラルビル",
    "access": "JR八王子駅徒歩1分",
    "games": [
      "SOUND VOLTEX -Valkyrie model-"
    ]
  },
  {
    "name": "ラウンドワン上尾店",
    "operation_time": "",
    "holiday": "",
    "latitude": "35.98574121",
    "longitude": "139.6078308",
    "tel": "048-778-3411",
    "address": "上尾市大字平塚917-1",
    "access": "",
    "games": [
      "SOUND VOLTEX -Valkyrie model-"
    ]
  },
  {
    "name": "シルクハット八王子",
    "operation_time": "10:00～24:45",
    "holiday": "",
    "latitude": "35.65636374",
    "longitude": "139.3384725",
    "tel": "",
    "address": "八王子市旭町2-5八王子ツインタワービル3F",
    "access": "JR八王子駅前",
    "games": [
      "SOUND VOLTEX -Valkyrie model-"
    ]
  },
  {
    "name": "GiGOサントムーン柿田川",
    "operation_time": "",
    "holiday": "",
    "latitude": "35.109337",
    "longitude": "138.902823",
    "tel": "055-972-5430",
    "address": "駿東郡清水町玉川61-2サントムーン柿田川2F",
    "access": "",
    "games": [
      "SOUND VOLTEX -Valkyrie model-"
    ]
  },
  {
    "name": "アピナ八王子みなみ野店",
    "operation_time": "",
    "holiday": "",
    "latitude": "35.63118314",
    "longitude": "139.3289717",
    "tel": "042-635-3928",
    "address": "八王子市みなみ野1-2-1アクロスモール内3F",
    "access": "",
    "games": [
      "SOUND VOLTEX -Valkyrie model-"
    ]
  },
  {
    "name": "アミューズメントフィールドバイヨン",
    "operation_time": "10:00～24:00",
    "holiday": "無し",
    "latitude": "35.85617882",
    "longitude": "139.522425",
    "tel": "0492-65-1400",
    "address": "ふじみ野市うれし野2-16-1LCモールうれし野2F",
    "access": "東武東上線「ふじみ野」駅徒歩6分ショッピングモールリズム横",
    "games": [
      "SOUND VOLTEX -Valkyrie model-"
    ]
  },
  {
    "name": "ドラマ八王子高倉店",
    "operation_time": "10:00～24:00",
    "holiday": "無し",
    "latitude": "35.66506526",
    "longitude": "139.3664795",
    "tel": "0426-45-7050",
    "address": "八王子市高倉町55-4",
    "access": "国道20号、八王子市高倉町「高倉町西」交差点を日野バイパス豊田方面右手",
    "games": [
      "SOUND VOLTEX -Valkyrie model-"
    ]
  },
  {
    "name": "ラウンドワン所沢店",
    "operation_time": "",
    "holiday": "",
    "latitude": "35.78935214",
    "longitude": "139.4700049",
    "tel": "04-2940-8631",
    "address": "所沢市東町5-22TOCOTOCO SQUARE6F",
    "access": "",
    "games": [
      "SOUND VOLTEX -Valkyrie model-"
    ]
  },
  {
    "name": "GiGO所沢",
    "operation_time": "",
    "holiday": "",
    "latitude": "35.78848",
    "longitude": "139.47187",
    "tel": "042-926-9009",
    "address": "所沢市日吉町8-1",
    "access": "",
    "games": [
      "SOUND VOLTEX -Valkyrie model-"
    ]
  },
  {
    "name": "タイトーステーション所沢店",
    "operation_time": "09:00～24:00",
    "holiday": "無し",
    "latitude": "35.7881",
    "longitude": "139.47243",
    "tel": "04-2925-9071",
    "address": "所沢市日吉町3-7",
    "access": "所沢駅西口プロペ通りを徒歩3分",
    "games": [
      "SOUND VOLTEX -Valkyrie model-"
    ]
  },
  {
    "name": "タイトーステーション立川北口店",
    "operation_time": "",
    "holiday": "",
    "latitude": "35.699058",
    "longitude": "139.412162",
    "tel": "042-512-9651",
    "address": "立川市曙町2-4-5OSJ TACHIKAWA2･3F",
    "access": "",
    "games": [
      "SOUND VOLTEX -Valkyrie model-"
    ]
  },
  {
    "name": "GiGO立川",
    "operation_time": "",
    "holiday": "",
    "latitude": "35.6972343",
    "longitude": "139.4142917",
    "tel": "042-521-3050",
    "address": "立川市柴崎町3-2-1サザンビル1F",
    "access": "",
    "games": [
      "SOUND VOLTEX -Valkyrie model-"
    ]
  },
  {
    "name": "ウェアハウス三橋店",
    "operation_time": "一部24時間営業",
    "holiday": "無し",
    "latitude": "35.91589833",
    "longitude": "139.5959286",
    "tel": "048-795-8380",
    "address": "さいたま市西区三橋6-955-1",
    "access": "国道17号バイパス三橋六丁目交差点",
    "games": [
      "SOUND VOLTEX -Valkyrie model-"
    ]
  },
  {
    "name": "アピナ橋本店",
    "operation_time": "10:00～24:00",
    "holiday": "無し",
    "latitude": "35.597682",
    "longitude": "139.337035",
    "tel": "042-703-6033",
    "address": "相模原市緑区西橋本5-1-1ラ･フロール駐車場棟1F",
    "access": "橋本駅から徒歩10分 八王子バイパスから津久井街道へ繋がる側道に入ってすぐ",
    "games": [
      "SOUND VOLTEX -Valkyrie model-"
    ]
  },
  {
    "name": "WORLD GAME CIRCUS",
    "operation_time": "",
    "holiday": "",
    "latitude": "35.69651",
    "longitude": "139.42878",
    "tel": "042-512-5610",
    "address": "立川市羽衣町2-4-13羽衣長田ビル101",
    "access": "",
    "games": [
      "SOUND VOLTEX -Valkyrie model-"
    ]
  },
  {
    "name": "アドアーズ橋本店",
    "operation_time": "10:00～23:30",
    "holiday": "無し",
    "latitude": "35.59444342",
    "longitude": "139.3489184",
    "tel": "042-700-2310",
    "address": "相模原市緑区橋本3-3-1SING橋本2F",
    "access": "橋本MOVIX(映画館)の2F",
    "games": [
      "SOUND VOLTEX -Valkyrie model-"
    ]
  },
  {
    "name": "ビッグボウル杉戸",
    "operation_time": "10:00～翌1:00",
    "holiday": "無し",
    "latitude": "36.04028926",
    "longitude": "139.720837",
    "tel": "0480-34-7870",
    "address": "北葛飾郡杉戸町杉戸2338",
    "access": "東武伊勢崎線東武動物公園駅より徒歩30分 国道4号線沿い",
    "games": [
      "SOUND VOLTEX -Valkyrie model-"
    ]
  },
  {
    "name": "アピナ下館店",
    "operation_time": "10:00～24:00",
    "holiday": "無し",
    "latitude": "36.29325391",
    "longitude": "139.944075",
    "tel": "0296-28-0033",
    "address": "筑西市玉戸1012-3",
    "access": "R50号玉戸信号近く",
    "games": [
      "SOUND VOLTEX -Valkyrie model-"
    ]
  },
  {
    "name": "ラウンドワン大宮店",
    "operation_time": "",
    "holiday": "",
    "latitude": "35.91078012",
    "longitude": "139.6254963",
    "tel": "048-658-5666",
    "address": "さいたま市大宮区宮町4-90-7",
    "access": "",
    "games": [
      "SOUND VOLTEX -Valkyrie model-"
    ]
  },
  {
    "name": "GiGO大宮西口",
    "operation_time": "",
    "holiday": "",
    "latitude": "35.90617972",
    "longitude": "139.6220194",
    "tel": "070-5372-2702",
    "address": "さいたま市大宮区桜木町2-3-2泰伸ビル2-4F",
    "access": "",
    "games": [
      "SOUND VOLTEX -Valkyrie model-"
    ]
  },
  {
    "name": "埼玉レジャーランド大宮駅東口店",
    "operation_time": "",
    "holiday": "",
    "latitude": "35.90800635",
    "longitude": "139.6245445",
    "tel": "048-788-4340",
    "address": "さいたま市大宮区宮町1-8大宮セントラルビルB1F-2F",
    "access": "",
    "games": [
      "SOUND VOLTEX -Valkyrie model-"
    ]
  },
  {
    "name": "埼玉レジャーランド大宮ラクーン店",
    "operation_time": "",
    "holiday": "",
    "latitude": "35.90775385",
    "longitude": "139.6256741",
    "tel": "048-871-5539",
    "address": "さいたま市大宮区宮町1-60大宮ラクーン5F",
    "access": "",
    "games": [
      "SOUND VOLTEX -Valkyrie model-"
    ]
  },
  {
    "name": "タイトーステーション大宮店",
    "operation_time": "9:00～翌1:00",
    "holiday": "無し",
    "latitude": "35.907441",
    "longitude": "139.625505",
    "tel": "048-782-5461",
    "address": "さいたま市大宮区大門町1-1",
    "access": "大宮駅東口徒歩1分",
    "games": [
      "SOUND VOLTEX -Valkyrie model-"
    ]
  },
  {
    "name": "フリスポ下館",
    "operation_time": "",
    "holiday": "",
    "latitude": "36.30255879",
    "longitude": "139.9564543",
    "tel": "0296-22-7552",
    "address": "筑西市神分472",
    "access": "国道50号を下館から小山方面へ10分",
    "games": [
      "SOUND VOLTEX -Valkyrie model-"
    ]
  },
  {
    "name": "ウェアハウス一橋学園店",
    "operation_time": "",
    "holiday": "",
    "latitude": "35.723438",
    "longitude": "139.480703",
    "tel": "042-349-7600",
    "address": "小平市学園東町1-4-39平山ビル3F",
    "access": "",
    "games": [
      "SOUND VOLTEX -Valkyrie model-"
    ]
  },
  {
    "name": "GiGO相模原",
    "operation_time": "10:00～24:00",
    "holiday": "無し",
    "latitude": "35.57350902",
    "longitude": "139.3710322",
    "tel": "080-7465-6268",
    "address": "相模原市中央区中央2-1-5ムトス内",
    "access": "JR横浜線相模原駅徒歩15分国道16号線近く",
    "games": [
      "SOUND VOLTEX -Valkyrie model-"
    ]
  },
  {
    "name": "タイトーステーション国分寺店",
    "operation_time": "",
    "holiday": "",
    "latitude": "35.701889",
    "longitude": "139.480156",
    "tel": "042-401-0592",
    "address": "国分寺市本町3-5-11",
    "access": "",
    "games": [
      "SOUND VOLTEX -Valkyrie model-"
    ]
  },
  {
    "name": "Amusement&Game MAGHREB",
    "operation_time": "10:00～24:00",
    "holiday": "無し",
    "latitude": "35.624024",
    "longitude": "139.423196",
    "tel": "042-371-5556",
    "address": "多摩市落合1-39-2マグレブビル1F",
    "access": "京王線・小田急線 多摩センター駅 徒歩3分/多摩モノレール多摩センター駅 徒歩1分",
    "games": [
      "SOUND VOLTEX -Valkyrie model-"
    ]
  },
  {
    "name": "ウェアハウス岩槻店",
    "operation_time": "7:00～23:45",
    "holiday": "無し",
    "latitude": "35.94092949",
    "longitude": "139.6859268",
    "tel": "048-758-8755",
    "address": "さいたま市岩槻区加倉3-3-63",
    "access": "岩槻IC降りて直ぐ",
    "games": [
      "SOUND VOLTEX -Valkyrie model-"
    ]
  },
  {
    "name": "永山コパボウル",
    "operation_time": "",
    "holiday": "",
    "latitude": "35.63150676",
    "longitude": "139.4479486",
    "tel": "042-339-9966",
    "address": "多摩市永山1-3-4ヒューマックスパビリオン6F",
    "access": "",
    "games": [
      "SOUND VOLTEX -Valkyrie model-"
    ]
  },
  {
    "name": "ラウンドワン府中本町駅前店",
    "operation_time": "",
    "holiday": "",
    "latitude": "35.667312",
    "longitude": "139.477387",
    "tel": "042-340-4901",
    "address": "府中市本町1-13-3カネタビル",
    "access": "",
    "games": [
      "SOUND VOLTEX -Valkyrie model-"
    ]
  },
  {
    "name": "ラウンドワン朝霞店",
    "operation_time": "",
    "holiday": "",
    "latitude": "35.79026242",
    "longitude": "139.5796756",
    "tel": "048-450-1822",
    "address": "朝霞市膝折町2-16-10",
    "access": "",
    "games": [
      "SOUND VOLTEX -Valkyrie model-"
    ]
  },
  {
    "name": "埼玉レジャーランド春日部店",
    "operation_time": "一部24時間",
    "holiday": "無し",
    "latitude": "35.95940469",
    "longitude": "139.7289621",
    "tel": "048-763-4061",
    "address": "春日部市大字増富字谷際163-1",
    "access": "国道16号線沿い春日部市増富地内",
    "games": [
      "SOUND VOLTEX -Valkyrie model-"
    ]
  },
  {
    "name": "アドアーズ和光店",
    "operation_time": "10:00～23:30",
    "holiday": "無し",
    "latitude": "35.78829096",
    "longitude": "139.6116504",
    "tel": "048-463-5108",
    "address": "和光市本町3-5Million Annex 和光1-3F",
    "access": "和光市駅南口駅前交番前",
    "games": [
      "SOUND VOLTEX -Valkyrie model-"
    ]
  },
  {
    "name": "ギガステーション戸田店",
    "operation_time": "10:00～24:00",
    "holiday": "無し",
    "latitude": "35.83477805",
    "longitude": "139.6530213",
    "tel": "048-421-1201",
    "address": "戸田市美女木943-7",
    "access": "",
    "games": [
      "SOUND VOLTEX -Valkyrie model-"
    ]
  },
  {
    "name": "神奈川レジャーランド厚木店",
    "operation_time": "一部24時間営業",
    "holiday": "無し",
    "latitude": "35.44802433",
    "longitude": "139.3431365",
    "tel": "050-1722-4336",
    "address": "厚木市戸室5-31-1",
    "access": "小田急本厚木駅よりバスにてアンリツ前バス停下車徒歩1分",
    "games": [
      "SOUND VOLTEX -Valkyrie model-"
    ]
  },
  {
    "name": "ユーズランド春日部店",
    "operation_time": "10:00～21:00",
    "holiday": "施設の営業日に準じる",
    "latitude": "35.987895",
    "longitude": "139.788478",
    "tel": "048-745-2501",
    "address": "春日部市下柳420-1イオンモール春日部2F 2037",
    "access": "庄和インターそば",
    "games": [
      "SOUND VOLTEX -Valkyrie model-"
    ]
  },
  {
    "name": "アピナ成増店",
    "operation_time": "",
    "holiday": "",
    "latitude": "35.77813507",
    "longitude": "139.6304654",
    "tel": "03-6904-1677",
    "address": "板橋区成増2-21-2MEGAドン･キホーテ成増店5F",
    "access": "",
    "games": [
      "SOUND VOLTEX -Valkyrie model-"
    ]
  },
  {
    "name": "ラウンドワンわらび店",
    "operation_time": "",
    "holiday": "",
    "latitude": "35.83078787",
    "longitude": "139.6742521",
    "tel": "048-447-8080",
    "address": "蕨市北町5-1-6",
    "access": "",
    "games": [
      "SOUND VOLTEX -Valkyrie model-"
    ]
  },
  {
    "name": "GiGO成増",
    "operation_time": "",
    "holiday": "",
    "latitude": "35.7774666",
    "longitude": "139.6312648",
    "tel": "070-1459-3563",
    "address": "板橋区成増2-17-24五曠第6ビルB1F-1F",
    "access": "",
    "games": [
      "SOUND VOLTEX -Valkyrie model-"
    ]
  },
  {
    "name": "ゲームパーク石神井",
    "operation_time": "10:00～24:00",
    "holiday": "無し",
    "latitude": "35.74266197",
    "longitude": "139.6044655",
    "tel": "03-3997-3799",
    "address": "練馬区石神井町3-17-16",
    "access": "西部池袋線石神井公園駅徒歩2分",
    "games": [
      "SOUND VOLTEX -Valkyrie model-"
    ]
  },
  {
    "name": "ラウンドワン町田店",
    "operation_time": "",
    "holiday": "",
    "latitude": "35.54409488",
    "longitude": "139.4432407",
    "tel": "042-710-0091",
    "address": "町田市森野1-13-14",
    "access": "",
    "games": [
      "SOUND VOLTEX -Valkyrie model-"
    ]
  },
  {
    "name": "GiGO相模大野",
    "operation_time": "",
    "holiday": "",
    "latitude": "35.532177",
    "longitude": "139.436075",
    "tel": "042-741-8195",
    "address": "相模原市南区相模大野3-13-2フレスコビル3F",
    "access": "",
    "games": [
      "SOUND VOLTEX -Valkyrie model-"
    ]
  },
  {
    "name": "GiGOイオンモール浦和美園",
    "operation_time": "9:00～23:00",
    "holiday": "無し",
    "latitude": "35.8909712",
    "longitude": "139.7311429",
    "tel": "080-4831-9105",
    "address": "さいたま市緑区美園5-50-1イオンモール浦和美園2F",
    "access": "イオン浦和美園ショッピングセンター内 2階",
    "games": [
      "SOUND VOLTEX -Valkyrie model-"
    ]
  },
  {
    "name": "イミグランデ本厚木店",
    "operation_time": "10:00～24:00",
    "holiday": "無し",
    "latitude": "35.43943108",
    "longitude": "139.3616156",
    "tel": "0462-24-9933",
    "address": "厚木市中町3-2-1",
    "access": "小田急「本厚木」駅徒歩3分",
    "games": [
      "SOUND VOLTEX -Valkyrie model-"
    ]
  },
  {
    "name": "GiGO町田",
    "operation_time": "",
    "holiday": "",
    "latitude": "35.54392",
    "longitude": "139.446987",
    "tel": "042-723-6701",
    "address": "町田市原町田6-13-17アーバンミサワビル",
    "access": "",
    "games": [
      "SOUND VOLTEX -Valkyrie model-"
    ]
  },
  {
    "name": "GiGO本厚木",
    "operation_time": "",
    "holiday": "",
    "latitude": "35.439044",
    "longitude": "139.361882",
    "tel": "0462-23-7157",
    "address": "厚木市中町4-15-9",
    "access": "",
    "games": [
      "SOUND VOLTEX -Valkyrie model-"
    ]
  },
  {
    "name": "シルクハット本厚木",
    "operation_time": "9:00～23:45",
    "holiday": "無し",
    "latitude": "35.44024066",
    "longitude": "139.3629959",
    "tel": "",
    "address": "厚木市中町3-4-22第二会田ビル2F",
    "access": "小田急「本厚木駅」北口より徒歩1分 第二会田ビル",
    "games": [
      "SOUND VOLTEX -Valkyrie model-"
    ]
  },
  {
    "name": "ピンクパンサー 下妻店",
    "operation_time": "12:00～24:00",
    "holiday": "無し",
    "latitude": "36.17067062",
    "longitude": "139.9664734",
    "tel": "0296-43-6880",
    "address": "下妻市小島884-10",
    "access": "国道旧294号線沿い",
    "games": [
      "SOUND VOLTEX -Valkyrie model-"
    ]
  },
  {
    "name": "東京レジャーランド吉祥寺店",
    "operation_time": "",
    "holiday": "",
    "latitude": "35.7036243",
    "longitude": "139.5786419",
    "tel": "0422-27-2200",
    "address": "武蔵野市吉祥寺本町1-3-7YSビル",
    "access": "",
    "games": [
      "SOUND VOLTEX -Valkyrie model-"
    ]
  },
  {
    "name": "ラウンドワン吉祥寺店",
    "operation_time": "",
    "holiday": "",
    "latitude": "35.706276",
    "longitude": "139.580884",
    "tel": "0422-29-1051",
    "address": "武蔵野市吉祥寺本町1-11-22",
    "access": "",
    "games": [
      "SOUND VOLTEX -Valkyrie model-"
    ]
  },
  {
    "name": "タイトーFステーション吉祥寺JOY",
    "operation_time": "",
    "holiday": "",
    "latitude": "35.70436",
    "longitude": "139.57963",
    "tel": "090-7265-2005",
    "address": "武蔵野市吉祥寺本町1-8-23河田ビル",
    "access": "",
    "games": [
      "SOUND VOLTEX -Valkyrie model-"
    ]
  },
  {
    "name": "タイトーステーション町田店",
    "operation_time": "10:00～24:00",
    "holiday": "無し",
    "latitude": "35.542593",
    "longitude": "139.448333",
    "tel": "042-739-6196",
    "address": "町田市原町田6-21-23松山ビル1F",
    "access": "JR横浜線町田駅より徒歩3分・小田急線町田駅より徒歩5分",
    "games": [
      "SOUND VOLTEX -Valkyrie model-"
    ]
  },
  {
    "name": "モナコ調布駅前店",
    "operation_time": "10:00～24:00",
    "holiday": "無し",
    "latitude": "35.65119592",
    "longitude": "139.5443691",
    "tel": "0424-99-1383",
    "address": "調布市布田4-2-22",
    "access": "京王線調布駅徒歩1分",
    "games": [
      "SOUND VOLTEX -Valkyrie model-"
    ]
  },
  {
    "name": "GiGO調布",
    "operation_time": "",
    "holiday": "",
    "latitude": "35.65098715",
    "longitude": "139.5442321",
    "tel": "070-1517-3693",
    "address": "調布市布田4-2-4",
    "access": "",
    "games": [
      "SOUND VOLTEX -Valkyrie model-"
    ]
  },
  {
    "name": "アドアーズ蕨店",
    "operation_time": "10:00～23:45",
    "holiday": "無し",
    "latitude": "35.82774017",
    "longitude": "139.6915296",
    "tel": "048-433-3886",
    "address": "蕨市塚越1-4-4花見屋第2ビル2F",
    "access": "塚越東口一番街通りを直進50m",
    "games": [
      "SOUND VOLTEX -Valkyrie model-"
    ]
  },
  {
    "name": "ウェアハウス越谷店",
    "operation_time": "10:00～24:00",
    "holiday": "無し",
    "latitude": "35.91195206",
    "longitude": "139.7637557",
    "tel": "048-973-4311",
    "address": "越谷市大字南荻島841-1",
    "access": "越谷岩槻線沿い、国道4号から車で1分",
    "games": [
      "SOUND VOLTEX -Valkyrie model-"
    ]
  },
  {
    "name": "GiGO海老名",
    "operation_time": "",
    "holiday": "",
    "latitude": "35.45161",
    "longitude": "139.39236",
    "tel": "046-292-5812",
    "address": "海老名市中央1-4-31海老名プラザビル1F",
    "access": "",
    "games": [
      "SOUND VOLTEX -Valkyrie model-"
    ]
  },
  {
    "name": "シルクハット海老名マルイ",
    "operation_time": "",
    "holiday": "",
    "latitude": "35.45272737",
    "longitude": "139.3934004",
    "tel": "",
    "address": "海老名市中央1-6-1海老名マルイ3F",
    "access": "",
    "games": [
      "SOUND VOLTEX -Valkyrie model-"
    ]
  },
  {
    "name": "タイトーステーション海老名ビナウォーク店",
    "operation_time": "10:00～24:00",
    "holiday": "無し",
    "latitude": "35.452455",
    "longitude": "139.395834",
    "tel": "046-292-5160",
    "address": "海老名市中央1-18-1ビナウォーク6番館2F",
    "access": "JR相模線、相鉄線、小田急線、海老名駅より徒歩5分",
    "games": [
      "SOUND VOLTEX -Valkyrie model-"
    ]
  },
  {
    "name": "ミラクル イン 中村橋",
    "operation_time": "10:00～24:00",
    "holiday": "無し",
    "latitude": "35.73696054",
    "longitude": "139.6383659",
    "tel": "03-5933-9312",
    "address": "練馬区貫井1-1-2",
    "access": "西武池袋線中村橋駅徒歩2分",
    "games": [
      "SOUND VOLTEX -Valkyrie model-"
    ]
  },
  {
    "name": "テクモピア座間店",
    "operation_time": "",
    "holiday": "",
    "latitude": "35.48001079",
    "longitude": "139.431891",
    "tel": "046-205-4719",
    "address": "座間市ひばりが丘4-11-48",
    "access": "",
    "games": [
      "SOUND VOLTEX -Valkyrie model-"
    ]
  },
  {
    "name": "アピナ荻窪店",
    "operation_time": "10:00～24:00 金土祝前日10:00～25:00",
    "holiday": "",
    "latitude": "35.705",
    "longitude": "139.618163",
    "tel": "03-3393-6665",
    "address": "杉並区上荻1-13-10ハクサンビル",
    "access": "",
    "games": [
      "SOUND VOLTEX -Valkyrie model-"
    ]
  },
  {
    "name": "アドアーズ仙川店",
    "operation_time": "10:00～23:45",
    "holiday": "無し",
    "latitude": "35.66249549",
    "longitude": "139.5841524",
    "tel": "03-5313-4661",
    "address": "調布市仙川町2-21-12VICビル7 1-3F",
    "access": "ハーモニータウン内みずほ銀行前",
    "games": [
      "SOUND VOLTEX -Valkyrie model-"
    ]
  },
  {
    "name": "ラウンドワン板橋店",
    "operation_time": "",
    "holiday": "",
    "latitude": "35.77658",
    "longitude": "139.67879",
    "tel": "03-5922-3521",
    "address": "板橋区相生町16-13",
    "access": "",
    "games": [
      "SOUND VOLTEX -Valkyrie model-"
    ]
  },
  {
    "name": "イミグランデ大和店",
    "operation_time": "10:00～24:00",
    "holiday": "無し",
    "latitude": "35.49148588",
    "longitude": "139.4547647",
    "tel": "046-277-8571",
    "address": "大和市鶴間2-12-27",
    "access": "小田急鶴間駅徒歩5分",
    "games": [
      "SOUND VOLTEX -Valkyrie model-"
    ]
  },
  {
    "name": "シルクハット川口",
    "operation_time": "9:00～23:45",
    "holiday": "無し",
    "latitude": "35.80293217",
    "longitude": "139.7175416",
    "tel": "",
    "address": "川口市栄町3-1-16イート川口ビル4F",
    "access": "JR川口駅前",
    "games": [
      "SOUND VOLTEX -Valkyrie model-"
    ]
  },
  {
    "name": "タイトーFステーション向ヶ丘遊園店",
    "operation_time": "",
    "holiday": "",
    "latitude": "35.616404",
    "longitude": "139.565109",
    "tel": "044-281-3500",
    "address": "川崎市多摩区登戸2718-1",
    "access": "",
    "games": [
      "SOUND VOLTEX -Valkyrie model-"
    ]
  },
  {
    "name": "千葉レジャーランド野田店",
    "operation_time": "一部24時間営業",
    "holiday": "無し",
    "latitude": "35.97154747",
    "longitude": "139.8653487",
    "tel": "04-7120-3535",
    "address": "野田市吉春776-1",
    "access": "国道16号線沿い野田市吉春地内",
    "games": [
      "SOUND VOLTEX -Valkyrie model-"
    ]
  },
  {
    "name": "ゲームシティ川口店",
    "operation_time": "10:00～23:50",
    "holiday": "無し",
    "latitude": "35.80263316",
    "longitude": "139.7255584",
    "tel": "048-250-3855",
    "address": "川口市栄町1-10-5",
    "access": "JR川口駅東口徒歩10分",
    "games": [
      "SOUND VOLTEX -Valkyrie model-"
    ]
  },
  {
    "name": "ゲームスタジオキューブ高円寺",
    "operation_time": "10:00～翌1:00",
    "holiday": "無し",
    "latitude": "35.7049194",
    "longitude": "139.6495113",
    "tel": "03-3315-4448",
    "address": "杉並区高円寺南4-26-12福丸ビルB1F",
    "access": "JR中央線高円寺駅徒歩2分",
    "games": [
      "SOUND VOLTEX -Valkyrie model-"
    ]
  },
  {
    "name": "アドアーズ大和店A館",
    "operation_time": "10:00～23:45",
    "holiday": "無し",
    "latitude": "35.47051883",
    "longitude": "139.4623285",
    "tel": "046-260-0861",
    "address": "大和市大和東1-4-3大黒屋ビル1-2F",
    "access": "ユザワヤ側出口右手横浜銀行左折",
    "games": [
      "SOUND VOLTEX -Valkyrie model-"
    ]
  },
  {
    "name": "ラウンドワンららぽーと湘南平塚店",
    "operation_time": "",
    "holiday": "",
    "latitude": "35.335825",
    "longitude": "139.354769",
    "tel": "0463-25-4051",
    "address": "平塚市天沼10-1ららぽーと湘南平塚店3F",
    "access": "",
    "games": [
      "SOUND VOLTEX -Valkyrie model-"
    ]
  },
  {
    "name": "GiGO赤羽駅前",
    "operation_time": "",
    "holiday": "",
    "latitude": "35.778266",
    "longitude": "139.721535",
    "tel": "070-1458-9504",
    "address": "北区赤羽1-2-4",
    "access": "",
    "games": [
      "SOUND VOLTEX -Valkyrie model-"
    ]
  },
  {
    "name": "GiGO赤羽",
    "operation_time": "",
    "holiday": "",
    "latitude": "35.778926",
    "longitude": "139.722383",
    "tel": "070-1458-9465",
    "address": "北区赤羽1-7-9赤羽第一葉山ビルB1F",
    "access": "",
    "games": [
      "SOUND VOLTEX -Valkyrie model-"
    ]
  },
  {
    "name": "アドアーズ中野店",
    "operation_time": "10:00～23:45",
    "holiday": "無し",
    "latitude": "35.70931435",
    "longitude": "139.6656989",
    "tel": "03-3389-7670",
    "address": "中野区中野5-52-15ブロードウェイ185",
    "access": "中野ブロードウェイ内左手",
    "games": [
      "SOUND VOLTEX -Valkyrie model-"
    ]
  },
  {
    "name": "ゲームW店",
    "operation_time": "10:00～24:00",
    "holiday": "不定休",
    "latitude": "35.72942259",
    "longitude": "139.6828924",
    "tel": "03-5983-7880",
    "address": "豊島区南長崎5-27-6",
    "access": "西武池袋線 東長崎駅より徒歩2分",
    "games": [
      "SOUND VOLTEX -Valkyrie model-"
    ]
  },
  {
    "name": "ゲームサファリ大山",
    "operation_time": "10:00～24:00",
    "holiday": "無し",
    "latitude": "35.74900603",
    "longitude": "139.7022497",
    "tel": "03-5248-4743",
    "address": "板橋区大山東町60-10パチンコやすだ2F",
    "access": "東武東上線大山駅徒歩1分",
    "games": [
      "SOUND VOLTEX -Valkyrie model-"
    ]
  },
  {
    "name": "ウェアハウス入谷店",
    "operation_time": "10:00～24:00",
    "holiday": "無し",
    "latitude": "35.80112943",
    "longitude": "139.760997",
    "tel": "03-3856-5833",
    "address": "足立区入谷7-8-11",
    "access": "足立ICから車で3分",
    "games": [
      "SOUND VOLTEX -Valkyrie model-"
    ]
  },
  {
    "name": "ユーズランド越谷店",
    "operation_time": "10:00～21:00",
    "holiday": "無し",
    "latitude": "35.87763779",
    "longitude": "139.8247477",
    "tel": "048-934-3342",
    "address": "越谷市レイクタウン4-2-2イオンレイクタウンKAZE 3F",
    "access": "武蔵野線レイクタウン駅下車徒歩1分",
    "games": [
      "SOUND VOLTEX -Valkyrie model-"
    ]
  },
  {
    "name": "タイトーステーション池袋西口店",
    "operation_time": "",
    "holiday": "",
    "latitude": "35.73058948",
    "longitude": "139.709706",
    "tel": "03-6907-3560",
    "address": "豊島区西池袋1-15-9第一西池ビル",
    "access": "",
    "games": [
      "SOUND VOLTEX -Valkyrie model-"
    ]
  },
  {
    "name": "ラウンドワン池袋店",
    "operation_time": "",
    "holiday": "",
    "latitude": "35.730175",
    "longitude": "139.714846",
    "tel": "03-5928-0221",
    "address": "豊島区東池袋1-14-1池袋スクエア",
    "access": "",
    "games": [
      "SOUND VOLTEX -Valkyrie model-"
    ]
  },
  {
    "name": "GiGO総本店",
    "operation_time": "",
    "holiday": "",
    "latitude": "35.72930775",
    "longitude": "139.7150562",
    "tel": "080-7018-7351",
    "address": "豊島区東池袋1-13-6ロクマルゲート池袋B1F-3F",
    "access": "",
    "games": [
      "SOUND VOLTEX -Valkyrie model-"
    ]
  },
  {
    "name": "東京レジャーランド池袋店",
    "operation_time": "",
    "holiday": "",
    "latitude": "35.73071",
    "longitude": "139.71644",
    "tel": "03-5904-8388",
    "address": "豊島区東池袋1-29-1マルビル池袋2-3F",
    "access": "",
    "games": [
      "SOUND VOLTEX -Valkyrie model-"
    ]
  },
  {
    "name": "GiGO高田馬場",
    "operation_time": "",
    "holiday": "",
    "latitude": "35.7137",
    "longitude": "139.70374",
    "tel": "03-5937-1515",
    "address": "新宿区高田馬場4-7-5高田馬場グランド東京ビル",
    "access": "",
    "games": [
      "SOUND VOLTEX -Valkyrie model-"
    ]
  },
  {
    "name": "タイトーステーションBIGBOX高田馬場",
    "operation_time": "10:00～24:00",
    "holiday": "無し",
    "latitude": "35.712933",
    "longitude": "139.70419",
    "tel": "03-5272-9855",
    "address": "新宿区高田馬場1-35-3BIGBOX6F",
    "access": "西武新宿線・高田馬場駅より徒歩1分",
    "games": [
      "SOUND VOLTEX -Valkyrie model-"
    ]
  },
  {
    "name": "namco王子サンスクエア店",
    "operation_time": "",
    "holiday": "",
    "latitude": "35.7529261",
    "longitude": "139.7377633",
    "tel": "03-5959-9830",
    "address": "北区王子1-4-1サンスクエア2F",
    "access": "",
    "games": [
      "SOUND VOLTEX -Valkyrie model-"
    ]
  },
  {
    "name": "タイトーステーション溝の口店",
    "operation_time": "",
    "holiday": "",
    "latitude": "35.600042",
    "longitude": "139.61245",
    "tel": "044-328-9262",
    "address": "川崎市高津区溝口1-11-8",
    "access": "",
    "games": [
      "SOUND VOLTEX -Valkyrie model-"
    ]
  },
  {
    "name": "ラウンドワン草加店",
    "operation_time": "",
    "holiday": "",
    "latitude": "35.81240056",
    "longitude": "139.7878993",
    "tel": "048-920-3701",
    "address": "草加市谷塚上町204-1",
    "access": "",
    "games": [
      "SOUND VOLTEX -Valkyrie model-"
    ]
  },
  {
    "name": "イミグランデ溝口店",
    "operation_time": "10:00～24:00",
    "holiday": "無し",
    "latitude": "35.60052965",
    "longitude": "139.6144859",
    "tel": "044-819-8595",
    "address": "川崎市高津区溝口1-14-7第二カスタムビル",
    "access": "",
    "games": [
      "SOUND VOLTEX -Valkyrie model-"
    ]
  },
  {
    "name": "ゲームファクトリーマグマ",
    "operation_time": "～24:00",
    "holiday": "無し",
    "latitude": "35.82819969",
    "longitude": "139.8024875",
    "tel": "0489-24-9800",
    "address": "草加市氷川町2125-1",
    "access": "東武伊勢崎線草加駅徒歩1分",
    "games": [
      "SOUND VOLTEX -Valkyrie model-"
    ]
  },
  {
    "name": "GiGOセンター南",
    "operation_time": "",
    "holiday": "",
    "latitude": "35.54468479",
    "longitude": "139.5746128",
    "tel": "045-945-7720",
    "address": "横浜市都筑区茅ケ崎中央3-25",
    "access": "",
    "games": [
      "SOUND VOLTEX -Valkyrie model-"
    ]
  },
  {
    "name": "ゲームパニック新宿歌舞伎町",
    "operation_time": "",
    "holiday": "",
    "latitude": "35.69606337",
    "longitude": "139.7012777",
    "tel": "03-6265-9021",
    "address": "新宿区歌舞伎町1-20-1ヒューマックスパビリオン1-2F",
    "access": "",
    "games": [
      "SOUND VOLTEX -Valkyrie model-"
    ]
  },
  {
    "name": "GiGO新宿西口",
    "operation_time": "",
    "holiday": "",
    "latitude": "35.68945769",
    "longitude": "139.6973935",
    "tel": "03-3349-0257",
    "address": "新宿区西新宿1-12-5",
    "access": "",
    "games": [
      "SOUND VOLTEX -Valkyrie model-"
    ]
  },
  {
    "name": "タイトーステーション新宿東口店",
    "operation_time": "10:00～翌1:00",
    "holiday": "無し",
    "latitude": "35.693289",
    "longitude": "139.70154",
    "tel": "03-5362-5108",
    "address": "新宿区新宿3-22-7指田ビル",
    "access": "JR新宿駅東口より徒歩3分 スタジオアルタ裏",
    "games": [
      "SOUND VOLTEX -Valkyrie model-"
    ]
  },
  {
    "name": "新宿スポーツランド本館",
    "operation_time": "",
    "holiday": "",
    "latitude": "35.69316847",
    "longitude": "139.7018443",
    "tel": "03-3352-5489",
    "address": "新宿区新宿3-22-12",
    "access": "",
    "games": [
      "SOUND VOLTEX -Valkyrie model-"
    ]
  },
  {
    "name": "タイトーステーション新宿南口ゲームワールド店",
    "operation_time": "10:00～25:00",
    "holiday": "無し",
    "latitude": "35.689926",
    "longitude": "139.702372",
    "tel": "03-3226-0395",
    "address": "新宿区新宿3-35-8",
    "access": "JR・新宿駅より徒歩1分",
    "games": [
      "SOUND VOLTEX -Valkyrie model-"
    ]
  },
  {
    "name": "ビリヤードウェアハウス草加店",
    "operation_time": "10:00～24:00",
    "holiday": "無し",
    "latitude": "35.83027597",
    "longitude": "139.8209349",
    "tel": "048-930-5033",
    "address": "草加市稲荷2-36-33",
    "access": "草加産業道路沿いウェアハウス草加店隣り",
    "games": [
      "SOUND VOLTEX -Valkyrie model-"
    ]
  },
  {
    "name": "GiGO竹の塚",
    "operation_time": "",
    "holiday": "",
    "latitude": "35.794794",
    "longitude": "139.792358",
    "tel": "03-3858-2307",
    "address": "足立区竹の塚6-8-6ピーくんPlazaB",
    "access": "",
    "games": [
      "SOUND VOLTEX -Valkyrie model-"
    ]
  },
  {
    "name": "ウェアハウス保木間店",
    "operation_time": "10:00～24:00",
    "holiday": "無し",
    "latitude": "35.78913885",
    "longitude": "139.8032547",
    "tel": "03-3860-7822",
    "address": "足立区保木間1-1-19-1F",
    "access": "竹の塚駅より車で7分",
    "games": [
      "SOUND VOLTEX -Valkyrie model-"
    ]
  },
  {
    "name": "ラウンドワンららぽーと新三郷店",
    "operation_time": "",
    "holiday": "",
    "latitude": "35.859813",
    "longitude": "139.865774",
    "tel": "048-950-7501",
    "address": "三郷市新三郷ららシティ3-1-1ららぽーと新三郷 2F",
    "access": "",
    "games": [
      "SOUND VOLTEX -Valkyrie model-"
    ]
  },
  {
    "name": "ドラマ港北インター店",
    "operation_time": "10:00～24:00",
    "holiday": "無し",
    "latitude": "35.51925659",
    "longitude": "139.5847927",
    "tel": "045-474-6604",
    "address": "横浜市都筑区東方町321-6",
    "access": "第三京浜港北IC右側交差点左折約500M",
    "games": [
      "SOUND VOLTEX -Valkyrie model-"
    ]
  },
  {
    "name": "タイトーステーション渋谷店",
    "operation_time": "10:00～24:00",
    "holiday": "無し",
    "latitude": "35.659983",
    "longitude": "139.70204",
    "tel": "03-5467-6565",
    "address": "渋谷区渋谷1-24-12渋谷東映プラザB1F",
    "access": "JR渋谷駅・宮益坂口より徒歩1分",
    "games": [
      "SOUND VOLTEX -Valkyrie model-"
    ]
  },
  {
    "name": "GiGO渋谷宮益坂",
    "operation_time": "",
    "holiday": "",
    "latitude": "35.660097",
    "longitude": "139.702644",
    "tel": "03-3409-4737",
    "address": "渋谷区渋谷1-14-14EST 1F･7F",
    "access": "",
    "games": [
      "SOUND VOLTEX -Valkyrie model-"
    ]
  },
  {
    "name": "ゲームパニック三郷",
    "operation_time": "",
    "holiday": "",
    "latitude": "35.84215546",
    "longitude": "139.8548102",
    "tel": "048-953-8295",
    "address": "三郷市ピアラシティ1-1-200",
    "access": "",
    "games": [
      "SOUND VOLTEX -Valkyrie model-"
    ]
  },
  {
    "name": "GiGO神楽坂",
    "operation_time": "",
    "holiday": "",
    "latitude": "35.701061",
    "longitude": "139.741994",
    "tel": "03-3260-7253",
    "address": "新宿区神楽坂2-11第2カグラヒルズ1F",
    "access": "",
    "games": [
      "SOUND VOLTEX -Valkyrie model-"
    ]
  },
  {
    "name": "GAMESPOT VERSUS",
    "operation_time": "10:00～翌1:00",
    "holiday": "無し",
    "latitude": "35.73191",
    "longitude": "139.76804",
    "tel": "03-6806-6343",
    "address": "荒川区西日暮里5-15-10",
    "access": "JR西日暮里駅徒歩5分",
    "games": [
      "SOUND VOLTEX -Valkyrie model-"
    ]
  },
  {
    "name": "GiGO自由が丘",
    "operation_time": "",
    "holiday": "",
    "latitude": "35.60845726",
    "longitude": "139.6676515",
    "tel": "03-3725-3953",
    "address": "目黒区自由が丘2-10-9",
    "access": "",
    "games": [
      "SOUND VOLTEX -Valkyrie model-"
    ]
  },
  {
    "name": "ドラマ藤沢店",
    "operation_time": "10:00～24:00",
    "holiday": "無し",
    "latitude": "35.35751243",
    "longitude": "139.4682681",
    "tel": "0466-82-0328",
    "address": "藤沢市本藤沢5-6-8",
    "access": "小田急江ノ島線善行駅より徒歩15分",
    "games": [
      "SOUND VOLTEX -Valkyrie model-"
    ]
  },
  {
    "name": "ASO:VIBA!",
    "operation_time": "10:00～24:00",
    "holiday": "無し",
    "latitude": "35.64677066",
    "longitude": "139.7109583",
    "tel": "03-3444-4912",
    "address": "渋谷区恵比寿1-10-5",
    "access": "JR山手線恵比寿駅徒歩1分",
    "games": [
      "SOUND VOLTEX -Valkyrie model-"
    ]
  },
  {
    "name": "アドアーズ上野アメ横店",
    "operation_time": "10:00～23:30",
    "holiday": "無し",
    "latitude": "35.71002035",
    "longitude": "139.7742619",
    "tel": "03-5812-1570",
    "address": "台東区上野4-9-14上野KKビルB1-4F",
    "access": "アメ横センタービルそば",
    "games": [
      "SOUND VOLTEX -Valkyrie model-"
    ]
  },
  {
    "name": "イミグランデ日吉店",
    "operation_time": "8:00～24:00",
    "holiday": "無し",
    "latitude": "35.554136",
    "longitude": "139.646509",
    "tel": "045-624-8633",
    "address": "横浜市港北区日吉2-2-4日吉ビル",
    "access": "",
    "games": [
      "SOUND VOLTEX -Valkyrie model-"
    ]
  },
  {
    "name": "GiGO綱島",
    "operation_time": "",
    "holiday": "",
    "latitude": "35.5364623",
    "longitude": "139.6324113",
    "tel": "045-547-1199",
    "address": "横浜市港北区綱島西2-6-29城田ビル3F",
    "access": "",
    "games": [
      "SOUND VOLTEX -Valkyrie model-"
    ]
  },
  {
    "name": "東京レジャーランド秋葉原店",
    "operation_time": "10:00～25:00",
    "holiday": "無し",
    "latitude": "35.69887947",
    "longitude": "139.7701404",
    "tel": "03-5298-1360",
    "address": "千代田区外神田1-9-5",
    "access": "JR秋葉原駅徒歩5分",
    "games": [
      "SOUND VOLTEX -Valkyrie model-"
    ]
  },
  {
    "name": "東京レジャーランド秋葉原2号店",
    "operation_time": "10:00～25:00",
    "holiday": "無し",
    "latitude": "35.70073433",
    "longitude": "139.7718424",
    "tel": "03-5209-5650",
    "address": "千代田区外神田4-3-3",
    "access": "JR秋葉原駅より徒歩5分",
    "games": [
      "SOUND VOLTEX -Valkyrie model-"
    ]
  },
  {
    "name": "GiGO秋葉原3号館",
    "operation_time": "",
    "holiday": "",
    "latitude": "35.699336",
    "longitude": "139.770908",
    "tel": "03-5297-3601",
    "address": "千代田区外神田1-11-11外神田1丁目ビルディング",
    "access": "",
    "games": [
      "SOUND VOLTEX -Valkyrie model-"
    ]
  },
  {
    "name": "タイトーステーション秋葉原店",
    "operation_time": "10:00～24:00",
    "holiday": "無し",
    "latitude": "35.70025258",
    "longitude": "139.7716985",
    "tel": "03-5289-8445",
    "address": "千代田区外神田4-2-2貴三ビル",
    "access": "JR秋葉原駅電気街口を出て徒歩3分",
    "games": [
      "SOUND VOLTEX -Valkyrie model-"
    ]
  },
  {
    "name": "Hey(タイトー)",
    "operation_time": "10:00～24:00",
    "holiday": "無し",
    "latitude": "35.698992",
    "longitude": "139.77108",
    "tel": "03-5209-2030",
    "address": "千代田区外神田1-10-5広瀬本社ビル2F",
    "access": "JR秋葉原駅電気街口を出て徒歩2分",
    "games": [
      "SOUND VOLTEX -Valkyrie model-"
    ]
  },
  {
    "name": "シルクハット秋葉原",
    "operation_time": "",
    "holiday": "",
    "latitude": "35.69871026",
    "longitude": "139.7709979",
    "tel": "",
    "address": "千代田区外神田1-10-9",
    "access": "",
    "games": [
      "SOUND VOLTEX -Valkyrie model-"
    ]
  },
  {
    "name": "ゲームパニック秋葉原",
    "operation_time": "",
    "holiday": "",
    "latitude": "35.69891",
    "longitude": "139.77165",
    "tel": "03-6285-2820",
    "address": "千代田区外神田1-13-1第122東京ビル",
    "access": "",
    "games": [
      "SOUND VOLTEX -Valkyrie model-"
    ]
  },
  {
    "name": "アミューズパークいわき神谷店",
    "operation_time": "9:00～24:00",
    "holiday": "無し",
    "latitude": "37.06530832",
    "longitude": "140.9425725",
    "tel": "0246-34-7217",
    "address": "いわき市平下神谷字馬洗7-1",
    "access": "",
    "games": [
      "SOUND VOLTEX -Valkyrie model-"
    ]
  },
  {
    "name": "ラウンドワン横浜綱島店",
    "operation_time": "",
    "holiday": "",
    "latitude": "35.53198182",
    "longitude": "139.6371126",
    "tel": "045-533-6151",
    "address": "横浜市港北区樽町2-6-40T-PLATZ",
    "access": "",
    "games": [
      "SOUND VOLTEX -Valkyrie model-"
    ]
  },
  {
    "name": "ウェアハウス南流山店",
    "operation_time": "10:00～24:00",
    "holiday": "無し",
    "latitude": "35.84020798",
    "longitude": "139.9050111",
    "tel": "04-7159-2351",
    "address": "流山市南流山4-16-6",
    "access": "南流山駅から徒歩3分",
    "games": [
      "SOUND VOLTEX -Valkyrie model-"
    ]
  },
  {
    "name": "ゲームメガつくば店",
    "operation_time": "",
    "holiday": "",
    "latitude": "36.07682559",
    "longitude": "140.1047877",
    "tel": "029-846-1200",
    "address": "つくば市小野崎177-2",
    "access": "",
    "games": [
      "SOUND VOLTEX -Valkyrie model-"
    ]
  },
  {
    "name": "ユーズランド水戸内原店",
    "operation_time": "10:00～21:00",
    "holiday": "",
    "latitude": "36.374428",
    "longitude": "140.3590138",
    "tel": "029-259-1218",
    "address": "水戸市内原2-1イオンモール水戸内原2F",
    "access": "",
    "games": [
      "SOUND VOLTEX -Valkyrie model-"
    ]
  },
  {
    "name": "東京レジャーランド亀有店",
    "operation_time": "",
    "holiday": "",
    "latitude": "35.765462",
    "longitude": "139.84798",
    "tel": "03-5680-8893",
    "address": "葛飾区亀有3-21-2",
    "access": "",
    "games": [
      "SOUND VOLTEX -Valkyrie model-"
    ]
  },
  {
    "name": "GiGOデイズタウンつくば",
    "operation_time": "10:00～24:00",
    "holiday": "無休",
    "latitude": "36.07768145",
    "longitude": "140.1153322",
    "tel": "070-1459-0875",
    "address": "つくば市竹園1-9-2デイズタウンつくばB1F",
    "access": "つくば駅徒歩5分デイズタウンつくばB1F",
    "games": [
      "SOUND VOLTEX -Valkyrie model-"
    ]
  },
  {
    "name": "嶺宝スポーツセンター",
    "operation_time": "11:00～23:00",
    "holiday": "火曜日",
    "latitude": "36.97400283",
    "longitude": "140.8903913",
    "tel": "0246-58-8093",
    "address": "いわき市小名浜住吉字折返2-2",
    "access": "6号バイパス住吉交差点横",
    "games": [
      "SOUND VOLTEX -Valkyrie model-"
    ]
  },
  {
    "name": "スーパーウェーブ柏店",
    "operation_time": "9:00～24:00",
    "holiday": "無し",
    "latitude": "35.88165286",
    "longitude": "139.9615303",
    "tel": "04-7144-8366",
    "address": "柏市十余二249-5MEM内",
    "access": "国道16号線沿い マルハンエンタテインメントモール内",
    "games": [
      "SOUND VOLTEX -Valkyrie model-"
    ]
  },
  {
    "name": "ラウンドワン横浜駅西口店",
    "operation_time": "",
    "holiday": "",
    "latitude": "35.46393717",
    "longitude": "139.6180549",
    "tel": "045-412-0880",
    "address": "横浜市西区南幸2-8-16",
    "access": "",
    "games": [
      "SOUND VOLTEX -Valkyrie model-"
    ]
  },
  {
    "name": "タイトーステーション横浜西口五番街店",
    "operation_time": "平日10:00～23:50 土日祝日9:00～23:50",
    "holiday": "無し",
    "latitude": "35.464648",
    "longitude": "139.619593",
    "tel": "045-411-5288",
    "address": "横浜市西区南幸1-12-9",
    "access": "JR・相鉄線・東横線・みなとみらい線 横浜駅より徒歩3分",
    "games": [
      "SOUND VOLTEX -Valkyrie model-"
    ]
  },
  {
    "name": "タイトーFステーションオリナス錦糸町店",
    "operation_time": "10:00～23:45",
    "holiday": "無し",
    "latitude": "35.700721",
    "longitude": "139.816024",
    "tel": "03-5610-7376",
    "address": "墨田区太平4-1-2オリナスB1F",
    "access": "JR総武線錦糸町駅北口から徒歩5分",
    "games": [
      "SOUND VOLTEX -Valkyrie model-"
    ]
  },
  {
    "name": "GiGO立石",
    "operation_time": "",
    "holiday": "",
    "latitude": "35.73960492",
    "longitude": "139.8494477",
    "tel": "070-6631-7803",
    "address": "葛飾区立石7-3-6リ･セブン",
    "access": "",
    "games": [
      "SOUND VOLTEX -Valkyrie model-"
    ]
  },
  {
    "name": "シルクハット大船",
    "operation_time": "9:00～23:45",
    "holiday": "無し",
    "latitude": "35.35325232",
    "longitude": "139.5325488",
    "tel": "",
    "address": "鎌倉市大船1-24大船駅前ビル1-3F",
    "access": "JR大船駅徒歩1分",
    "games": [
      "SOUND VOLTEX -Valkyrie model-"
    ]
  },
  {
    "name": "タイトーステーション錦糸町楽天地店",
    "operation_time": "10:00～24:00",
    "holiday": "無し",
    "latitude": "35.696456",
    "longitude": "139.815836",
    "tel": "03-5638-0701",
    "address": "墨田区江東橋4-27-14楽天地ビルB1F",
    "access": "東京メトロ半蔵門線・錦糸町駅2番出口直通!東京楽天地ビル地下1階",
    "games": [
      "SOUND VOLTEX -Valkyrie model-"
    ]
  },
  {
    "name": "GiGO大森",
    "operation_time": "",
    "holiday": "",
    "latitude": "35.590043",
    "longitude": "139.72823",
    "tel": "03-5709-0669",
    "address": "大田区山王2-1-5大森駅ララビル2F",
    "access": "",
    "games": [
      "SOUND VOLTEX -Valkyrie model-"
    ]
  },
  {
    "name": "アドアーズ亀戸店",
    "operation_time": "10:00～23:45",
    "holiday": "無し",
    "latitude": "35.69873199",
    "longitude": "139.8259341",
    "tel": "03-5836-5761",
    "address": "江東区亀戸5-2-6サンエービル1-5F",
    "access": "明治通りラーメン「日高屋」隣",
    "games": [
      "SOUND VOLTEX -Valkyrie model-"
    ]
  },
  {
    "name": "シルクハット蒲田西口",
    "operation_time": "10:00～24:45",
    "holiday": "",
    "latitude": "35.56301591",
    "longitude": "139.7158447",
    "tel": "",
    "address": "大田区西蒲田7-2-3第二醍醐ビルB1-2F",
    "access": "",
    "games": [
      "SOUND VOLTEX -Valkyrie model-"
    ]
  },
  {
    "name": "namco松戸店",
    "operation_time": "",
    "holiday": "",
    "latitude": "35.783581",
    "longitude": "139.900789",
    "tel": "047-711-7274",
    "address": "松戸市松戸1230-1ピアザ松戸1F",
    "access": "",
    "games": [
      "SOUND VOLTEX -Valkyrie model-"
    ]
  },
  {
    "name": "ゲームガリバー柏",
    "operation_time": "8:30～23:00",
    "holiday": "無し",
    "latitude": "35.86153036",
    "longitude": "139.970926",
    "tel": "04-7164-9818",
    "address": "柏市柏1-1-11ファミリかしわB1F",
    "access": "JR柏駅東口および南口マルイ地下1階",
    "games": [
      "SOUND VOLTEX -Valkyrie model-"
    ]
  },
  {
    "name": "ラウンドワンダイバーシティ東京プラザ店",
    "operation_time": "",
    "holiday": "",
    "latitude": "35.62521",
    "longitude": "139.775732",
    "tel": "03-3527-8491",
    "address": "江東区青海1-1-10ダイバーシティ東京6F-6100",
    "access": "",
    "games": [
      "SOUND VOLTEX -Valkyrie model-"
    ]
  },
  {
    "name": "柏駅前ヤングボウル",
    "operation_time": "",
    "holiday": "",
    "latitude": "35.8605258",
    "longitude": "139.9713721",
    "tel": "047-164-2117",
    "address": "柏市柏1-3-1ドン･キホーテ5F",
    "access": "",
    "games": [
      "SOUND VOLTEX -Valkyrie model-"
    ]
  },
  {
    "name": "タイトーステーション柏店",
    "operation_time": "10:00～24:00",
    "holiday": "無し",
    "latitude": "35.86145714",
    "longitude": "139.972664",
    "tel": "04-7164-0866",
    "address": "柏市柏2-3-1",
    "access": "JR常磐線・柏駅より徒歩3分",
    "games": [
      "SOUND VOLTEX -Valkyrie model-"
    ]
  },
  {
    "name": "シルクハット川崎ダイス",
    "operation_time": "9:00～24:45",
    "holiday": "無し",
    "latitude": "35.5314121",
    "longitude": "139.7002166",
    "tel": "",
    "address": "川崎市川崎区駅前本町8ダイスビルB2F",
    "access": "JR川崎駅アゼリア地下街と直結、京急川崎駅中央口徒歩1分",
    "games": [
      "SOUND VOLTEX -Valkyrie model-"
    ]
  },
  {
    "name": "ピンクパンサー 水戸赤塚店",
    "operation_time": "10:00～24:00",
    "holiday": "無し",
    "latitude": "36.3807337",
    "longitude": "140.4136026",
    "tel": "029-309-1983",
    "address": "水戸市河和田1-1",
    "access": "JR水戸線 赤塚駅徒歩5分 フレスポ赤塚内",
    "games": [
      "SOUND VOLTEX -Valkyrie model-"
    ]
  },
  {
    "name": "シルクハット伊勢佐木町",
    "operation_time": "9:00～23:45",
    "holiday": "無し",
    "latitude": "35.44281185",
    "longitude": "139.629987",
    "tel": "",
    "address": "横浜市中区伊勢佐木町3-96日活会館ビル3F",
    "access": "JR関内駅北口より徒歩7分・京急線日ノ出町より徒歩6分・横浜市営地下鉄ブルーライン伊勢佐木長者町駅より徒歩4分",
    "games": [
      "SOUND VOLTEX -Valkyrie model-"
    ]
  },
  {
    "name": "AMFマーズ",
    "operation_time": "8:30～翌1:00",
    "holiday": "無し",
    "latitude": "35.44284793",
    "longitude": "139.6311041",
    "tel": "045-243-6033",
    "address": "横浜市中区長者町6-106",
    "access": "JR「関内駅」下車徒歩3分",
    "games": [
      "SOUND VOLTEX -Valkyrie model-"
    ]
  },
  {
    "name": "アドアーズ新小岩店",
    "operation_time": "10:00～23:45",
    "holiday": "無し",
    "latitude": "35.71623508",
    "longitude": "139.8580953",
    "tel": "03-5678-5257",
    "address": "葛飾区新小岩1-44-4VORT新小岩B1-3F",
    "access": "新小岩駅南口ロータリーすぐ看板",
    "games": [
      "SOUND VOLTEX -Valkyrie model-"
    ]
  },
  {
    "name": "ラウンドワン南砂店",
    "operation_time": "",
    "holiday": "",
    "latitude": "35.67184786",
    "longitude": "139.8361845",
    "tel": "03-5617-6911",
    "address": "江東区南砂6-7-15トピレックプラザ4F",
    "access": "",
    "games": [
      "SOUND VOLTEX -Valkyrie model-"
    ]
  },
  {
    "name": "江戸川ヤングボウル",
    "operation_time": "一部24時間",
    "holiday": "無し",
    "latitude": "35.71124527",
    "longitude": "139.8694303",
    "tel": "03-3651-1100",
    "address": "江戸川区中央4-22-25",
    "access": "江戸川区文化センター隣",
    "games": [
      "SOUND VOLTEX -Valkyrie model-"
    ]
  },
  {
    "name": "GiGO八柱",
    "operation_time": "",
    "holiday": "",
    "latitude": "35.79133049",
    "longitude": "139.937777",
    "tel": "047-392-4661",
    "address": "松戸市日暮1-1-1八柱駅第2ビル2F",
    "access": "",
    "games": [
      "SOUND VOLTEX -Valkyrie model-"
    ]
  },
  {
    "name": "ピンクパンサー土浦店",
    "operation_time": "",
    "holiday": "",
    "latitude": "36.106571",
    "longitude": "140.215204",
    "tel": "029-886-6467",
    "address": "土浦市木田余4585-3",
    "access": "",
    "games": [
      "SOUND VOLTEX -Valkyrie model-"
    ]
  },
  {
    "name": "ラウンドワン川崎大師店",
    "operation_time": "",
    "holiday": "",
    "latitude": "35.53846653",
    "longitude": "139.741634",
    "tel": "044-270-1541",
    "address": "川崎市川崎区殿町1-5-1",
    "access": "",
    "games": [
      "SOUND VOLTEX -Valkyrie model-"
    ]
  },
  {
    "name": "GiGO船堀",
    "operation_time": "",
    "holiday": "",
    "latitude": "35.68469819",
    "longitude": "139.8639374",
    "tel": "03-5676-2522",
    "address": "江戸川区船堀1-6-11",
    "access": "",
    "games": [
      "SOUND VOLTEX -Valkyrie model-"
    ]
  },
  {
    "name": "GiGO新杉田",
    "operation_time": "",
    "holiday": "",
    "latitude": "35.38563947",
    "longitude": "139.6189989",
    "tel": "045-772-8230",
    "address": "横浜市磯子区杉田1-1-1らびすた新杉田2F",
    "access": "",
    "games": [
      "SOUND VOLTEX -Valkyrie model-"
    ]
  },
  {
    "name": "ゲームパニックつくば",
    "operation_time": "",
    "holiday": "",
    "latitude": "36.04632758",
    "longitude": "140.1679958",
    "tel": "080-3350-1839",
    "address": "土浦市中村東1-1-1",
    "access": "",
    "games": [
      "SOUND VOLTEX -Valkyrie model-"
    ]
  },
  {
    "name": "GiGO水戸南",
    "operation_time": "",
    "holiday": "",
    "latitude": "36.350325",
    "longitude": "140.443003",
    "tel": "029-244-1045",
    "address": "水戸市千波町2017-1",
    "access": "",
    "games": [
      "SOUND VOLTEX -Valkyrie model-"
    ]
  },
  {
    "name": "ラウンドワンアリオ柏店",
    "operation_time": "",
    "holiday": "",
    "latitude": "35.832403",
    "longitude": "140.012023",
    "tel": "04-7190-1201",
    "address": "柏市大島田1-6-1セブンパークアリオ柏 1070",
    "access": "",
    "games": [
      "SOUND VOLTEX -Valkyrie model-"
    ]
  },
  {
    "name": "GiGO水戸",
    "operation_time": "",
    "holiday": "",
    "latitude": "36.369467",
    "longitude": "140.474532",
    "tel": "029-231-1002",
    "address": "水戸市宮町1-7-44コムボックス310 3F",
    "access": "",
    "games": [
      "SOUND VOLTEX -Valkyrie model-"
    ]
  },
  {
    "name": "スタジオプリモ本八幡店",
    "operation_time": "",
    "holiday": "",
    "latitude": "35.72122007",
    "longitude": "139.9274269",
    "tel": "047-711-3534",
    "address": "市川市八幡2-15-10パティオ本八幡5F",
    "access": "",
    "games": [
      "SOUND VOLTEX -Valkyrie model-"
    ]
  },
  {
    "name": "ゲームメガ日立店",
    "operation_time": "10:00～24:00",
    "holiday": "無し",
    "latitude": "36.54818909",
    "longitude": "140.6305166",
    "tel": "0294-32-1983",
    "address": "日立市東多賀町5-10-10",
    "access": "常陸多賀駅徒歩5分",
    "games": [
      "SOUND VOLTEX -Valkyrie model-"
    ]
  },
  {
    "name": "ラウンドワン市川鬼高店",
    "operation_time": "",
    "holiday": "",
    "latitude": "35.711239",
    "longitude": "139.927465",
    "tel": "047-320-3801",
    "address": "市川市鬼高4-1-3",
    "access": "",
    "games": [
      "SOUND VOLTEX -Valkyrie model-"
    ]
  },
  {
    "name": "ゲームプラザセントラル浦安店",
    "operation_time": "10:00～24:00",
    "holiday": "無し",
    "latitude": "35.66516962",
    "longitude": "139.8933569",
    "tel": "0473-55-2447",
    "address": "浦安市北栄1-16-15",
    "access": "地下鉄東西線浦安駅前",
    "games": [
      "SOUND VOLTEX -Valkyrie model-"
    ]
  },
  {
    "name": "アミューズメントパレスワンダーヴュー阿見店",
    "operation_time": "",
    "holiday": "",
    "latitude": "36.04223085",
    "longitude": "140.2100215",
    "tel": "0476-23-0561",
    "address": "稲敷郡阿見町大字阿見2958ショッピングセンターマイ･アミ2F",
    "access": "",
    "games": [
      "SOUND VOLTEX -Valkyrie model-"
    ]
  },
  {
    "name": "タイトーFステーション市川妙典店",
    "operation_time": "施設の営業時間に準じる",
    "holiday": "施設の営業日に準じる",
    "latitude": "35.69246485",
    "longitude": "139.9267286",
    "tel": "047-318-3933",
    "address": "市川市妙典4-1-1イオン市川妙典店2番街2F",
    "access": "",
    "games": [
      "SOUND VOLTEX -Valkyrie model-"
    ]
  },
  {
    "name": "アミューズビバ",
    "operation_time": "",
    "holiday": "",
    "latitude": "36.40636031",
    "longitude": "140.5317325",
    "tel": "029-274-7311",
    "address": "ひたちなか市東大島2-11-11-1Fゲームコーナー",
    "access": "勝田駅東口より北へ1km",
    "games": [
      "SOUND VOLTEX -Valkyrie model-"
    ]
  },
  {
    "name": "ゲームメガ水戸けやき台店",
    "operation_time": "10:00～24:00",
    "holiday": "無し",
    "latitude": "36.33805576",
    "longitude": "140.4832773",
    "tel": "029-247-1983",
    "address": "水戸市酒門町3276-1",
    "access": "50号バイパス沿い",
    "games": [
      "SOUND VOLTEX -Valkyrie model-"
    ]
  },
  {
    "name": "GiGOイオン新浦安ｼｮｯﾋﾟﾝｸﾞｾﾝﾀｰ",
    "operation_time": "9:00～24:00",
    "holiday": "無し",
    "latitude": "35.64896456",
    "longitude": "139.9148303",
    "tel": "070-1201-3891",
    "address": "浦安市入船1-4-1イオン新浦安4F",
    "access": "JR京葉線新浦安駅より徒歩5分 ダイエーショッパーズプラザ4F",
    "games": [
      "SOUND VOLTEX -Valkyrie model-"
    ]
  },
  {
    "name": "アドアーズ船橋店",
    "operation_time": "10:00～23:45",
    "holiday": "",
    "latitude": "35.700449",
    "longitude": "139.984231",
    "tel": "047-411-3337",
    "address": "船橋市本町1-31-26セブン船橋B1-3F",
    "access": "",
    "games": [
      "SOUND VOLTEX -Valkyrie model-"
    ]
  },
  {
    "name": "テクモピア船橋南口店",
    "operation_time": "",
    "holiday": "",
    "latitude": "35.69908",
    "longitude": "139.98582",
    "tel": "047-401-4322",
    "address": "船橋市本町1-7-6ドリーム船橋ビル3F",
    "access": "",
    "games": [
      "SOUND VOLTEX -Valkyrie model-"
    ]
  },
  {
    "name": "アドアーズ横須賀店",
    "operation_time": "10:00～23:00",
    "holiday": "無し",
    "latitude": "35.28109296",
    "longitude": "139.6626182",
    "tel": "046-829-1325",
    "address": "横須賀市本町3-27横須賀APT1F",
    "access": "京急汐入駅前ベイスクエア横須賀",
    "games": [
      "SOUND VOLTEX -Valkyrie model-"
    ]
  },
  {
    "name": "アミューズメントエース津田沼",
    "operation_time": "9:00～24:00",
    "holiday": "無し",
    "latitude": "35.69228053",
    "longitude": "140.0201572",
    "tel": "047-475-8918",
    "address": "船橋市前原西2-15-1ファミービル1-3F",
    "access": "JR「津田沼駅」下車北口より徒歩1分",
    "games": [
      "SOUND VOLTEX -Valkyrie model-"
    ]
  },
  {
    "name": "シルクハット津田沼",
    "operation_time": "9:00～23:45",
    "holiday": "無し",
    "latitude": "35.69040687",
    "longitude": "140.0221583",
    "tel": "",
    "address": "習志野市津田沼1-2-1十三ビルB1F",
    "access": "JR津田沼駅、京成新津田沼駅徒歩1分",
    "games": [
      "SOUND VOLTEX -Valkyrie model-"
    ]
  },
  {
    "name": "GiGOひたちなか",
    "operation_time": "",
    "holiday": "",
    "latitude": "36.34756197",
    "longitude": "140.5803556",
    "tel": "070-1449-2941",
    "address": "ひたちなか市田中後40-11",
    "access": "",
    "games": [
      "SOUND VOLTEX -Valkyrie model-"
    ]
  },
  {
    "name": "ラッキーバッティングドーム",
    "operation_time": "9:00～23:50",
    "holiday": "無し",
    "latitude": "35.72444576",
    "longitude": "140.0674286",
    "tel": "047-458-8208",
    "address": "八千代市大和田新田1088",
    "access": "東葉高速鉄道八千代緑が丘駅徒歩10分",
    "games": [
      "SOUND VOLTEX -Valkyrie model-"
    ]
  },
  {
    "name": "ラウンドワン習志野店",
    "operation_time": "",
    "holiday": "",
    "latitude": "35.660295",
    "longitude": "140.022576",
    "tel": "047-408-1901",
    "address": "習志野市芝園1-4-5",
    "access": "",
    "games": [
      "SOUND VOLTEX -Valkyrie model-"
    ]
  },
  {
    "name": "アピナ印西店",
    "operation_time": "",
    "holiday": "",
    "latitude": "35.803009",
    "longitude": "140.162496",
    "tel": "0476-48-5841",
    "address": "印西市原1-2ビッグホップガーデンモール印西2F",
    "access": "",
    "games": [
      "SOUND VOLTEX -Valkyrie model-"
    ]
  },
  {
    "name": "GiGO幕張",
    "operation_time": "",
    "holiday": "",
    "latitude": "35.65022338",
    "longitude": "140.0425216",
    "tel": "043-273-5261",
    "address": "千葉市美浜区ひび野1-8メッセアミューズモール1F",
    "access": "",
    "games": [
      "SOUND VOLTEX -Valkyrie model-"
    ]
  },
  {
    "name": "ラッキー佐倉店",
    "operation_time": "10:00～23:45",
    "holiday": "無し",
    "latitude": "35.71839979",
    "longitude": "140.1362206",
    "tel": "043-460-5165",
    "address": "佐倉市井野1475",
    "access": "京成線勝田台駅下車徒歩10分 国道296号沿い",
    "games": [
      "SOUND VOLTEX -Valkyrie model-"
    ]
  },
  {
    "name": "スポーツウェーブ鉄腕24稲毛長沼店",
    "operation_time": "一部24時間営業",
    "holiday": "無し",
    "latitude": "35.66179317",
    "longitude": "140.1264239",
    "tel": "043-215-5560",
    "address": "千葉市稲毛区長沼原町697",
    "access": "東関東自動車道 千葉北ICから約5分 千葉総合運動場そば",
    "games": [
      "SOUND VOLTEX -Valkyrie model-"
    ]
  },
  {
    "name": "イスカンダル木更津店",
    "operation_time": "10:00～24:00",
    "holiday": "無し",
    "latitude": "35.36956684",
    "longitude": "139.9172944",
    "tel": "0120-010-267",
    "address": "木更津市潮見4-1-2",
    "access": "木更津市役所より車で1分",
    "games": [
      "SOUND VOLTEX -Valkyrie model-"
    ]
  },
  {
    "name": "ラッキー中央店(フェリシダ)",
    "operation_time": "9:00～24:50",
    "holiday": "無し",
    "latitude": "35.61028144",
    "longitude": "140.1182438",
    "tel": "043-222-5610",
    "address": "千葉市中央区富士見2-8-1",
    "access": "JR千葉駅より徒歩5分",
    "games": [
      "SOUND VOLTEX -Valkyrie model-"
    ]
  },
  {
    "name": "ゲームチャリオット五井店",
    "operation_time": "10:00～24:00",
    "holiday": "無し",
    "latitude": "35.51363106",
    "longitude": "140.0899562",
    "tel": "0436-23-5533",
    "address": "市原市五井中央西2-1-2",
    "access": "JR五井駅西口駅前",
    "games": [
      "SOUND VOLTEX -Valkyrie model-"
    ]
  },
  {
    "name": "スポーツウェーブ鉄腕24浜野店",
    "operation_time": "一部24時間営業",
    "holiday": "無し",
    "latitude": "35.55423187",
    "longitude": "140.1264305",
    "tel": "043-300-8033",
    "address": "千葉市中央区浜野町1025-59",
    "access": "館山自動車道蘇我ICより車で8分",
    "games": [
      "SOUND VOLTEX -Valkyrie model-"
    ]
  },
  {
    "name": "ラウンドワン市原店",
    "operation_time": "",
    "holiday": "",
    "latitude": "35.54749256",
    "longitude": "140.1233239",
    "tel": "0436-44-8801",
    "address": "市原市八幡北町3-5-1",
    "access": "",
    "games": [
      "SOUND VOLTEX -Valkyrie model-"
    ]
  },
  {
    "name": "フリスポ佐原",
    "operation_time": "",
    "holiday": "",
    "latitude": "35.90115035",
    "longitude": "140.493442",
    "tel": "0478-54-6160",
    "address": "香取市佐原イ-4200",
    "access": "",
    "games": [
      "SOUND VOLTEX -Valkyrie model-"
    ]
  },
  {
    "name": "GiGOショッピングセンターチェリオ鹿嶋",
    "operation_time": "10:00～22:00",
    "holiday": "無し",
    "latitude": "35.95961418",
    "longitude": "140.6439708",
    "tel": "080-4831-9114",
    "address": "鹿嶋市宮中290-1ショッピングセンターチェリオ1F",
    "access": "鹿嶋市 ショッピングセンターチェリオ 1F",
    "games": [
      "SOUND VOLTEX -Valkyrie model-"
    ]
  },
  {
    "name": "GiGO神栖",
    "operation_time": "10:00～24:00",
    "holiday": "無し",
    "latitude": "35.89792811",
    "longitude": "140.6444633",
    "tel": "070-1458-2514",
    "address": "神栖市神栖1-8-1",
    "access": "東関東自動車道:潮来I.Cから約10分",
    "games": [
      "SOUND VOLTEX -Valkyrie model-"
    ]
  },
  {
    "name": "千葉レジャーランド成東店",
    "operation_time": "一部24時間営業",
    "holiday": "無し",
    "latitude": "35.58828462",
    "longitude": "140.3904243",
    "tel": "047-580-1777",
    "address": "山武市姫島111-1",
    "access": "国道126号線成東町姫島地内ローソン奥",
    "games": [
      "SOUND VOLTEX -Valkyrie model-"
    ]
  }
]