[
  {
    "name": "ラウンドワン佐賀店",
    "operation_time": "",
    "holiday": "",
    "latitude": "33.27533631",
    "longitude": "130.3015536",
    "tel": "0952-36-7070",
    "address": "佐賀市兵庫北4-2-1",
    "access": "",
    "games": [
      "ツナガロッタ アニマと虹色の秘境"
    ]
  },
  {
    "name": "ラウンドワン沖縄･南風原店",
    "operation_time": "",
    "holiday": "",
    "latitude": "26.19509176",
    "longitude": "127.7210653",
    "tel": "098-940-6670",
    "address": "島尻郡南風原町字兼城下茂原552",
    "access": "",
    "games": [
      "ツナガロッタ アニマと虹色の秘境"
    ]
  },
  {
    "name": "アピナ姫路店",
    "operation_time": "",
    "holiday": "",
    "latitude": "34.82687",
    "longitude": "134.7151",
    "tel": "079-222-8811",
    "address": "姫路市東郷町1454-3姫路リオス2F",
    "access": "",
    "games": [
      "ツナガロッタ アニマと虹色の秘境"
    ]
  },
  {
    "name": "ホムスタ加古川店",
    "operation_time": "10:00～24:00",
    "holiday": "無し",
    "latitude": "34.74552902",
    "longitude": "134.8355115",
    "tel": "0794-56-2121",
    "address": "加古川市尾上町安田351-1メガコート",
    "access": "",
    "games": [
      "ツナガロッタ アニマと虹色の秘境"
    ]
  },
  {
    "name": "ホムスタ玉津店",
    "operation_time": "10:00～24:00",
    "holiday": "無し",
    "latitude": "34.67922481",
    "longitude": "134.9831791",
    "tel": "078-920-3337",
    "address": "神戸市西区丸塚2-9-18メガパレス2F",
    "access": "第二神名玉津IC下車車5分",
    "games": [
      "ツナガロッタ アニマと虹色の秘境"
    ]
  },
  {
    "name": "バイパスレジャーランド藤江本館",
    "operation_time": "一部24時間営業",
    "holiday": "無し",
    "latitude": "36.58397239",
    "longitude": "136.621523",
    "tel": "076-268-3798",
    "address": "金沢市藤江南2-41",
    "access": "国道8号線沿い藤江交差点近く",
    "games": [
      "ツナガロッタ アニマと虹色の秘境"
    ]
  },
  {
    "name": "タカラ島 亀岡店",
    "operation_time": "10:00～22:00",
    "holiday": "無し",
    "latitude": "35.00139704",
    "longitude": "135.6029062",
    "tel": "0771-25-9886",
    "address": "亀岡市篠町野条上又11-1アルプラザ亀岡店3F",
    "access": "嵯峨野線馬堀駅徒歩15分",
    "games": [
      "ツナガロッタ アニマと虹色の秘境"
    ]
  },
  {
    "name": "ゲームパニック堺",
    "operation_time": "10:00～23:45",
    "holiday": "無し",
    "latitude": "34.597817",
    "longitude": "135.447433",
    "tel": "072-224-8295",
    "address": "堺市堺区築港八幡町1-1堺浜シーサイド内堺浜えんため館",
    "access": "南海バス20系統「堺市内北回り」 堺駅西口→堺浜シーサイドステージ約17分 堺東駅→堺浜シーサイドステージ約25分",
    "games": [
      "ツナガロッタ アニマと虹色の秘境"
    ]
  },
  {
    "name": "YAZ寝屋川店",
    "operation_time": "",
    "holiday": "",
    "latitude": "34.78044073",
    "longitude": "135.6193889",
    "tel": "072-830-7755",
    "address": "寝屋川市石津中町25-26",
    "access": "",
    "games": [
      "ツナガロッタ アニマと虹色の秘境"
    ]
  },
  {
    "name": "アピナ富山新庄店",
    "operation_time": "10:00～24:00",
    "holiday": "無し",
    "latitude": "36.69533117",
    "longitude": "137.2480753",
    "tel": "076-491-7700",
    "address": "富山市荒川3-2-12",
    "access": "",
    "games": [
      "ツナガロッタ アニマと虹色の秘境"
    ]
  },
  {
    "name": "ゲームファンタジアン柳津店",
    "operation_time": "一部24時間営業",
    "holiday": "無し",
    "latitude": "35.37596826",
    "longitude": "136.7145391",
    "tel": "058-279-0085",
    "address": "岐阜市柳津町上佐波西3-68",
    "access": "岐阜県ふれあい会館から南に4分",
    "games": [
      "ツナガロッタ アニマと虹色の秘境"
    ]
  },
  {
    "name": "アピナ四日市店",
    "operation_time": "",
    "holiday": "",
    "latitude": "34.94000426",
    "longitude": "136.6070666",
    "tel": "059-349-5011",
    "address": "四日市市泊小柳町4-34",
    "access": "",
    "games": [
      "ツナガロッタ アニマと虹色の秘境"
    ]
  },
  {
    "name": "GiGO東名ボール",
    "operation_time": "",
    "holiday": "",
    "latitude": "35.209234",
    "longitude": "137.062873",
    "tel": "070-1459-2466",
    "address": "瀬戸市西原町2-114",
    "access": "",
    "games": [
      "ツナガロッタ アニマと虹色の秘境"
    ]
  },
  {
    "name": "ゲームパニック大高",
    "operation_time": "9:00～23:45",
    "holiday": "無し",
    "latitude": "35.04850561",
    "longitude": "136.9496236",
    "tel": "052-625-5360",
    "address": "名古屋市緑区忠治山201グランドボウルB2F",
    "access": "国道23号線大高町共和IC側道グランドボウルB2階",
    "games": [
      "ツナガロッタ アニマと虹色の秘境"
    ]
  },
  {
    "name": "アピナ長野村山店",
    "operation_time": "10:00～24:00",
    "holiday": "無し",
    "latitude": "36.6682177",
    "longitude": "138.2633103",
    "tel": "0262-95-9911",
    "address": "長野市村山502-1アミューズメントプレイスアピナ",
    "access": "R18号アップルライン入口",
    "games": [
      "ツナガロッタ アニマと虹色の秘境"
    ]
  },
  {
    "name": "GiGO北岡崎",
    "operation_time": "9:00～24:00",
    "holiday": "無し",
    "latitude": "34.97365547",
    "longitude": "137.1600268",
    "tel": "070-1393-5583",
    "address": "岡崎市錦町2-4",
    "access": "国道248号線沿い、愛知環状線北岡崎駅から徒歩3分",
    "games": [
      "ツナガロッタ アニマと虹色の秘境"
    ]
  },
  {
    "name": "アピナ富谷店",
    "operation_time": "",
    "holiday": "",
    "latitude": "38.36528256",
    "longitude": "140.8765988",
    "tel": "022-341-5177",
    "address": "富谷市大清水1-33-1イオンモール109シネマズ富谷1F",
    "access": "",
    "games": [
      "ツナガロッタ アニマと虹色の秘境"
    ]
  },
  {
    "name": "ゲームコーナー東部",
    "operation_time": "9:00～24:00",
    "holiday": "無し",
    "latitude": "38.25101621",
    "longitude": "140.9438974",
    "tel": "022-287-5880",
    "address": "仙台市若林区六丁の目中町26-60",
    "access": "六丁目の交差点より多賀城方面へ向かい車で5分。産業通り沿い。",
    "games": [
      "ツナガロッタ アニマと虹色の秘境"
    ]
  },
  {
    "name": "アピナ太田店",
    "operation_time": "10:00～24:00",
    "holiday": "無し",
    "latitude": "36.28282169",
    "longitude": "139.3983139",
    "tel": "0276-48-1489",
    "address": "太田市内ヶ島町907-1",
    "access": "太田駅より車で5分富士重工近く",
    "games": [
      "ツナガロッタ アニマと虹色の秘境"
    ]
  },
  {
    "name": "アピナ焼津店",
    "operation_time": "",
    "holiday": "",
    "latitude": "34.83371431",
    "longitude": "138.3059489",
    "tel": "054-623-8555",
    "address": "焼津市道原585",
    "access": "",
    "games": [
      "ツナガロッタ アニマと虹色の秘境"
    ]
  },
  {
    "name": "タイトーFステーションおやまゆうえん店",
    "operation_time": "",
    "holiday": "",
    "latitude": "36.334678",
    "longitude": "139.807785",
    "tel": "0285-25-8661",
    "address": "小山市喜沢1475-52ハーヴェストウォーク内",
    "access": "",
    "games": [
      "ツナガロッタ アニマと虹色の秘境"
    ]
  },
  {
    "name": "ドラマ瑞穂店",
    "operation_time": "10:00～24:00",
    "holiday": "無し",
    "latitude": "35.76337213",
    "longitude": "139.3568934",
    "tel": "042-556-6605",
    "address": "西多摩郡瑞穂町武蔵382-1",
    "access": "JR八高線「箱根ヶ崎駅」から武蔵村山市方面に徒歩25分",
    "games": [
      "ツナガロッタ アニマと虹色の秘境"
    ]
  },
  {
    "name": "アピナ川越店",
    "operation_time": "10:00～24:00",
    "holiday": "無し",
    "latitude": "35.9037481",
    "longitude": "139.5155363",
    "tel": "049-230-1068",
    "address": "川越市泉町1-1",
    "access": "JR川越線南古谷駅徒歩3分",
    "games": [
      "ツナガロッタ アニマと虹色の秘境"
    ]
  },
  {
    "name": "Amusement&Game MAGHREB",
    "operation_time": "10:00～24:00",
    "holiday": "無し",
    "latitude": "35.624024",
    "longitude": "139.423196",
    "tel": "042-371-5556",
    "address": "多摩市落合1-39-2マグレブビル1F",
    "access": "京王線・小田急線 多摩センター駅 徒歩3分/多摩モノレール多摩センター駅 徒歩1分",
    "games": [
      "ツナガロッタ アニマと虹色の秘境"
    ]
  },
  {
    "name": "ドラマ港北インター店",
    "operation_time": "10:00～24:00",
    "holiday": "無し",
    "latitude": "35.51925659",
    "longitude": "139.5847927",
    "tel": "045-474-6604",
    "address": "横浜市都筑区東方町321-6",
    "access": "第三京浜港北IC右側交差点左折約500M",
    "games": [
      "ツナガロッタ アニマと虹色の秘境"
    ]
  },
  {
    "name": "ゲームパニック三郷",
    "operation_time": "",
    "holiday": "",
    "latitude": "35.84215546",
    "longitude": "139.8548102",
    "tel": "048-953-8295",
    "address": "三郷市ピアラシティ1-1-200",
    "access": "",
    "games": [
      "ツナガロッタ アニマと虹色の秘境"
    ]
  },
  {
    "name": "ドラマ藤沢店",
    "operation_time": "10:00～24:00",
    "holiday": "無し",
    "latitude": "35.35751243",
    "longitude": "139.4682681",
    "tel": "0466-82-0328",
    "address": "藤沢市本藤沢5-6-8",
    "access": "小田急江ノ島線善行駅より徒歩15分",
    "games": [
      "ツナガロッタ アニマと虹色の秘境"
    ]
  },
  {
    "name": "ゲームパニックつくば",
    "operation_time": "",
    "holiday": "",
    "latitude": "36.04632758",
    "longitude": "140.1679958",
    "tel": "080-3350-1839",
    "address": "土浦市中村東1-1-1",
    "access": "",
    "games": [
      "ツナガロッタ アニマと虹色の秘境"
    ]
  }
]