[
  {
    "name": "遊道楽時津店",
    "operation_time": "10:00～24:00",
    "holiday": "無し",
    "latitude": "32.82008054",
    "longitude": "129.8473546",
    "tel": "095-813-2525",
    "address": "西彼杵郡時津町元村郷863-10",
    "access": "川平有料道路入り口井出園交差点付近",
    "games": [
      "Winning Eleven AC 2014(ｽﾀﾝﾀﾞｰﾄﾞ筺体)"
    ]
  },
  {
    "name": "A.Cグランド",
    "operation_time": "9:00～24:00",
    "holiday": "無し",
    "latitude": "35.38308553",
    "longitude": "136.7461998",
    "tel": "058-275-0351",
    "address": "岐阜市茜部大川1-77",
    "access": "名鉄新岐阜駅15分",
    "games": [
      "Winning Eleven AC 2014(ｽﾀﾝﾀﾞｰﾄﾞ筺体)"
    ]
  },
  {
    "name": "パルケデアミーゴ",
    "operation_time": "",
    "holiday": "",
    "latitude": "38.28378194",
    "longitude": "140.3216374",
    "tel": "023-682-1613",
    "address": "山形市嶋北1-3-1",
    "access": "",
    "games": [
      "Winning Eleven AC 2014(ｽﾀﾝﾀﾞｰﾄﾞ筺体)"
    ]
  },
  {
    "name": "タイトーステーション仙台ベガロポリス店",
    "operation_time": "10:00～24:00",
    "holiday": "無し",
    "latitude": "38.21973354",
    "longitude": "140.8479417",
    "tel": "022-307-3685",
    "address": "仙台市太白区西多賀5-24-1",
    "access": "国道286号沿い、JR長町駅より車で10分",
    "games": [
      "Winning Eleven AC 2014(ｽﾀﾝﾀﾞｰﾄﾞ筺体)"
    ]
  },
  {
    "name": "アピナ太田店",
    "operation_time": "10:00～24:00",
    "holiday": "無し",
    "latitude": "36.28282169",
    "longitude": "139.3983139",
    "tel": "0276-48-1489",
    "address": "太田市内ヶ島町907-1",
    "access": "太田駅より車で5分富士重工近く",
    "games": [
      "Winning Eleven AC 2014(ｽﾀﾝﾀﾞｰﾄﾞ筺体)"
    ]
  },
  {
    "name": "GiGO相模原",
    "operation_time": "10:00～24:00",
    "holiday": "無し",
    "latitude": "35.57350902",
    "longitude": "139.3710322",
    "tel": "080-7465-6268",
    "address": "相模原市中央区中央2-1-5ムトス内",
    "access": "JR横浜線相模原駅徒歩15分国道16号線近く",
    "games": [
      "Winning Eleven AC 2014(ｽﾀﾝﾀﾞｰﾄﾞ筺体)"
    ]
  },
  {
    "name": "ゲームパーク石神井",
    "operation_time": "10:00～24:00",
    "holiday": "無し",
    "latitude": "35.74266197",
    "longitude": "139.6044655",
    "tel": "03-3997-3799",
    "address": "練馬区石神井町3-17-16",
    "access": "西部池袋線石神井公園駅徒歩2分",
    "games": [
      "Winning Eleven AC 2014(ｽﾀﾝﾀﾞｰﾄﾞ筺体)"
    ]
  }
]